[{"name": "\ubbf8\ub3c4\uc57d\uad6d", "lat": "37.87891010723065", "lng": "127.72895343579916", "url": "/info/%EB%AF%B8%EB%8F%84%EC%95%BD%EA%B5%AD-%EA%B0%95%EC%9B%90%EB%8F%84-%EC%B6%98%EC%B2%9C%EC%8B%9C-%EC%A1%B0%EC%96%91%EB%8F%99/", "workingTime": ["-", "08:30~18:00", "08:30~18:00", "08:30~17:30", "08:30~18:00", "08:30~18:00", "09:00~14:00", "-"]}, {"name": "\uac15\uc6d0\uc628\ub204\ub9ac\uc57d\uad6d", "lat": "37.8791272942767", "lng": "127.7292631697819", "url": "/info/%EA%B0%95%EC%9B%90%EC%98%A8%EB%88%84%EB%A6%AC%EC%95%BD%EA%B5%AD-%EA%B0%95%EC%9B%90%EB%8F%84-%EC%B6%98%EC%B2%9C%EC%8B%9C-%EC%A1%B0%EC%96%91%EB%8F%99/", "workingTime": ["-", "08:30~20:30", "08:30~20:30", "08:30~20:30", "08:30~20:30", "08:30~20:30", "08:30~13:30", "-"]}, {"name": "\uc720\ud55c\uc57d\uad6d", "lat": "37.87913921781383", "lng": "127.72850402945028", "url": "/info/%EC%9C%A0%ED%95%9C%EC%95%BD%EA%B5%AD-%EA%B0%95%EC%9B%90%EB%8F%84-%EC%B6%98%EC%B2%9C%EC%8B%9C-%EC%A1%B0%EC%96%91%EB%8F%99/", "workingTime": ["-", "09:00~19:00", "09:00~19:00", "09:00~19:00", "09:00~19:00", "09:00~19:00", "08:30~15:00", "-"]}, {"name": "\ub300\uc6c5\uc57d\uad6d", "lat": "37.87927307460768", "lng": "127.72911613483456", "url": "/info/%EB%8C%80%EC%9B%85%EC%95%BD%EA%B5%AD-%EA%B0%95%EC%9B%90%EB%8F%84-%EC%B6%98%EC%B2%9C%EC%8B%9C-%EC%A1%B0%EC%96%91%EB%8F%99/", "workingTime": ["-", "09:00~18:00", "09:00~18:00", "09:00~18:00", "09:00~18:00", "09:00~18:00", "09:00~15:00", "-"]}, {"name": "\uccad\uc194\uc57d\uad6d", "lat": "37.8793409917991", "lng": "127.729190940078", "url": "/info/%EC%B2%AD%EC%86%94%EC%95%BD%EA%B5%AD-%EA%B0%95%EC%9B%90%EB%8F%84-%EC%B6%98%EC%B2%9C%EC%8B%9C-%EC%A1%B0%EC%96%91%EB%8F%99/", "workingTime": ["1,2,3,4,5\uc9f8\uc8fc22:00~25:00", "22:00~25:00", "22:00~25:00", "22:00~25:00", "22:00~25:00", "22:00~25:00", "22:00~25:00", "22:00~25:00"]}]