[{"name": "\ubc14\ub978\uc57d\uad6d", "lat": "37.35347509627411", "lng": "127.94849313282302", "url": "/info/%EB%B0%94%EB%A5%B8%EC%95%BD%EA%B5%AD-%EA%B0%95%EC%9B%90%EB%8F%84-%EC%9B%90%EC%A3%BC%EC%8B%9C-%ED%95%99%EC%84%B1%EB%8F%99/", "workingTime": ["-", "09:00~19:00", "09:00~19:00", "09:00~19:00", "09:00~19:00", "09:00~19:00", "09:00~13:00", "-"]}, {"name": "\uc6b0\ub9ac\ub4e4\uc57d\uad6d", "lat": "37.3567821453357", "lng": "127.944028853913", "url": "/info/%EC%9A%B0%EB%A6%AC%EB%93%A4%EC%95%BD%EA%B5%AD-%EA%B0%95%EC%9B%90%EB%8F%84-%EC%9B%90%EC%A3%BC%EC%8B%9C-%ED%95%99%EC%84%B1%EB%8F%99/", "workingTime": ["-", "09:00~20:00", "09:00~20:00", "09:00~20:00", "09:00~20:00", "09:00~20:00", "09:00~20:00", "-"]}, {"name": "\ubaa8\ubc94\uc57d\uad6d", "lat": "37.35554363902494", "lng": "127.94314890580378", "url": "/info/%EB%AA%A8%EB%B2%94%EC%95%BD%EA%B5%AD-%EA%B0%95%EC%9B%90%EB%8F%84-%EC%9B%90%EC%A3%BC%EC%8B%9C-%ED%95%99%EC%84%B1%EB%8F%99/", "workingTime": ["-", "09:00~19:30", "09:00~19:30", "09:00~19:30", "09:00~19:30", "09:00~19:30", "09:00~18:00", "-"]}, {"name": "\uc0bc\uc131\uc57d\uad6d", "lat": "37.35590444691837", "lng": "127.94400218161037", "url": "/info/%EC%82%BC%EC%84%B1%EC%95%BD%EA%B5%AD-%EA%B0%95%EC%9B%90%EB%8F%84-%EC%9B%90%EC%A3%BC%EC%8B%9C-%ED%95%99%EC%84%B1%EB%8F%99/", "workingTime": ["-", "09:00~19:00", "09:00~19:00", "09:00~19:00", "09:00~19:00", "09:00~19:00", "09:00~13:00", "-"]}, {"name": "\uc911\uc559\uc57d\uad6d", "lat": "37.35398038843344", "lng": "127.94890807894022", "url": "/info/%EC%A4%91%EC%95%99%EC%95%BD%EA%B5%AD-%EA%B0%95%EC%9B%90%EB%8F%84-%EC%9B%90%EC%A3%BC%EC%8B%9C-%ED%95%99%EC%84%B1%EB%8F%99/", "workingTime": ["-", "09:00~18:00", "09:00~18:00", "09:00~18:00", "09:00~18:00", "09:00~18:00", "09:00~12:30", "-"]}]