[{"name": "\uadf8\ub9b0\ub77c\uc774\ud504\uc57d\uad6d", "lat": "37.4413321475729", "lng": "129.163918872946", "url": "/info/%EA%B7%B8%EB%A6%B0%EB%9D%BC%EC%9D%B4%ED%94%84%EC%95%BD%EA%B5%AD-%EA%B0%95%EC%9B%90%EB%8F%84-%EC%82%BC%EC%B2%99%EC%8B%9C-%EB%82%A8%EC%96%91%EB%8F%99/", "workingTime": ["-", "08:30~18:00", "08:30~18:00", "08:30~18:00", "08:30~18:00", "08:30~18:00", "08:30~14:00", "-"]}, {"name": "\uc720\uc77c\ud504\ub77c\uc790\uc57d\uad6d", "lat": "37.441347222222220", "lng": "129.164294444444437", "url": "/info/%EC%9C%A0%EC%9D%BC%ED%94%84%EB%9D%BC%EC%9E%90%EC%95%BD%EA%B5%AD-%EA%B0%95%EC%9B%90%EB%8F%84-%EC%82%BC%EC%B2%99%EC%8B%9C-%EB%82%A8%EC%96%91%EB%8F%99/", "workingTime": ["-", "08:00~18:30", "08:00~18:30", "08:00~18:30", "08:00~18:30", "08:00~18:30", "08:00~13:00", "-"]}, {"name": "\uc0c8\uc2dc\ubbfc\uc57d\uad6d", "lat": "37.4425655257", "lng": "129.1642811515", "url": "/info/%EC%83%88%EC%8B%9C%EB%AF%BC%EC%95%BD%EA%B5%AD-%EA%B0%95%EC%9B%90%EB%8F%84-%EC%82%BC%EC%B2%99%EC%8B%9C-%EB%82%A8%EC%96%91%EB%8F%99/", "workingTime": ["-", "08:30~19:30", "08:30~19:30", "08:30~19:30", "08:30~19:30", "08:30~19:30", "08:30~17:00", "-"]}, {"name": "\uc0bc\ucc99\ubc31\ub450\uc0b0\uc57d\uad6d", "lat": "37.44082584779895", "lng": "129.16463322898298", "url": "/info/%EC%82%BC%EC%B2%99%EB%B0%B1%EB%91%90%EC%82%B0%EC%95%BD%EA%B5%AD-%EA%B0%95%EC%9B%90%EB%8F%84-%EC%82%BC%EC%B2%99%EC%8B%9C-%EB%82%A8%EC%96%91%EB%8F%99/", "workingTime": ["-", "08:30~18:30", "08:30~18:30", "08:30~18:30", "08:30~18:30", "08:30~18:30", "08:30~18:30", "-"]}, {"name": "\uc911\uc559\uc57d\uad6d", "lat": "37.441548163507385", "lng": "129.16434675948813", "url": "/info/%EC%A4%91%EC%95%99%EC%95%BD%EA%B5%AD-%EA%B0%95%EC%9B%90%EB%8F%84-%EC%82%BC%EC%B2%99%EC%8B%9C-%EB%82%A8%EC%96%91%EB%8F%99/", "workingTime": ["-", "08:00~21:00", "08:00~21:00", "08:00~21:00", "08:00~21:00", "08:00~21:00", "08:00~21:00", "-"]}, {"name": "\ub298\ud478\ub978\uc57d\uad6d", "lat": "37.44288814655183", "lng": "129.16428592062206", "url": "/info/%EB%8A%98%ED%91%B8%EB%A5%B8%EC%95%BD%EA%B5%AD-%EA%B0%95%EC%9B%90%EB%8F%84-%EC%82%BC%EC%B2%99%EC%8B%9C-%EB%82%A8%EC%96%91%EB%8F%99/", "workingTime": ["-", "08:30~18:00", "08:30~18:00", "08:30~18:00", "08:30~18:00", "08:30~18:00", "08:30~13:00", "-"]}, {"name": "\ubcf4\uac74\uc57d\uad6d", "lat": "37.44410503862779", "lng": "129.17189095545484", "url": "/info/%EB%B3%B4%EA%B1%B4%EC%95%BD%EA%B5%AD-%EA%B0%95%EC%9B%90%EB%8F%84-%EC%82%BC%EC%B2%99%EC%8B%9C-%EB%82%A8%EC%96%91%EB%8F%99/", "workingTime": ["-", "09:00~18:30", "09:00~18:30", "09:00~18:30", "09:00~18:30", "09:00~18:30", "-", "-"]}, {"name": "\uc2e0\uc138\uba85\uc57d\uad6d", "lat": "37.442502697749106", "lng": "129.16388616726772", "url": "/info/%EC%8B%A0%EC%84%B8%EB%AA%85%EC%95%BD%EA%B5%AD-%EA%B0%95%EC%9B%90%EB%8F%84-%EC%82%BC%EC%B2%99%EC%8B%9C-%EB%82%A8%EC%96%91%EB%8F%99/", "workingTime": ["-", "09:00~19:00", "09:00~19:00", "09:00~19:00", "09:00~19:00", "09:00~19:00", "09:00~14:00", "-"]}, {"name": "\uac74\uac15\ud55c\uc57d\uad6d", "lat": "37.4444289839473", "lng": "129.16464668960788", "url": "/info/%EA%B1%B4%EA%B0%95%ED%95%9C%EC%95%BD%EA%B5%AD-%EA%B0%95%EC%9B%90%EB%8F%84-%EC%82%BC%EC%B2%99%EC%8B%9C-%EB%82%A8%EC%96%91%EB%8F%99/", "workingTime": ["-", "08:30~18:00", "08:30~18:00", "08:30~18:00", "08:30~18:00", "08:30~18:00", "09:00~13:00", "-"]}, {"name": "\ud558\ub098\uc57d\uad6d", "lat": "37.43923079710166", "lng": "129.16821612265787", "url": "/info/%ED%95%98%EB%82%98%EC%95%BD%EA%B5%AD-%EA%B0%95%EC%9B%90%EB%8F%84-%EC%82%BC%EC%B2%99%EC%8B%9C-%EB%82%A8%EC%96%91%EB%8F%99/", "workingTime": ["-", "09:00~18:00", "09:00~18:00", "09:00~18:00", "09:00~18:00", "09:00~18:00", "09:00~13:00", "-"]}, {"name": "\uc0bc\ucc99\uc2dc\ubbfc\uc57d\uad6d", "lat": "37.44325499049312", "lng": "129.1638208623179", "url": "/info/%EC%82%BC%EC%B2%99%EC%8B%9C%EB%AF%BC%EC%95%BD%EA%B5%AD-%EA%B0%95%EC%9B%90%EB%8F%84-%EC%82%BC%EC%B2%99%EC%8B%9C-%EB%82%A8%EC%96%91%EB%8F%99/", "workingTime": ["-", "09:00~19:00", "09:00~19:00", "09:00~19:00", "09:00~19:00", "09:00~19:00", "09:00~14:00", "-"]}, {"name": "\uba54\ub514\ud31c\uc1a1\uc57d\uad6d", "lat": "37.44289904931827", "lng": "129.16426931607532", "url": "/info/%EB%A9%94%EB%94%94%ED%8C%9C%EC%86%A1%EC%95%BD%EA%B5%AD-%EA%B0%95%EC%9B%90%EB%8F%84-%EC%82%BC%EC%B2%99%EC%8B%9C-%EB%82%A8%EC%96%91%EB%8F%99/", "workingTime": ["-", "09:00~18:00", "09:00~18:00", "09:00~18:00", "09:00~18:00", "09:00~18:00", "09:00~13:00", "-"]}, {"name": "\uc0bc\uc77c\uc57d\uad6d", "lat": "37.44235398432455", "lng": "129.16432139842607", "url": "/info/%EC%82%BC%EC%9D%BC%EC%95%BD%EA%B5%AD-%EA%B0%95%EC%9B%90%EB%8F%84-%EC%82%BC%EC%B2%99%EC%8B%9C-%EB%82%A8%EC%96%91%EB%8F%99/", "workingTime": ["-", "09:00~18:00", "09:00~18:00", "09:00~18:00", "09:00~18:00", "09:00~18:00", "09:00~18:00", "-"]}, {"name": "\uc0bc\ucc99\uc885\ub85c\uc57d\uad6d", "lat": "37.440916993825475", "lng": "129.164378282915", "url": "/info/%EC%82%BC%EC%B2%99%EC%A2%85%EB%A1%9C%EC%95%BD%EA%B5%AD-%EA%B0%95%EC%9B%90%EB%8F%84-%EC%82%BC%EC%B2%99%EC%8B%9C-%EB%82%A8%EC%96%91%EB%8F%99/", "workingTime": ["1,2,3,4,5\uc9f8\uc8fc09:00~22:00", "09:00~22:00", "09:00~22:00", "09:00~22:00", "09:00~22:00", "09:00~22:00", "09:00~22:00", "09:00~22:00"]}, {"name": "\uc601\ub3d9\uc57d\uad6d", "lat": "37.44328639310903", "lng": "129.17197687468007", "url": "/info/%EC%98%81%EB%8F%99%EC%95%BD%EA%B5%AD-%EA%B0%95%EC%9B%90%EB%8F%84-%EC%82%BC%EC%B2%99%EC%8B%9C-%EB%82%A8%EC%96%91%EB%8F%99/", "workingTime": ["-", "08:30~18:30", "08:30~18:30", "08:30~18:30", "08:30~18:30", "08:30~18:30", "10:30~14:00", "-"]}, {"name": "\uc870\uc57d\uad6d", "lat": "37.44208331860196", "lng": "129.1638029238534", "url": "/info/%EC%A1%B0%EC%95%BD%EA%B5%AD-%EA%B0%95%EC%9B%90%EB%8F%84-%EC%82%BC%EC%B2%99%EC%8B%9C-%EB%82%A8%EC%96%91%EB%8F%99/", "workingTime": ["-", "09:00~18:00", "09:00~18:00", "09:00~18:00", "09:00~18:00", "09:00~18:00", "09:00~12:00", "-"]}]