[{"name": "\ubc15\uc57d\uad6d", "lat": "37.75455782536827", "lng": "128.89871685074001", "url": "/info/%EB%B0%95%EC%95%BD%EA%B5%AD-%EA%B0%95%EC%9B%90%EB%8F%84-%EA%B0%95%EB%A6%89%EC%8B%9C-%EA%B8%88%ED%95%99%EB%8F%99/", "workingTime": ["-", "08:30~20:00", "08:30~20:00", "08:30~20:00", "08:30~20:00", "08:30~20:00", "08:30~18:30", "08:30~18:00"]}, {"name": "\ubc14\uc6b0\uc57d\uad6d", "lat": "37.754762304798206", "lng": "128.89759879810776", "url": "/info/%EB%B0%94%EC%9A%B0%EC%95%BD%EA%B5%AD-%EA%B0%95%EC%9B%90%EB%8F%84-%EA%B0%95%EB%A6%89%EC%8B%9C-%EA%B8%88%ED%95%99%EB%8F%99/", "workingTime": ["-", "08:30~18:30", "08:30~18:30", "08:30~18:30", "08:30~18:30", "08:30~18:30", "08:30~13:30", "-"]}, {"name": "\uc774\uc57d\uad6d", "lat": "37.7530054016338", "lng": "128.89649650458034", "url": "/info/%EC%9D%B4%EC%95%BD%EA%B5%AD-%EA%B0%95%EC%9B%90%EB%8F%84-%EA%B0%95%EB%A6%89%EC%8B%9C-%EA%B8%88%ED%95%99%EB%8F%99/", "workingTime": ["2,4,5\uc9f8\uc8fc08:00~19:00", "08:00~20:00", "08:00~20:00", "08:00~20:00", "08:00~20:00", "08:00~20:00", "08:00~19:00", "-"]}, {"name": "\uc628\ub204\ub9ac\ubb38\uc77c\uc57d\uad6d", "lat": "37.75188516698848", "lng": "128.89498813643422", "url": "/info/%EC%98%A8%EB%88%84%EB%A6%AC%EB%AC%B8%EC%9D%BC%EC%95%BD%EA%B5%AD-%EA%B0%95%EC%9B%90%EB%8F%84-%EA%B0%95%EB%A6%89%EC%8B%9C-%EA%B8%88%ED%95%99%EB%8F%99/", "workingTime": ["2,3,4,5\uc9f8\uc8fc10:30~18:00", "08:30~18:30", "08:30~18:30", "08:30~18:30", "08:30~18:30", "08:30~18:30", "08:30~17:30", "-"]}, {"name": "\uac15\ub989\ud0dc\ud3c9\uc591\uc57d\uad6d", "lat": "37.754816314413034", "lng": "128.8971278249099", "url": "/info/%EA%B0%95%EB%A6%89%ED%83%9C%ED%8F%89%EC%96%91%EC%95%BD%EA%B5%AD-%EA%B0%95%EC%9B%90%EB%8F%84-%EA%B0%95%EB%A6%89%EC%8B%9C-%EA%B8%88%ED%95%99%EB%8F%99/", "workingTime": ["-", "08:20~18:30", "08:20~18:30", "08:20~18:30", "08:20~18:30", "08:20~18:30", "08:20~14:00", "-"]}, {"name": "\ub808\ubaac\uc57d\uad6d", "lat": "37.75452925192081", "lng": "128.89776689158268", "url": "/info/%EB%A0%88%EB%AA%AC%EC%95%BD%EA%B5%AD-%EA%B0%95%EC%9B%90%EB%8F%84-%EA%B0%95%EB%A6%89%EC%8B%9C-%EA%B8%88%ED%95%99%EB%8F%99/", "workingTime": ["-", "09:00~18:00", "09:00~18:00", "09:00~18:00", "09:00~18:00", "09:00~18:00", "09:00~13:00", "-"]}]