[{"name": "\uc9c4\ubd80\uc57d\uad6d", "lat": "37.63769452690864", "lng": "128.55922580397228", "url": "/info/%EC%A7%84%EB%B6%80%EC%95%BD%EA%B5%AD-%EA%B0%95%EC%9B%90%EB%8F%84-%ED%8F%89%EC%B0%BD%EA%B5%B0-%EC%A7%84%EB%B6%80%EB%A9%B4/", "workingTime": ["-", "08:00~18:30", "08:00~18:30", "08:00~18:30", "08:00~18:30", "08:00~18:30", "08:00~13:00", "-"]}, {"name": "\uc0ac\ub791\uc57d\uad6d", "lat": "37.63658928531967", "lng": "128.5575530339311", "url": "/info/%EC%82%AC%EB%9E%91%EC%95%BD%EA%B5%AD-%EA%B0%95%EC%9B%90%EB%8F%84-%ED%8F%89%EC%B0%BD%EA%B5%B0-%EC%A7%84%EB%B6%80%EB%A9%B4/", "workingTime": ["-", "08:30~18:00", "08:30~18:00", "08:30~18:00", "08:30~18:00", "08:30~18:00", "08:30~14:00", "-"]}, {"name": "\uc911\uc559\ub2f9\uc57d\uad6d", "lat": "37.63805502365924", "lng": "128.55905526792281", "url": "/info/%EC%A4%91%EC%95%99%EB%8B%B9%EC%95%BD%EA%B5%AD-%EA%B0%95%EC%9B%90%EB%8F%84-%ED%8F%89%EC%B0%BD%EA%B5%B0-%EC%A7%84%EB%B6%80%EB%A9%B4/", "workingTime": ["1,2,3,4,5\uc9f8\uc8fc10:00~18:00", "08:30~19:30", "08:30~19:30", "08:30~19:30", "08:30~19:30", "08:30~19:30", "08:30~18:00", "10:00~18:00"]}, {"name": "\ud0dc\ud48d\uc57d\uad6d", "lat": "37.636450921392765", "lng": "128.5581621512387", "url": "/info/%ED%83%9C%ED%92%8D%EC%95%BD%EA%B5%AD-%EA%B0%95%EC%9B%90%EB%8F%84-%ED%8F%89%EC%B0%BD%EA%B5%B0-%EC%A7%84%EB%B6%80%EB%A9%B4/", "workingTime": ["-", "08:30~18:00", "08:30~18:00", "08:30~18:00", "08:30~18:00", "08:30~18:00", "08:30~15:30", "-"]}, {"name": "\uc77c\ubc88\uac00\uc628\ub204\ub9ac\uc57d\uad6d", "lat": "37.6376763229", "lng": "128.55928410240017", "url": "/info/%EC%9D%BC%EB%B2%88%EA%B0%80%EC%98%A8%EB%88%84%EB%A6%AC%EC%95%BD%EA%B5%AD-%EA%B0%95%EC%9B%90%EB%8F%84-%ED%8F%89%EC%B0%BD%EA%B5%B0-%EC%A7%84%EB%B6%80%EB%A9%B4/", "workingTime": ["1,3\uc9f8\uc8fc08:30~13:30", "08:40~18:00", "08:40~18:00", "08:30~21:30", "08:30~17:30", "08:30~17:30", "08:30~13:30", "08:30~13:30"]}, {"name": "\uc6b0\ub9ac\ub4e4\uc57d\uad6d", "lat": "37.63853532499971", "lng": "128.55999991611722", "url": "/info/%EC%9A%B0%EB%A6%AC%EB%93%A4%EC%95%BD%EA%B5%AD-%EA%B0%95%EC%9B%90%EB%8F%84-%ED%8F%89%EC%B0%BD%EA%B5%B0-%EC%A7%84%EB%B6%80%EB%A9%B4/", "workingTime": ["-", "08:30~19:00", "08:30~19:00", "08:30~19:00", "08:30~19:00", "08:30~19:00", "08:30~16:00", "-"]}]