[{"name": "\ucd98\ucc9c\uc131\uc2ec\uc57d\uad6d", "lat": "37.88338032343974", "lng": "127.74026438432104", "url": "/info/%EC%B6%98%EC%B2%9C%EC%84%B1%EC%8B%AC%EC%95%BD%EA%B5%AD-%EA%B0%95%EC%9B%90%EB%8F%84-%EC%B6%98%EC%B2%9C%EC%8B%9C-%EA%B5%90%EB%8F%99/", "workingTime": ["-", "08:30~18:00", "08:30~18:00", "08:30~18:00", "08:30~18:00", "08:30~18:00", "08:30~13:00", "-"]}, {"name": "\ubbf8\uc18c\uc57d\uad6d", "lat": "37.876703390252246", "lng": "127.73496480007043", "url": "/info/%EB%AF%B8%EC%86%8C%EC%95%BD%EA%B5%AD-%EA%B0%95%EC%9B%90%EB%8F%84-%EC%B6%98%EC%B2%9C%EC%8B%9C-%EA%B5%90%EB%8F%99/", "workingTime": ["-", "09:00~18:30", "09:00~18:30", "09:00~18:30", "09:00~18:30", "09:00~18:30", "09:00~13:00", "-"]}, {"name": "\ud558\ub298\ucc9c\uc628\ub204\ub9ac\uc57d\uad6d", "lat": "37.88365056510376", "lng": "127.73899260339574", "url": "/info/%ED%95%98%EB%8A%98%EC%B2%9C%EC%98%A8%EB%88%84%EB%A6%AC%EC%95%BD%EA%B5%AD-%EA%B0%95%EC%9B%90%EB%8F%84-%EC%B6%98%EC%B2%9C%EC%8B%9C-%EA%B5%90%EB%8F%99/", "workingTime": ["-", "08:30~19:00", "08:30~19:00", "08:30~19:00", "08:30~19:00", "08:30~19:00", "09:00~18:00", "09:00~18:00"]}, {"name": "\uc138\uc885\uc57d\uad6d", "lat": "37.88319464898302", "lng": "127.73768904550863", "url": "/info/%EC%84%B8%EC%A2%85%EC%95%BD%EA%B5%AD-%EA%B0%95%EC%9B%90%EB%8F%84-%EC%B6%98%EC%B2%9C%EC%8B%9C-%EA%B5%90%EB%8F%99/", "workingTime": ["-", "09:00~19:00", "09:00~19:00", "09:00~19:00", "09:00~19:00", "09:00~19:00", "09:00~18:00", "09:00~18:00"]}, {"name": "\uc721\ub9bc\uc57d\uad6d", "lat": "37.8780297290575", "lng": "127.73017531128339", "url": "/info/%EC%9C%A1%EB%A6%BC%EC%95%BD%EA%B5%AD-%EA%B0%95%EC%9B%90%EB%8F%84-%EC%B6%98%EC%B2%9C%EC%8B%9C-%EA%B5%90%EB%8F%99/", "workingTime": ["2,4\uc9f8\uc8fc09:00~13:00", "09:00~18:00", "09:00~18:00", "09:00~18:00", "09:00~18:00", "09:00~18:00", "09:00~15:00", "09:00~13:00"]}, {"name": "\uc6b0\ub9ac\uc885\ud569\uc57d\uad6d", "lat": "37.88341911928408", "lng": "127.73969505101711", "url": "/info/%EC%9A%B0%EB%A6%AC%EC%A2%85%ED%95%A9%EC%95%BD%EA%B5%AD-%EA%B0%95%EC%9B%90%EB%8F%84-%EC%B6%98%EC%B2%9C%EC%8B%9C-%EA%B5%90%EB%8F%99/", "workingTime": ["-", "08:30~18:00", "08:30~18:00", "08:30~18:00", "08:30~18:00", "08:30~18:00", "08:30~13:00", "-"]}, {"name": "\ucd98\ucc9c\uc885\ud569\uc57d\uad6d", "lat": "37.88341357104269", "lng": "127.73955996167803", "url": "/info/%EC%B6%98%EC%B2%9C%EC%A2%85%ED%95%A9%EC%95%BD%EA%B5%AD-%EA%B0%95%EC%9B%90%EB%8F%84-%EC%B6%98%EC%B2%9C%EC%8B%9C-%EA%B5%90%EB%8F%99/", "workingTime": ["-", "08:30~18:00", "08:30~18:00", "08:30~18:00", "08:30~18:00", "08:30~18:00", "-", "-"]}, {"name": "\uac00\uae4c\uc6b4\ub300\ud559\uc57d\uad6d", "lat": "37.883902878754384", "lng": "127.73898146302502", "url": "/info/%EA%B0%80%EA%B9%8C%EC%9A%B4%EB%8C%80%ED%95%99%EC%95%BD%EA%B5%AD-%EA%B0%95%EC%9B%90%EB%8F%84-%EC%B6%98%EC%B2%9C%EC%8B%9C-%EA%B5%90%EB%8F%99/", "workingTime": ["-", "08:30~13:00", "08:30~13:00", "08:30~13:00", "08:30~13:00", "08:30~13:00", "-", "-"]}]