[{"name": "\uc18c\ub9dd\uc628\ub204\ub9ac\uc57d\uad6d", "lat": "37.863987104962305", "lng": "127.737269858186", "url": "/info/%EC%86%8C%EB%A7%9D%EC%98%A8%EB%88%84%EB%A6%AC%EC%95%BD%EA%B5%AD-%EA%B0%95%EC%9B%90%EB%8F%84-%EC%B6%98%EC%B2%9C%EC%8B%9C-%ED%9A%A8%EC%9E%90%EB%8F%99/", "workingTime": ["-", "09:00~19:00", "09:00~19:00", "09:00~19:00", "09:00~19:00", "09:00~19:00", "09:00~14:00", "-"]}, {"name": "\uc6f0\uc57d\uad6d", "lat": "37.8648442859302", "lng": "127.732805087242", "url": "/info/%EC%9B%B0%EC%95%BD%EA%B5%AD-%EA%B0%95%EC%9B%90%EB%8F%84-%EC%B6%98%EC%B2%9C%EC%8B%9C-%ED%9A%A8%EC%9E%90%EB%8F%99/", "workingTime": ["-", "08:00~17:00", "08:00~17:00", "08:00~17:00", "08:00~17:00", "08:00~17:00", "08:00~13:00", "-"]}, {"name": "\uac00\ub78c\uc57d\uad6d", "lat": "37.8711603625315", "lng": "127.7321549396018", "url": "/info/%EA%B0%80%EB%9E%8C%EC%95%BD%EA%B5%AD-%EA%B0%95%EC%9B%90%EB%8F%84-%EC%B6%98%EC%B2%9C%EC%8B%9C-%ED%9A%A8%EC%9E%90%EB%8F%99/", "workingTime": ["1,2,3,4,5\uc9f8\uc8fc09:00~19:00", "09:00~20:00", "09:00~20:00", "09:00~20:00", "09:00~20:00", "09:00~20:00", "09:00~20:00", "09:00~20:00"]}, {"name": "\ud55c\uacb0\uc57d\uad6d", "lat": "37.86909481710188", "lng": "127.72992976850267", "url": "/info/%ED%95%9C%EA%B2%B0%EC%95%BD%EA%B5%AD-%EA%B0%95%EC%9B%90%EB%8F%84-%EC%B6%98%EC%B2%9C%EC%8B%9C-%ED%9A%A8%EC%9E%90%EB%8F%99/", "workingTime": ["-", "09:00~18:30", "09:00~18:30", "09:00~18:30", "09:00~18:30", "09:00~18:30", "09:00~13:00", "-"]}, {"name": "\uc131\uc2ec\uc57d\uad6d", "lat": "37.87418784906363", "lng": "127.73441249602374", "url": "/info/%EC%84%B1%EC%8B%AC%EC%95%BD%EA%B5%AD-%EA%B0%95%EC%9B%90%EB%8F%84-%EC%B6%98%EC%B2%9C%EC%8B%9C-%ED%9A%A8%EC%9E%90%EB%8F%99/", "workingTime": ["-", "08:30~18:30", "08:30~18:30", "08:30~18:30", "08:30~18:30", "08:30~18:30", "08:30~13:00", "-"]}, {"name": "\uc0bc\uc131\uc628\ub204\ub9ac\uc57d\uad6d", "lat": "37.86306601557586", "lng": "127.73570237635394", "url": "/info/%EC%82%BC%EC%84%B1%EC%98%A8%EB%88%84%EB%A6%AC%EC%95%BD%EA%B5%AD-%EA%B0%95%EC%9B%90%EB%8F%84-%EC%B6%98%EC%B2%9C%EC%8B%9C-%ED%9A%A8%EC%9E%90%EB%8F%99/", "workingTime": ["-", "08:30~19:30", "08:30~19:30", "08:30~19:30", "08:30~19:30", "08:30~19:30", "08:30~14:00", "-"]}, {"name": "\uc9c4\uc8fc\uc57d\uad6d", "lat": "37.87641054633102", "lng": "127.7351164732808", "url": "/info/%EC%A7%84%EC%A3%BC%EC%95%BD%EA%B5%AD-%EA%B0%95%EC%9B%90%EB%8F%84-%EC%B6%98%EC%B2%9C%EC%8B%9C-%ED%9A%A8%EC%9E%90%EB%8F%99/", "workingTime": ["-", "08:30~18:30", "08:30~18:30", "08:30~18:30", "08:30~18:30", "08:30~18:30", "08:30~13:00", "-"]}, {"name": "\uc815\ubb38\uc57d\uad6d", "lat": "37.875106089437935", "lng": "127.74358086096382", "url": "/info/%EC%A0%95%EB%AC%B8%EC%95%BD%EA%B5%AD-%EA%B0%95%EC%9B%90%EB%8F%84-%EC%B6%98%EC%B2%9C%EC%8B%9C-%ED%9A%A8%EC%9E%90%EB%8F%99/", "workingTime": ["-", "08:30~17:30", "08:30~17:30", "08:30~17:30", "08:30~17:30", "08:30~17:30", "08:30~12:30", "-"]}, {"name": "\ucc9c\uc0ac\uc57d\uad6d", "lat": "37.87567101789194", "lng": "127.74371381688736", "url": "/info/%EC%B2%9C%EC%82%AC%EC%95%BD%EA%B5%AD-%EA%B0%95%EC%9B%90%EB%8F%84-%EC%B6%98%EC%B2%9C%EC%8B%9C-%ED%9A%A8%EC%9E%90%EB%8F%99/", "workingTime": ["-", "08:00~19:00", "08:00~19:00", "08:00~19:00", "08:00~19:00", "08:00~19:00", "-", "-"]}, {"name": "\uc815\uc57d\uad6d", "lat": "37.87397939483314", "lng": "127.7422374809002", "url": "/info/%EC%A0%95%EC%95%BD%EA%B5%AD-%EA%B0%95%EC%9B%90%EB%8F%84-%EC%B6%98%EC%B2%9C%EC%8B%9C-%ED%9A%A8%EC%9E%90%EB%8F%99/", "workingTime": ["-", "10:00~21:00", "10:00~21:00", "10:00~21:00", "10:00~21:00", "10:00~21:00", "12:00~21:00", "-"]}, {"name": "\uac00\uae4c\uc6b4\uc57d\uad6d", "lat": "37.8740528425662", "lng": "127.74445377962604", "url": "/info/%EA%B0%80%EA%B9%8C%EC%9A%B4%EC%95%BD%EA%B5%AD-%EA%B0%95%EC%9B%90%EB%8F%84-%EC%B6%98%EC%B2%9C%EC%8B%9C-%ED%9A%A8%EC%9E%90%EB%8F%99/", "workingTime": ["-", "08:30~18:00", "08:30~18:00", "08:30~18:00", "08:30~18:00", "08:30~18:00", "-", "-"]}, {"name": "\uad7f\ubaa8\ub2dd\uc57d\uad6d", "lat": "37.87542101309127", "lng": "127.74335668801512", "url": "/info/%EA%B5%BF%EB%AA%A8%EB%8B%9D%EC%95%BD%EA%B5%AD-%EA%B0%95%EC%9B%90%EB%8F%84-%EC%B6%98%EC%B2%9C%EC%8B%9C-%ED%9A%A8%EC%9E%90%EB%8F%99/", "workingTime": ["-", "08:30~19:00", "08:30~19:00", "08:30~19:00", "08:30~19:00", "08:30~19:00", "-", "-"]}, {"name": "\uac74\uac15\uc57d\uad6d", "lat": "37.874056849000006", "lng": "127.7448068769", "url": "/info/%EA%B1%B4%EA%B0%95%EC%95%BD%EA%B5%AD-%EA%B0%95%EC%9B%90%EB%8F%84-%EC%B6%98%EC%B2%9C%EC%8B%9C-%ED%9A%A8%EC%9E%90%EB%8F%99/", "workingTime": ["-", "08:00~18:00", "08:00~18:00", "08:00~18:00", "08:00~18:00", "08:00~18:00", "-", "-"]}, {"name": "\ubd04\ub0b4\uc57d\uad6d", "lat": "37.87397091161815", "lng": "127.74471963264916", "url": "/info/%EB%B4%84%EB%82%B4%EC%95%BD%EA%B5%AD-%EA%B0%95%EC%9B%90%EB%8F%84-%EC%B6%98%EC%B2%9C%EC%8B%9C-%ED%9A%A8%EC%9E%90%EB%8F%99/", "workingTime": ["-", "08:30~18:00", "08:30~18:00", "08:30~18:00", "08:30~18:00", "08:30~18:00", "-", "-"]}, {"name": "\uc6b0\ub9ac\uc57d\uad6d", "lat": "37.87025955295076", "lng": "127.725016149298", "url": "/info/%EC%9A%B0%EB%A6%AC%EC%95%BD%EA%B5%AD-%EA%B0%95%EC%9B%90%EB%8F%84-%EC%B6%98%EC%B2%9C%EC%8B%9C-%ED%9A%A8%EC%9E%90%EB%8F%99/", "workingTime": ["-", "09:00~18:00", "09:00~18:00", "09:00~18:00", "09:00~18:00", "09:00~18:00", "-", "-"]}]