[{"name": "\uc790\uc5f0\uc57d\uad6d", "lat": "37.8947463338208", "lng": "128.828906572138", "url": "/info/%EC%9E%90%EC%97%B0%EC%95%BD%EA%B5%AD-%EA%B0%95%EC%9B%90%EB%8F%84-%EA%B0%95%EB%A6%89%EC%8B%9C-%EC%A3%BC%EB%AC%B8%EC%A7%84%EC%9D%8D/", "workingTime": ["-", "08:00~18:00", "08:00~18:00", "08:00~18:00", "08:00~18:00", "08:00~18:00", "08:00~13:00", "-"]}, {"name": "\ube44\ud0c0\ubbfc\uc57d\uad6d", "lat": "37.88531848055732", "lng": "128.82502635623027", "url": "/info/%EB%B9%84%ED%83%80%EB%AF%BC%EC%95%BD%EA%B5%AD-%EA%B0%95%EC%9B%90%EB%8F%84-%EA%B0%95%EB%A6%89%EC%8B%9C-%EC%A3%BC%EB%AC%B8%EC%A7%84%EC%9D%8D/", "workingTime": ["-", "08:30~20:30", "08:30~20:30", "08:30~20:30", "08:30~20:30", "08:30~20:30", "08:30~19:00", "08:30~19:00"]}, {"name": "\uc6b0\ub9ac\uc57d\uad6d", "lat": "37.892694368584536", "lng": "128.8266174264519", "url": "/info/%EC%9A%B0%EB%A6%AC%EC%95%BD%EA%B5%AD-%EA%B0%95%EC%9B%90%EB%8F%84-%EA%B0%95%EB%A6%89%EC%8B%9C-%EC%A3%BC%EB%AC%B8%EC%A7%84%EC%9D%8D/", "workingTime": ["-", "08:30~18:00", "08:30~18:00", "08:30~18:00", "08:30~18:00", "08:30~18:00", "08:30~13:00", "-"]}, {"name": "\ud587\uc0b4\uc57d\uad6d", "lat": "37.89371718038471", "lng": "128.82741912915552", "url": "/info/%ED%96%87%EC%82%B4%EC%95%BD%EA%B5%AD-%EA%B0%95%EC%9B%90%EB%8F%84-%EA%B0%95%EB%A6%89%EC%8B%9C-%EC%A3%BC%EB%AC%B8%EC%A7%84%EC%9D%8D/", "workingTime": ["-", "09:00~18:00", "09:00~18:00", "09:00~18:00", "09:00~18:00", "09:00~18:00", "09:00~16:00", "-"]}, {"name": "\uc8fc\ubb38\uc9c4\uc2dc\uc7a5\uc57d\uad6d", "lat": "37.89077927429068", "lng": "128.82590118696413", "url": "/info/%EC%A3%BC%EB%AC%B8%EC%A7%84%EC%8B%9C%EC%9E%A5%EC%95%BD%EA%B5%AD-%EA%B0%95%EC%9B%90%EB%8F%84-%EA%B0%95%EB%A6%89%EC%8B%9C-%EC%A3%BC%EB%AC%B8%EC%A7%84%EC%9D%8D/", "workingTime": ["-", "09:00~18:00", "09:00~18:00", "09:00~18:00", "09:00~18:00", "09:00~18:00", "09:00~13:00", "-"]}, {"name": "\ubcf4\ub78c\uc57d\uad6d", "lat": "37.8931113978525", "lng": "128.82690102842", "url": "/info/%EB%B3%B4%EB%9E%8C%EC%95%BD%EA%B5%AD-%EA%B0%95%EC%9B%90%EB%8F%84-%EA%B0%95%EB%A6%89%EC%8B%9C-%EC%A3%BC%EB%AC%B8%EC%A7%84%EC%9D%8D/", "workingTime": ["-", "09:00~18:00", "09:00~18:00", "09:00~18:00", "09:00~18:00", "09:00~18:00", "-", "-"]}, {"name": "\uc544\ub77c\uc57d\uad6d", "lat": "37.8931640750321", "lng": "128.826693511387", "url": "/info/%EC%95%84%EB%9D%BC%EC%95%BD%EA%B5%AD-%EA%B0%95%EC%9B%90%EB%8F%84-%EA%B0%95%EB%A6%89%EC%8B%9C-%EC%A3%BC%EB%AC%B8%EC%A7%84%EC%9D%8D/", "workingTime": ["-", "09:00~18:00", "09:00~18:00", "09:00~18:00", "09:00~18:00", "09:00~18:00", "-", "-"]}, {"name": "\uc138\uacc4\ub85c\uc57d\uad6d", "lat": "37.8934692948", "lng": "128.8269941088", "url": "/info/%EC%84%B8%EA%B3%84%EB%A1%9C%EC%95%BD%EA%B5%AD-%EA%B0%95%EC%9B%90%EB%8F%84-%EA%B0%95%EB%A6%89%EC%8B%9C-%EC%A3%BC%EB%AC%B8%EC%A7%84%EC%9D%8D/", "workingTime": ["-", "09:00~19:00", "09:00~19:00", "09:00~19:00", "09:00~19:00", "09:00~19:00", "09:00~17:00", "08:00~21:00"]}, {"name": "\uc628\ub204\ub9ac\ubc14\ub2e4\uc57d\uad6d", "lat": "37.889643619500035", "lng": "128.82594019581631", "url": "/info/%EC%98%A8%EB%88%84%EB%A6%AC%EB%B0%94%EB%8B%A4%EC%95%BD%EA%B5%AD-%EA%B0%95%EC%9B%90%EB%8F%84-%EA%B0%95%EB%A6%89%EC%8B%9C-%EC%A3%BC%EB%AC%B8%EC%A7%84%EC%9D%8D/", "workingTime": ["-", "09:00~18:00", "09:00~18:00", "09:00~18:00", "09:00~18:00", "09:00~18:00", "09:00~12:00", "-"]}, {"name": "\uc8fc\ubb38\uc9c4\uc57d\uad6d", "lat": "37.88995397045144", "lng": "128.82596832341468", "url": "/info/%EC%A3%BC%EB%AC%B8%EC%A7%84%EC%95%BD%EA%B5%AD-%EA%B0%95%EC%9B%90%EB%8F%84-%EA%B0%95%EB%A6%89%EC%8B%9C-%EC%A3%BC%EB%AC%B8%EC%A7%84%EC%9D%8D/", "workingTime": ["-", "09:00~18:00", "09:00~18:00", "09:00~18:00", "09:00~18:00", "09:00~18:00", "09:00~13:00", "-"]}, {"name": "\ubbf8\uc778\ud55c\uc57d\uad6d", "lat": "37.89275209340003", "lng": "128.82816312870105", "url": "/info/%EB%AF%B8%EC%9D%B8%ED%95%9C%EC%95%BD%EA%B5%AD-%EA%B0%95%EC%9B%90%EB%8F%84-%EA%B0%95%EB%A6%89%EC%8B%9C-%EC%A3%BC%EB%AC%B8%EC%A7%84%EC%9D%8D/", "workingTime": ["-", "11:00~18:00", "11:00~18:00", "11:00~18:00", "11:00~18:00", "11:00~18:00", "-", "-"]}]