[{"name": "\uc5f0\uace1\ud604\ub300\uc57d\uad6d", "lat": "37.8596987979775", "lng": "128.8377426556942", "url": "/info/%EC%97%B0%EA%B3%A1%ED%98%84%EB%8C%80%EC%95%BD%EA%B5%AD-%EA%B0%95%EC%9B%90%EB%8F%84-%EA%B0%95%EB%A6%89%EC%8B%9C-%EC%97%B0%EA%B3%A1%EB%A9%B4/", "workingTime": ["2,4,5\uc9f8\uc8fc08:00~20:00", "08:00~20:00", "08:00~20:00", "08:00~20:00", "08:00~20:00", "08:00~20:00", "08:00~20:00", "08:00~20:00"]}, {"name": "\uc8fc\ubb38\uc9c4\ud504\ub77c\uc790\uc57d\uad6d", "lat": "37.8684825850975", "lng": "128.83827430747112", "url": "/info/%EC%A3%BC%EB%AC%B8%EC%A7%84%ED%94%84%EB%9D%BC%EC%9E%90%EC%95%BD%EA%B5%AD-%EA%B0%95%EC%9B%90%EB%8F%84-%EA%B0%95%EB%A6%89%EC%8B%9C-%EC%97%B0%EA%B3%A1%EB%A9%B4/", "workingTime": ["1,3,5\uc9f8\uc8fc08:00~20:30", "08:00~20:30", "08:00~20:30", "08:00~20:30", "08:00~20:30", "08:00~20:30", "08:00~20:30", "08:00~20:30"]}, {"name": "\ud558\ub098\ub85c\uc57d\uad6d", "lat": "37.85854281542298", "lng": "128.83875238387938", "url": "/info/%ED%95%98%EB%82%98%EB%A1%9C%EC%95%BD%EA%B5%AD-%EA%B0%95%EC%9B%90%EB%8F%84-%EA%B0%95%EB%A6%89%EC%8B%9C-%EC%97%B0%EA%B3%A1%EB%A9%B4/", "workingTime": ["1,2,3,4,5\uc9f8\uc8fc09:00~20:00", "09:00~18:00", "09:00~18:00", "09:00~18:00", "09:00~18:00", "09:00~18:00", "09:00~18:00", "-"]}, {"name": "\uc5f0\uace1\uc57d\uad6d", "lat": "37.85945312263452", "lng": "128.8370911910581", "url": "/info/%EC%97%B0%EA%B3%A1%EC%95%BD%EA%B5%AD-%EA%B0%95%EC%9B%90%EB%8F%84-%EA%B0%95%EB%A6%89%EC%8B%9C-%EC%97%B0%EA%B3%A1%EB%A9%B4/", "workingTime": ["-", "10:00~17:00", "10:00~17:00", "10:00~17:00", "10:00~17:00", "10:00~17:00", "10:00~17:00", "10:00~17:00"]}, {"name": "\uc5f0\uace1\uc885\ub85c\uc57d\uad6d", "lat": "37.85967203690781", "lng": "128.83704884113706", "url": "/info/%EC%97%B0%EA%B3%A1%EC%A2%85%EB%A1%9C%EC%95%BD%EA%B5%AD-%EA%B0%95%EC%9B%90%EB%8F%84-%EA%B0%95%EB%A6%89%EC%8B%9C-%EC%97%B0%EA%B3%A1%EB%A9%B4/", "workingTime": ["1,3,5\uc9f8\uc8fc09:00~19:00", "08:30~19:30", "08:30~19:30", "08:30~19:30", "08:30~19:30", "08:30~19:30", "09:00~19:00", "-"]}]