[{"name": "\uc740\ud61c\uc57d\uad6d", "lat": "37.879949672203686", "lng": "127.72634027447856", "url": "/info/%EC%9D%80%ED%98%9C%EC%95%BD%EA%B5%AD-%EA%B0%95%EC%9B%90%EB%8F%84-%EC%B6%98%EC%B2%9C%EC%8B%9C-%EC%A4%91%EC%95%99%EB%A1%9C2%EA%B0%80/", "workingTime": ["-", "08:30~17:30", "08:30~17:30", "08:30~17:30", "08:30~17:30", "08:30~17:30", "08:30~13:00", "-"]}, {"name": "\uc0c8\ud76c\ub9dd\uc57d\uad6d", "lat": "37.879688504500926", "lng": "127.72720156518149", "url": "/info/%EC%83%88%ED%9D%AC%EB%A7%9D%EC%95%BD%EA%B5%AD-%EA%B0%95%EC%9B%90%EB%8F%84-%EC%B6%98%EC%B2%9C%EC%8B%9C-%EC%A4%91%EC%95%99%EB%A1%9C2%EA%B0%80/", "workingTime": ["-", "09:00~18:30", "09:00~18:30", "09:00~18:30", "09:00~18:30", "09:00~18:30", "09:00~13:00", "-"]}, {"name": "\uc11c\uc6b8\uc57d\uad6d", "lat": "37.87783431927417", "lng": "127.72505856770181", "url": "/info/%EC%84%9C%EC%9A%B8%EC%95%BD%EA%B5%AD-%EA%B0%95%EC%9B%90%EB%8F%84-%EC%B6%98%EC%B2%9C%EC%8B%9C-%EC%A4%91%EC%95%99%EB%A1%9C2%EA%B0%80/", "workingTime": ["-", "09:00~18:00", "09:00~18:00", "09:00~18:00", "09:00~18:00", "09:00~18:00", "09:00~15:00", "-"]}, {"name": "\uc774\ud654\uc57d\uad6d", "lat": "37.87962039954641", "lng": "127.72644915406505", "url": "/info/%EC%9D%B4%ED%99%94%EC%95%BD%EA%B5%AD-%EA%B0%95%EC%9B%90%EB%8F%84-%EC%B6%98%EC%B2%9C%EC%8B%9C-%EC%A4%91%EC%95%99%EB%A1%9C2%EA%B0%80/", "workingTime": ["-", "08:30~18:00", "08:30~18:00", "08:30~18:00", "08:30~18:00", "08:30~18:00", "08:30~13:00", "-"]}, {"name": "\ubc31\ub450\uc0b0\uc57d\uad6d", "lat": "37.879305114528606", "lng": "127.72615052874261", "url": "/info/%EB%B0%B1%EB%91%90%EC%82%B0%EC%95%BD%EA%B5%AD-%EA%B0%95%EC%9B%90%EB%8F%84-%EC%B6%98%EC%B2%9C%EC%8B%9C-%EC%A4%91%EC%95%99%EB%A1%9C2%EA%B0%80/", "workingTime": ["-", "09:00~19:00", "09:00~19:00", "09:00~19:00", "09:00~19:00", "09:00~19:00", "09:00~15:00", "-"]}, {"name": "\ucd98\ucc9c\ud558\ub098\uc57d\uad6d", "lat": "37.87946732462403", "lng": "127.72628965608263", "url": "/info/%EC%B6%98%EC%B2%9C%ED%95%98%EB%82%98%EC%95%BD%EA%B5%AD-%EA%B0%95%EC%9B%90%EB%8F%84-%EC%B6%98%EC%B2%9C%EC%8B%9C-%EC%A4%91%EC%95%99%EB%A1%9C2%EA%B0%80/", "workingTime": ["-", "09:00~19:20", "09:00~19:20", "09:00~19:10", "09:00~19:10", "09:00~19:20", "09:00~14:30", "-"]}, {"name": "\uc138\ud654\uc57d\uad6d", "lat": "37.87947359351818", "lng": "127.72687963935716", "url": "/info/%EC%84%B8%ED%99%94%EC%95%BD%EA%B5%AD-%EA%B0%95%EC%9B%90%EB%8F%84-%EC%B6%98%EC%B2%9C%EC%8B%9C-%EC%A4%91%EC%95%99%EB%A1%9C2%EA%B0%80/", "workingTime": ["1,2,3,4,5\uc9f8\uc8fc09:00~15:00", "09:00~19:00", "09:00~19:00", "09:00~19:00", "09:00~19:00", "09:00~19:00", "09:00~16:00", "09:00~16:00"]}, {"name": "\ubaa8\ubc94\uc57d\uad6d", "lat": "37.88002601187326", "lng": "127.7279868917131", "url": "/info/%EB%AA%A8%EB%B2%94%EC%95%BD%EA%B5%AD-%EA%B0%95%EC%9B%90%EB%8F%84-%EC%B6%98%EC%B2%9C%EC%8B%9C-%EC%A4%91%EC%95%99%EB%A1%9C2%EA%B0%80/", "workingTime": ["-", "09:00~18:00", "09:00~18:00", "09:00~18:00", "09:00~18:00", "09:00~18:00", "09:00~14:00", "-"]}, {"name": "\ubb34\uc9c0\uac1c\uc57d\uad6d", "lat": "37.8784510067", "lng": "127.7249827542", "url": "/info/%EB%AC%B4%EC%A7%80%EA%B0%9C%EC%95%BD%EA%B5%AD-%EA%B0%95%EC%9B%90%EB%8F%84-%EC%B6%98%EC%B2%9C%EC%8B%9C-%EC%A4%91%EC%95%99%EB%A1%9C2%EA%B0%80/", "workingTime": ["-", "09:00~18:00", "09:00~18:00", "09:00~18:00", "09:00~18:00", "09:00~18:00", "09:00~13:00", "-"]}]