[{"name": "\ub4dc\ub9bc\uc57d\uad6d", "lat": "37.361759378925456", "lng": "127.93323743650045", "url": "/info/%EB%93%9C%EB%A6%BC%EC%95%BD%EA%B5%AD-%EA%B0%95%EC%9B%90%EB%8F%84-%EC%9B%90%EC%A3%BC%EC%8B%9C-%EC%9A%B0%EC%82%B0%EB%8F%99/", "workingTime": ["-", "08:30~20:00", "08:30~20:00", "08:30~20:00", "08:30~20:00", "08:30~20:00", "08:30~14:00", "-"]}, {"name": "\uba85\ub3d9\uc57d\uad6d", "lat": "37.36759838220158", "lng": "127.9386712270166", "url": "/info/%EB%AA%85%EB%8F%99%EC%95%BD%EA%B5%AD-%EA%B0%95%EC%9B%90%EB%8F%84-%EC%9B%90%EC%A3%BC%EC%8B%9C-%EC%9A%B0%EC%82%B0%EB%8F%99/", "workingTime": ["-", "09:00~20:00", "09:00~20:00", "09:00~20:00", "09:00~20:00", "09:00~20:00", "09:00~13:00", "-"]}, {"name": "\ud310\uce58\uc0dd\ubaa8\uc57d\uad6d", "lat": "37.37374981720662", "lng": "127.94372415899264", "url": "/info/%ED%8C%90%EC%B9%98%EC%83%9D%EB%AA%A8%EC%95%BD%EA%B5%AD-%EA%B0%95%EC%9B%90%EB%8F%84-%EC%9B%90%EC%A3%BC%EC%8B%9C-%EC%9A%B0%EC%82%B0%EB%8F%99/", "workingTime": ["-", "09:00~18:30", "09:00~18:30", "09:00~18:30", "09:00~18:30", "09:00~18:30", "09:00~13:00", "-"]}, {"name": "\uc0c1\uc9c0\uc57d\uad6d", "lat": "37.3693030302324", "lng": "127.93852154019258", "url": "/info/%EC%83%81%EC%A7%80%EC%95%BD%EA%B5%AD-%EA%B0%95%EC%9B%90%EB%8F%84-%EC%9B%90%EC%A3%BC%EC%8B%9C-%EC%9A%B0%EC%82%B0%EB%8F%99/", "workingTime": ["-", "09:00~18:00", "09:00~18:00", "09:00~18:00", "09:00~18:00", "09:00~18:00", "09:00~13:00", "-"]}, {"name": "\ud0dc\uc591\ud55c\uc57d\uad6d", "lat": "37.36746161594541", "lng": "127.93724554217256", "url": "/info/%ED%83%9C%EC%96%91%ED%95%9C%EC%95%BD%EA%B5%AD-%EA%B0%95%EC%9B%90%EB%8F%84-%EC%9B%90%EC%A3%BC%EC%8B%9C-%EC%9A%B0%EC%82%B0%EB%8F%99/", "workingTime": ["-", "09:00~18:00", "09:00~18:00", "09:00~18:00", "09:00~18:00", "09:00~18:00", "09:00~13:00", "-"]}, {"name": "\uc7a5\uc218\uc57d\uad6d", "lat": "37.36787902272547", "lng": "127.93664455187687", "url": "/info/%EC%9E%A5%EC%88%98%EC%95%BD%EA%B5%AD-%EA%B0%95%EC%9B%90%EB%8F%84-%EC%9B%90%EC%A3%BC%EC%8B%9C-%EC%9A%B0%EC%82%B0%EB%8F%99/", "workingTime": ["-", "08:30~13:30", "08:30~13:30", "08:30~13:30", "08:30~13:30", "08:30~13:30", "-", "-"]}]