[{"name": "\uac10\ucd08\ub2f9\uc57d\uad6d", "lat": "38.10424315689682", "lng": "127.70672872949552", "url": "/info/%EA%B0%90%EC%B4%88%EB%8B%B9%EC%95%BD%EA%B5%AD-%EA%B0%95%EC%9B%90%EB%8F%84-%ED%99%94%EC%B2%9C%EA%B5%B0-%ED%99%94%EC%B2%9C%EC%9D%8D/", "workingTime": ["2\uc9f8\uc8fc08:00~20:00", "08:00~19:00", "08:00~19:00", "08:00~19:00", "08:00~19:00", "08:00~19:00", "08:00~15:00", "08:30~13:00"]}, {"name": "\ud504\ub77c\uc790\uc57d\uad6d", "lat": "38.10438303447634", "lng": "127.70648232954701", "url": "/info/%ED%94%84%EB%9D%BC%EC%9E%90%EC%95%BD%EA%B5%AD-%EA%B0%95%EC%9B%90%EB%8F%84-%ED%99%94%EC%B2%9C%EA%B5%B0-%ED%99%94%EC%B2%9C%EC%9D%8D/", "workingTime": ["3\uc9f8\uc8fc09:00~20:00", "08:00~18:00", "08:00~18:00", "08:00~18:00", "08:00~18:00", "08:00~18:00", "09:00~13:00", "-"]}, {"name": "\ud654\ucc9c\uc57d\uad6d", "lat": "38.10411464293693", "lng": "127.7067624741702", "url": "/info/%ED%99%94%EC%B2%9C%EC%95%BD%EA%B5%AD-%EA%B0%95%EC%9B%90%EB%8F%84-%ED%99%94%EC%B2%9C%EA%B5%B0-%ED%99%94%EC%B2%9C%EC%9D%8D/", "workingTime": ["4\uc9f8\uc8fc08:00~20:00", "08:30~19:00", "08:30~19:00", "08:30~19:00", "08:30~19:00", "08:30~19:00", "08:30~15:00", "-"]}, {"name": "\uc2ed\uc790\uc57d\uad6d", "lat": "38.10504507956849", "lng": "127.7046021157623", "url": "/info/%EC%8B%AD%EC%9E%90%EC%95%BD%EA%B5%AD-%EA%B0%95%EC%9B%90%EB%8F%84-%ED%99%94%EC%B2%9C%EA%B5%B0-%ED%99%94%EC%B2%9C%EC%9D%8D/", "workingTime": ["1\uc9f8\uc8fc08:00~20:00", "08:30~19:00", "08:30~19:00", "08:30~19:00", "08:30~19:00", "08:30~19:00", "08:30~15:00", "08:30~13:00"]}, {"name": "\uc885\ub85c\uc57d\uad6d", "lat": "38.1043981197", "lng": "127.7063638799", "url": "/info/%EC%A2%85%EB%A1%9C%EC%95%BD%EA%B5%AD-%EA%B0%95%EC%9B%90%EB%8F%84-%ED%99%94%EC%B2%9C%EA%B5%B0-%ED%99%94%EC%B2%9C%EC%9D%8D/", "workingTime": ["1\uc9f8\uc8fc08:00~20:00", "08:30~19:00", "08:30~19:00", "08:30~19:00", "08:30~19:00", "08:30~19:00", "08:30~15:00", "08:30~13:00"]}, {"name": "\uc911\uc559\uc57d\uad6d", "lat": "38.10304170039496", "lng": "127.70420741782813", "url": "/info/%EC%A4%91%EC%95%99%EC%95%BD%EA%B5%AD-%EA%B0%95%EC%9B%90%EB%8F%84-%ED%99%94%EC%B2%9C%EA%B5%B0-%ED%99%94%EC%B2%9C%EC%9D%8D/", "workingTime": ["-", "08:30~18:00", "08:30~18:00", "08:30~18:00", "08:30~18:00", "08:30~18:00", "08:30~13:00", "-"]}]