[{"name": "\uc870\uc591\ub300\uc6d0\uc57d\uad6d", "lat": "38.18709851340154", "lng": "128.6014371419055", "url": "/info/%EC%A1%B0%EC%96%91%EB%8C%80%EC%9B%90%EC%95%BD%EA%B5%AD-%EA%B0%95%EC%9B%90%EB%8F%84-%EC%86%8D%EC%B4%88%EC%8B%9C-%EC%A1%B0%EC%96%91%EB%8F%99/", "workingTime": ["-", "08:30~18:00", "08:30~18:00", "08:30~12:30", "08:30~18:00", "08:30~18:00", "08:30~13:00", "-"]}, {"name": "\uc18d\ucd08\uc885\ub85c\uc57d\uad6d", "lat": "38.18957704253375", "lng": "128.58047192904536", "url": "/info/%EC%86%8D%EC%B4%88%EC%A2%85%EB%A1%9C%EC%95%BD%EA%B5%AD-%EA%B0%95%EC%9B%90%EB%8F%84-%EC%86%8D%EC%B4%88%EC%8B%9C-%EC%A1%B0%EC%96%91%EB%8F%99/", "workingTime": ["1,2,3,4,5\uc9f8\uc8fc09:00~19:00", "08:30~20:30", "08:30~20:30", "08:30~20:30", "08:30~20:30", "08:30~20:30", "08:30~20:30", "09:00~19:00"]}, {"name": "\ubc18\ub514\uc57d\uad6d", "lat": "38.20743159029712", "lng": "128.5774114565813", "url": "/info/%EB%B0%98%EB%94%94%EC%95%BD%EA%B5%AD-%EA%B0%95%EC%9B%90%EB%8F%84-%EC%86%8D%EC%B4%88%EC%8B%9C-%EC%A1%B0%EC%96%91%EB%8F%99/", "workingTime": ["-", "08:40~19:00", "08:40~19:00", "08:40~19:00", "08:40~19:00", "08:40~19:00", "08:40~13:00", "-"]}, {"name": "\uac15\uc57d\uad6d", "lat": "38.18922214085679", "lng": "128.5840086450668", "url": "/info/%EA%B0%95%EC%95%BD%EA%B5%AD-%EA%B0%95%EC%9B%90%EB%8F%84-%EC%86%8D%EC%B4%88%EC%8B%9C-%EC%A1%B0%EC%96%91%EB%8F%99/", "workingTime": ["-", "08:30~18:30", "08:30~18:30", "08:30~18:30", "08:30~18:30", "08:30~18:30", "08:30~13:00", "-"]}, {"name": "\uc6b0\ub9ac\uc57d\uad6d", "lat": "38.20138549783527", "lng": "128.58650023910647", "url": "/info/%EC%9A%B0%EB%A6%AC%EC%95%BD%EA%B5%AD-%EA%B0%95%EC%9B%90%EB%8F%84-%EC%86%8D%EC%B4%88%EC%8B%9C-%EC%A1%B0%EC%96%91%EB%8F%99/", "workingTime": ["-", "08:30~18:00", "08:30~18:00", "08:30~18:00", "08:30~18:00", "08:30~18:00", "08:30~13:00", "-"]}, {"name": "\ud589\ubcf5\uc57d\uad6d", "lat": "38.1900439032", "lng": "128.5800528611002", "url": "/info/%ED%96%89%EB%B3%B5%EC%95%BD%EA%B5%AD-%EA%B0%95%EC%9B%90%EB%8F%84-%EC%86%8D%EC%B4%88%EC%8B%9C-%EC%A1%B0%EC%96%91%EB%8F%99/", "workingTime": ["1,2,3,4,5\uc9f8\uc8fc22:00~25:00", "22:00~25:00", "22:00~25:00", "22:00~25:00", "22:00~25:00", "22:00~25:00", "22:00~25:00", "22:00~25:00"]}, {"name": "\uc6d0\uc57d\uad6d", "lat": "38.190262006077035", "lng": "128.5974262995371", "url": "/info/%EC%9B%90%EC%95%BD%EA%B5%AD-%EA%B0%95%EC%9B%90%EB%8F%84-%EC%86%8D%EC%B4%88%EC%8B%9C-%EC%A1%B0%EC%96%91%EB%8F%99/", "workingTime": ["-", "09:00~19:00", "09:00~19:00", "09:00~19:00", "09:00~19:00", "09:00~19:00", "09:30~18:30", "-"]}, {"name": "\uc728\uace1\uc57d\uad6d", "lat": "38.1909175897", "lng": "128.5793914703", "url": "/info/%EC%9C%A8%EA%B3%A1%EC%95%BD%EA%B5%AD-%EA%B0%95%EC%9B%90%EB%8F%84-%EC%86%8D%EC%B4%88%EC%8B%9C-%EC%A1%B0%EC%96%91%EB%8F%99/", "workingTime": ["-", "09:00~14:00", "09:00~14:00", "09:00~14:00", "09:00~14:00", "09:00~14:00", "-", "-"]}, {"name": "\uc774\ub808\uc57d\uad6d", "lat": "38.19020177740002", "lng": "128.59449246650018", "url": "/info/%EC%9D%B4%EB%A0%88%EC%95%BD%EA%B5%AD-%EA%B0%95%EC%9B%90%EB%8F%84-%EC%86%8D%EC%B4%88%EC%8B%9C-%EC%A1%B0%EC%96%91%EB%8F%99/", "workingTime": ["-", "09:00~18:00", "09:00~18:00", "09:00~18:00", "09:00~18:00", "09:00~19:30", "09:00~18:00", "-"]}]