[{"name": "\ud55c\uc194\uc57d\uad6d", "lat": "38.1987658160022", "lng": "128.5725467144199", "url": "/info/%ED%95%9C%EC%86%94%EC%95%BD%EA%B5%AD-%EA%B0%95%EC%9B%90%EB%8F%84-%EC%86%8D%EC%B4%88%EC%8B%9C-%EA%B5%90%EB%8F%99/", "workingTime": ["-", "08:30~19:00", "08:30~19:00", "08:30~19:00", "08:30~19:00", "08:30~19:00", "08:30~13:00", "-"]}, {"name": "\ud2bc\ud2bc\uc57d\uad6d", "lat": "38.19757122274505", "lng": "128.5719069381825", "url": "/info/%ED%8A%BC%ED%8A%BC%EC%95%BD%EA%B5%AD-%EA%B0%95%EC%9B%90%EB%8F%84-%EC%86%8D%EC%B4%88%EC%8B%9C-%EA%B5%90%EB%8F%99/", "workingTime": ["-", "08:30~18:00", "08:30~18:00", "08:30~18:00", "08:30~18:00", "08:30~18:00", "08:30~12:30", "-"]}, {"name": "\uc18d\ucd08\uc2dc\ubbfc\uc57d\uad6d", "lat": "38.19828460299451", "lng": "128.57889911129894", "url": "/info/%EC%86%8D%EC%B4%88%EC%8B%9C%EB%AF%BC%EC%95%BD%EA%B5%AD-%EA%B0%95%EC%9B%90%EB%8F%84-%EC%86%8D%EC%B4%88%EC%8B%9C-%EA%B5%90%EB%8F%99/", "workingTime": ["1,2,3,4,5\uc9f8\uc8fc08:30~22:00", "08:30~22:00", "08:30~22:00", "08:30~22:00", "08:30~22:00", "08:30~22:00", "08:30~22:00", "08:30~22:00"]}, {"name": "\uc18d\ucd08\ub3d9\uc544\uc57d\uad6d", "lat": "38.200605276283895", "lng": "128.5820998261341", "url": "/info/%EC%86%8D%EC%B4%88%EB%8F%99%EC%95%84%EC%95%BD%EA%B5%AD-%EA%B0%95%EC%9B%90%EB%8F%84-%EC%86%8D%EC%B4%88%EC%8B%9C-%EA%B5%90%EB%8F%99/", "workingTime": ["1,2,3,4,5\uc9f8\uc8fc09:00~17:00", "08:00~18:00", "08:00~18:00", "08:00~18:00", "08:00~18:00", "08:00~18:00", "08:00~16:00", "09:00~17:00"]}, {"name": "\uc0ac\ub791\uc57d\uad6d", "lat": "38.20711741801427", "lng": "128.57459955671024", "url": "/info/%EC%82%AC%EB%9E%91%EC%95%BD%EA%B5%AD-%EA%B0%95%EC%9B%90%EB%8F%84-%EC%86%8D%EC%B4%88%EC%8B%9C-%EA%B5%90%EB%8F%99/", "workingTime": ["-", "08:30~18:00", "08:30~18:00", "08:30~18:00", "08:30~18:00", "08:30~18:00", "08:30~12:00", "-"]}, {"name": "\ucd5c\uc57d\uad6d", "lat": "38.19524890640573", "lng": "128.57723407677972", "url": "/info/%EC%B5%9C%EC%95%BD%EA%B5%AD-%EA%B0%95%EC%9B%90%EB%8F%84-%EC%86%8D%EC%B4%88%EC%8B%9C-%EA%B5%90%EB%8F%99/", "workingTime": ["-", "08:00~19:00", "08:00~19:00", "08:00~19:00", "08:00~19:00", "08:00~19:00", "08:00~19:00", "-"]}, {"name": "\ubd80\ubd80\uc57d\uad6d", "lat": "38.19965935807759", "lng": "128.58051641362465", "url": "/info/%EB%B6%80%EB%B6%80%EC%95%BD%EA%B5%AD-%EA%B0%95%EC%9B%90%EB%8F%84-%EC%86%8D%EC%B4%88%EC%8B%9C-%EA%B5%90%EB%8F%99/", "workingTime": ["-", "09:00~18:00", "09:00~18:00", "09:00~18:00", "09:00~18:00", "09:00~18:00", "09:00~13:00", "-"]}, {"name": "\uac74\uac15\uc57d\uad6d", "lat": "38.19922044675839", "lng": "128.57986310408728", "url": "/info/%EA%B1%B4%EA%B0%95%EC%95%BD%EA%B5%AD-%EA%B0%95%EC%9B%90%EB%8F%84-%EC%86%8D%EC%B4%88%EC%8B%9C-%EA%B5%90%EB%8F%99/", "workingTime": ["-", "09:00~18:00", "09:00~18:00", "09:00~18:00", "09:00~18:00", "09:00~18:00", "09:00~12:30", "-"]}, {"name": "\uccad\ucd08\uc57d\uad6d", "lat": "38.19828872616594", "lng": "128.5794776631725", "url": "/info/%EC%B2%AD%EC%B4%88%EC%95%BD%EA%B5%AD-%EA%B0%95%EC%9B%90%EB%8F%84-%EC%86%8D%EC%B4%88%EC%8B%9C-%EA%B5%90%EB%8F%99/", "workingTime": ["-", "09:00~18:00", "09:00~18:00", "09:00~18:00", "09:00~18:00", "09:00~18:00", "09:00~13:00", "-"]}, {"name": "\uc18d\ucd08\uadf8\ub79c\ub4dc\uc57d\uad6d", "lat": "38.19626319310722", "lng": "128.57522412962726", "url": "/info/%EC%86%8D%EC%B4%88%EA%B7%B8%EB%9E%9C%EB%93%9C%EC%95%BD%EA%B5%AD-%EA%B0%95%EC%9B%90%EB%8F%84-%EC%86%8D%EC%B4%88%EC%8B%9C-%EA%B5%90%EB%8F%99/", "workingTime": ["-", "09:00~20:00", "09:00~20:00", "09:00~20:00", "09:00~20:00", "09:00~20:00", "10:30~20:00", "10:30~20:00"]}, {"name": "\uc18d\ucd08\uba54\ub514\uce7c\uc57d\uad6d", "lat": "38.197757337888675", "lng": "128.57906893916797", "url": "/info/%EC%86%8D%EC%B4%88%EB%A9%94%EB%94%94%EC%B9%BC%EC%95%BD%EA%B5%AD-%EA%B0%95%EC%9B%90%EB%8F%84-%EC%86%8D%EC%B4%88%EC%8B%9C-%EA%B5%90%EB%8F%99/", "workingTime": ["-", "09:00~19:00", "09:00~19:00", "09:00~19:00", "09:00~19:00", "09:00~19:00", "-", "-"]}, {"name": "\uc815\ubb38\uc57d\uad6d", "lat": "38.1977250387126", "lng": "128.57825549330704", "url": "/info/%EC%A0%95%EB%AC%B8%EC%95%BD%EA%B5%AD-%EA%B0%95%EC%9B%90%EB%8F%84-%EC%86%8D%EC%B4%88%EC%8B%9C-%EA%B5%90%EB%8F%99/", "workingTime": ["-", "09:00~21:30", "09:00~21:30", "09:00~21:30", "09:00~21:30", "09:00~21:30", "09:00~18:00", "-"]}, {"name": "\uc0bc\uc131\uc57d\uad6d", "lat": "38.19802631244468", "lng": "128.57782366001234", "url": "/info/%EC%82%BC%EC%84%B1%EC%95%BD%EA%B5%AD-%EA%B0%95%EC%9B%90%EB%8F%84-%EC%86%8D%EC%B4%88%EC%8B%9C-%EA%B5%90%EB%8F%99/", "workingTime": ["-", "09:00~19:00", "09:00~19:00", "09:00~19:00", "09:00~19:00", "09:00~19:00", "09:00~19:00", "-"]}]