[{"name": "\uc6d0\uc8fc\uc57d\uad6d", "lat": "37.347169444444447", "lng": "127.948977777777785", "url": "/info/%EC%9B%90%EC%A3%BC%EC%95%BD%EA%B5%AD-%EA%B0%95%EC%9B%90%EB%8F%84-%EC%9B%90%EC%A3%BC%EC%8B%9C-%EC%A4%91%EC%95%99%EB%8F%99/", "workingTime": ["-", "08:30~19:00", "08:30~19:00", "08:30~19:00", "08:30~19:00", "08:30~19:00", "08:30~14:00", "-"]}, {"name": "\uc6d0\uc8fc\uc2dc\uc7a5\uc57d\uad6d", "lat": "37.350944444444444", "lng": "127.949616666666671", "url": "/info/%EC%9B%90%EC%A3%BC%EC%8B%9C%EC%9E%A5%EC%95%BD%EA%B5%AD-%EA%B0%95%EC%9B%90%EB%8F%84-%EC%9B%90%EC%A3%BC%EC%8B%9C-%EC%A4%91%EC%95%99%EB%8F%99/", "workingTime": ["1,3,5\uc9f8\uc8fc09:00~19:00", "08:00~20:00", "08:00~20:00", "08:00~20:00", "08:00~20:00", "08:00~20:00", "08:00~19:00", "09:00~19:00"]}, {"name": "\ubb38\ud654\uc57d\uad6d", "lat": "37.3496940166395", "lng": "127.94906638870873", "url": "/info/%EB%AC%B8%ED%99%94%EC%95%BD%EA%B5%AD-%EA%B0%95%EC%9B%90%EB%8F%84-%EC%9B%90%EC%A3%BC%EC%8B%9C-%EC%A4%91%EC%95%99%EB%8F%99/", "workingTime": ["-", "08:00~18:00", "08:00~18:00", "08:00~18:00", "08:00~18:00", "08:00~18:00", "08:00~18:00", "-"]}, {"name": "\uc870\uc740\uc57d\uad6d", "lat": "37.351391666666665", "lng": "127.947841666666662", "url": "/info/%EC%A1%B0%EC%9D%80%EC%95%BD%EA%B5%AD-%EA%B0%95%EC%9B%90%EB%8F%84-%EC%9B%90%EC%A3%BC%EC%8B%9C-%EC%A4%91%EC%95%99%EB%8F%99/", "workingTime": ["-", "09:00~18:00", "09:00~18:00", "09:00~18:00", "09:00~18:00", "09:00~18:00", "09:00~13:00", "09:00~12:00"]}, {"name": "\uc2dc\ubbfc\uc57d\uad6d", "lat": "37.351166666666664", "lng": "127.949394444444451", "url": "/info/%EC%8B%9C%EB%AF%BC%EC%95%BD%EA%B5%AD-%EA%B0%95%EC%9B%90%EB%8F%84-%EC%9B%90%EC%A3%BC%EC%8B%9C-%EC%A4%91%EC%95%99%EB%8F%99/", "workingTime": ["1,2,3,4,5\uc9f8\uc8fc08:30~19:00", "08:30~20:00", "08:30~20:00", "08:30~20:00", "08:30~20:00", "08:30~20:00", "08:30~19:00", "08:30~19:00"]}, {"name": "\ub3d9\uc6d0\uc57d\uad6d", "lat": "37.349388888888889", "lng": "127.950255555555557", "url": "/info/%EB%8F%99%EC%9B%90%EC%95%BD%EA%B5%AD-%EA%B0%95%EC%9B%90%EB%8F%84-%EC%9B%90%EC%A3%BC%EC%8B%9C-%EC%A4%91%EC%95%99%EB%8F%99/", "workingTime": ["-", "08:30~19:00", "08:30~19:00", "08:30~19:00", "08:30~19:00", "08:30~19:00", "08:30~14:00", "-"]}, {"name": "\uc81c\uc77c\uc57d\uad6d", "lat": "37.34841370758432", "lng": "127.95190707145667", "url": "/info/%EC%A0%9C%EC%9D%BC%EC%95%BD%EA%B5%AD-%EA%B0%95%EC%9B%90%EB%8F%84-%EC%9B%90%EC%A3%BC%EC%8B%9C-%EC%A4%91%EC%95%99%EB%8F%99/", "workingTime": ["-", "08:00~18:30", "08:00~18:30", "08:00~18:30", "08:00~18:30", "08:00~18:30", "09:00~14:00", "-"]}, {"name": "\uc591\ubb38\uc57d\uad6d", "lat": "37.34945421630911", "lng": "127.95065693605989", "url": "/info/%EC%96%91%EB%AC%B8%EC%95%BD%EA%B5%AD-%EA%B0%95%EC%9B%90%EB%8F%84-%EC%9B%90%EC%A3%BC%EC%8B%9C-%EC%A4%91%EC%95%99%EB%8F%99/", "workingTime": ["-", "09:00~18:30", "09:00~18:30", "09:00~18:30", "09:00~18:30", "09:00~18:30", "08:30~14:00", "-"]}, {"name": "\ubc14\ub85c\uc57d\uad6d", "lat": "37.350308333333331", "lng": "127.948366666666672", "url": "/info/%EB%B0%94%EB%A1%9C%EC%95%BD%EA%B5%AD-%EA%B0%95%EC%9B%90%EB%8F%84-%EC%9B%90%EC%A3%BC%EC%8B%9C-%EC%A4%91%EC%95%99%EB%8F%99/", "workingTime": ["-", "09:00~18:30", "09:00~19:30", "09:00~18:30", "09:00~18:30", "09:00~19:30", "09:00~14:00", "-"]}, {"name": "\ub3d9\uc544\uc57d\uad6d", "lat": "37.34999568168715", "lng": "127.94874965977436", "url": "/info/%EB%8F%99%EC%95%84%EC%95%BD%EA%B5%AD-%EA%B0%95%EC%9B%90%EB%8F%84-%EC%9B%90%EC%A3%BC%EC%8B%9C-%EC%A4%91%EC%95%99%EB%8F%99/", "workingTime": ["-", "09:00~18:30", "09:00~18:30", "09:00~18:30", "09:00~18:30", "09:00~18:30", "09:00~15:00", "-"]}]