[{"name": "\uc2dc\ubbfc\uc57d\uad6d", "lat": "38.20179815395283", "lng": "128.58777277550038", "url": "/info/%EC%8B%9C%EB%AF%BC%EC%95%BD%EA%B5%AD-%EA%B0%95%EC%9B%90%EB%8F%84-%EC%86%8D%EC%B4%88%EC%8B%9C-%EC%B2%AD%ED%95%99%EB%8F%99/", "workingTime": ["-", "08:30~18:00", "08:30~18:00", "08:30~18:00", "08:30~18:00", "08:30~18:00", "08:30~13:00", "-"]}, {"name": "\ud55c\uc77c\uc57d\uad6d", "lat": "38.20158884894881", "lng": "128.5832613509382", "url": "/info/%ED%95%9C%EC%9D%BC%EC%95%BD%EA%B5%AD-%EA%B0%95%EC%9B%90%EB%8F%84-%EC%86%8D%EC%B4%88%EC%8B%9C-%EC%B2%AD%ED%95%99%EB%8F%99/", "workingTime": ["00:00~00:00(\uc5f0\ub77d\ud6c4\ubc29\ubb38\uc694\ub9dd)", "08:30~17:00", "08:30~17:00", "08:30~13:00", "08:30~17:00", "08:30~17:00", "08:30~12:00", "00:00~00:00"]}, {"name": "\ub3d9\uc0b0\uc57d\uad6d", "lat": "38.2019203132176", "lng": "128.586315461328", "url": "/info/%EB%8F%99%EC%82%B0%EC%95%BD%EA%B5%AD-%EA%B0%95%EC%9B%90%EB%8F%84-%EC%86%8D%EC%B4%88%EC%8B%9C-%EC%B2%AD%ED%95%99%EB%8F%99/", "workingTime": ["-", "08:00~17:00", "08:00~17:00", "08:00~17:00", "08:00~17:00", "08:00~17:00", "08:00~12:30", "-"]}, {"name": "\ud478\ub978\uc57d\uad6d", "lat": "38.20232672500125", "lng": "128.58285267032704", "url": "/info/%ED%91%B8%EB%A5%B8%EC%95%BD%EA%B5%AD-%EA%B0%95%EC%9B%90%EB%8F%84-%EC%86%8D%EC%B4%88%EC%8B%9C-%EC%B2%AD%ED%95%99%EB%8F%99/", "workingTime": ["-", "08:10~18:00", "08:10~18:00", "08:10~18:00", "08:10~18:00", "08:10~18:00", "08:10~13:00", "-"]}, {"name": "\ubcf4\uac74\uc57d\uad6d", "lat": "38.201507303772566", "lng": "128.5854846184762", "url": "/info/%EB%B3%B4%EA%B1%B4%EC%95%BD%EA%B5%AD-%EA%B0%95%EC%9B%90%EB%8F%84-%EC%86%8D%EC%B4%88%EC%8B%9C-%EC%B2%AD%ED%95%99%EB%8F%99/", "workingTime": ["1,2,3,4,5\uc9f8\uc8fc10:00~20:30", "08:30~20:30", "08:30~20:30", "08:30~20:30", "08:30~20:30", "08:30~20:30", "08:30~20:30", "10:00~20:30"]}, {"name": "\uc6b0\ub9ac\uc57d\uad6d", "lat": "38.20138549783527", "lng": "128.58650023910647", "url": "/info/%EC%9A%B0%EB%A6%AC%EC%95%BD%EA%B5%AD-%EA%B0%95%EC%9B%90%EB%8F%84-%EC%86%8D%EC%B4%88%EC%8B%9C-%EC%B2%AD%ED%95%99%EB%8F%99/", "workingTime": ["-", "08:30~18:00", "08:30~18:00", "08:30~18:00", "08:30~18:00", "08:30~18:00", "08:30~13:00", "-"]}, {"name": "\uc911\uc559\uc57d\uad6d", "lat": "38.201285584002825", "lng": "128.58623650270098", "url": "/info/%EC%A4%91%EC%95%99%EC%95%BD%EA%B5%AD-%EA%B0%95%EC%9B%90%EB%8F%84-%EC%86%8D%EC%B4%88%EC%8B%9C-%EC%B2%AD%ED%95%99%EB%8F%99/", "workingTime": ["-", "09:00~18:00", "09:00~18:00", "09:00~18:00", "09:00~18:00", "09:00~18:00", "09:00~13:00", "-"]}]