[{"name": "\ud48d\ubb34\uc6b0\ub9ac\ub4e4\uc57d\uad6d", "lat": "37.60965349937735", "lng": "126.73250901046117", "url": "/info/%ED%92%8D%EB%AC%B4%EC%9A%B0%EB%A6%AC%EB%93%A4%EC%95%BD%EA%B5%AD-%EA%B2%BD%EA%B8%B0%EB%8F%84-%EA%B9%80%ED%8F%AC%EC%8B%9C-%ED%92%8D%EB%AC%B4%EB%8F%99/", "workingTime": ["1,2,3,4,5\uc9f8\uc8fc09:00~17:00", "08:30~21:00", "08:30~21:00", "08:30~21:00", "08:30~21:00", "08:30~21:00", "09:00~17:00", "09:00~17:00"]}, {"name": "\ud48d\ubb34\uba54\ub514\uceec\uc57d\uad6d", "lat": "37.611219006478265", "lng": "126.73472325054543", "url": "/info/%ED%92%8D%EB%AC%B4%EB%A9%94%EB%94%94%EC%BB%AC%EC%95%BD%EA%B5%AD-%EA%B2%BD%EA%B8%B0%EB%8F%84-%EA%B9%80%ED%8F%AC%EC%8B%9C-%ED%92%8D%EB%AC%B4%EB%8F%99/", "workingTime": ["-", "09:00~21:00", "09:00~21:00", "09:00~21:00", "09:00~21:00", "09:00~21:00", "08:30~17:30", "-"]}, {"name": "\uc774\ub808\uc57d\uad6d", "lat": "37.60325665386973", "lng": "126.72139950664109", "url": "/info/%EC%9D%B4%EB%A0%88%EC%95%BD%EA%B5%AD-%EA%B2%BD%EA%B8%B0%EB%8F%84-%EA%B9%80%ED%8F%AC%EC%8B%9C-%ED%92%8D%EB%AC%B4%EB%8F%99/", "workingTime": ["-", "08:30~20:00", "08:30~20:00", "08:30~20:00", "08:30~20:00", "08:30~20:00", "08:30~17:00", "-"]}, {"name": "\uc5f0\uc138\ud478\ub978\uc57d\uad6d", "lat": "37.6070584192573", "lng": "126.724455952323", "url": "/info/%EC%97%B0%EC%84%B8%ED%91%B8%EB%A5%B8%EC%95%BD%EA%B5%AD-%EA%B2%BD%EA%B8%B0%EB%8F%84-%EA%B9%80%ED%8F%AC%EC%8B%9C-%ED%92%8D%EB%AC%B4%EB%8F%99/", "workingTime": ["-", "09:00~19:00", "09:00~19:00", "09:00~19:00", "09:00~19:00", "09:00~19:00", "-", "-"]}, {"name": "\uc911\uc559\uc81c\uc77c\uc57d\uad6d", "lat": "37.600214652720425", "lng": "126.72617867369173", "url": "/info/%EC%A4%91%EC%95%99%EC%A0%9C%EC%9D%BC%EC%95%BD%EA%B5%AD-%EA%B2%BD%EA%B8%B0%EB%8F%84-%EA%B9%80%ED%8F%AC%EC%8B%9C-%ED%92%8D%EB%AC%B4%EB%8F%99/", "workingTime": ["-", "09:00~19:00", "09:00~19:00", "09:00~19:00", "09:00~19:00", "09:00~19:00", "09:00~13:00", "-"]}, {"name": "\uc870\uc544\uc57d\uad6d", "lat": "37.60674243839999", "lng": "126.7250720692", "url": "/info/%EC%A1%B0%EC%95%84%EC%95%BD%EA%B5%AD-%EA%B2%BD%EA%B8%B0%EB%8F%84-%EA%B9%80%ED%8F%AC%EC%8B%9C-%ED%92%8D%EB%AC%B4%EB%8F%99/", "workingTime": ["-", "09:00~20:00", "09:00~20:00", "09:00~20:00", "09:00~20:00", "09:00~20:00", "-", "-"]}, {"name": "\ud48d\ubb34\uc6b0\ub9ac\uc57d\uad6d", "lat": "37.6024284762071", "lng": "126.72198052607727", "url": "/info/%ED%92%8D%EB%AC%B4%EC%9A%B0%EB%A6%AC%EC%95%BD%EA%B5%AD-%EA%B2%BD%EA%B8%B0%EB%8F%84-%EA%B9%80%ED%8F%AC%EC%8B%9C-%ED%92%8D%EB%AC%B4%EB%8F%99/", "workingTime": ["-", "08:30~20:00", "08:30~20:00", "08:30~20:00", "08:30~20:00", "08:30~20:00", "08:30~15:30", "-"]}, {"name": "\uba54\ub514\uc0ac\ub791\uc57d\uad6d", "lat": "37.6070007669944", "lng": "126.723459102455", "url": "/info/%EB%A9%94%EB%94%94%EC%82%AC%EB%9E%91%EC%95%BD%EA%B5%AD-%EA%B2%BD%EA%B8%B0%EB%8F%84-%EA%B9%80%ED%8F%AC%EC%8B%9C-%ED%92%8D%EB%AC%B4%EB%8F%99/", "workingTime": ["-", "09:00~18:00", "09:00~18:00", "09:00~18:00", "09:00~18:00", "09:00~18:00", "-", "-"]}, {"name": "\ubc14\ub2e4\uc57d\uad6d", "lat": "37.6021001092436", "lng": "126.721158579984", "url": "/info/%EB%B0%94%EB%8B%A4%EC%95%BD%EA%B5%AD-%EA%B2%BD%EA%B8%B0%EB%8F%84-%EA%B9%80%ED%8F%AC%EC%8B%9C-%ED%92%8D%EB%AC%B4%EB%8F%99/", "workingTime": ["-", "09:00~19:00", "09:00~19:00", "09:00~19:00", "09:00~19:00", "09:00~19:00", "09:00~15:00", "-"]}, {"name": "\ud48d\ubb34\uac74\uac15\uc57d\uad6d", "lat": "37.6116559917827", "lng": "126.733446751174", "url": "/info/%ED%92%8D%EB%AC%B4%EA%B1%B4%EA%B0%95%EC%95%BD%EA%B5%AD-%EA%B2%BD%EA%B8%B0%EB%8F%84-%EA%B9%80%ED%8F%AC%EC%8B%9C-%ED%92%8D%EB%AC%B4%EB%8F%99/", "workingTime": ["-", "09:00~18:00", "09:00~18:00", "09:00~18:00", "09:00~18:00", "09:00~18:00", "-", "-"]}, {"name": "\uba54\ub514\ud504\ub77c\uc790\uc57d\uad6d", "lat": "37.598096578649184", "lng": "126.72019589568691", "url": "/info/%EB%A9%94%EB%94%94%ED%94%84%EB%9D%BC%EC%9E%90%EC%95%BD%EA%B5%AD-%EA%B2%BD%EA%B8%B0%EB%8F%84-%EA%B9%80%ED%8F%AC%EC%8B%9C-%ED%92%8D%EB%AC%B4%EB%8F%99/", "workingTime": ["-", "09:00~20:00", "09:00~20:00", "09:00~20:00", "09:00~20:00", "09:00~20:00", "09:00~16:00", "-"]}, {"name": "\uc870\uc740\uc628\ub204\ub9ac\uc57d\uad6d", "lat": "37.6122466597948", "lng": "126.731847690225", "url": "/info/%EC%A1%B0%EC%9D%80%EC%98%A8%EB%88%84%EB%A6%AC%EC%95%BD%EA%B5%AD-%EA%B2%BD%EA%B8%B0%EB%8F%84-%EA%B9%80%ED%8F%AC%EC%8B%9C-%ED%92%8D%EB%AC%B4%EB%8F%99/", "workingTime": ["-", "10:00~18:00", "10:00~18:00", "10:00~18:00", "10:00~18:00", "10:00~18:00", "-", "-"]}, {"name": "\ube44\ud0c0\ubbfc\uc57d\uad6d", "lat": "37.60493702185673", "lng": "126.72179636534426", "url": "/info/%EB%B9%84%ED%83%80%EB%AF%BC%EC%95%BD%EA%B5%AD-%EA%B2%BD%EA%B8%B0%EB%8F%84-%EA%B9%80%ED%8F%AC%EC%8B%9C-%ED%92%8D%EB%AC%B4%EB%8F%99/", "workingTime": ["-", "09:00~19:30", "09:00~19:30", "09:00~19:30", "09:00~19:30", "09:00~19:30", "09:00~16:00", "-"]}, {"name": "\uadf8\ub79c\ub4dc\uc57d\uad6d", "lat": "37.609962773974644", "lng": "126.72412418099026", "url": "/info/%EA%B7%B8%EB%9E%9C%EB%93%9C%EC%95%BD%EA%B5%AD-%EA%B2%BD%EA%B8%B0%EB%8F%84-%EA%B9%80%ED%8F%AC%EC%8B%9C-%ED%92%8D%EB%AC%B4%EB%8F%99/", "workingTime": ["1,2,3,4,5\uc9f8\uc8fc10:00~21:30", "10:00~21:30", "10:00~21:30", "10:00~21:30", "10:00~21:30", "10:00~21:30", "10:00~21:30", "10:00~21:30"]}, {"name": "\ud48d\ubb34\uc5f4\uc2dc\uc57d\uad6d", "lat": "37.61247523124803", "lng": "126.73085437735355", "url": "/info/%ED%92%8D%EB%AC%B4%EC%97%B4%EC%8B%9C%EC%95%BD%EA%B5%AD-%EA%B2%BD%EA%B8%B0%EB%8F%84-%EA%B9%80%ED%8F%AC%EC%8B%9C-%ED%92%8D%EB%AC%B4%EB%8F%99/", "workingTime": ["1,2,3,4,5\uc9f8\uc8fc10:00~22:00", "10:00~22:00", "10:00~22:00", "10:00~22:00", "10:00~22:00", "10:00~22:00", "10:00~22:00", "10:00~22:00"]}, {"name": "\ud48d\ubb34\uc628\ub204\ub9ac\uc57d\uad6d", "lat": "37.60486612161506", "lng": "126.72256487269756", "url": "/info/%ED%92%8D%EB%AC%B4%EC%98%A8%EB%88%84%EB%A6%AC%EC%95%BD%EA%B5%AD-%EA%B2%BD%EA%B8%B0%EB%8F%84-%EA%B9%80%ED%8F%AC%EC%8B%9C-%ED%92%8D%EB%AC%B4%EB%8F%99/", "workingTime": ["-", "09:00~19:30", "09:00~19:30", "09:00~19:30", "09:00~19:30", "09:00~19:30", "09:00~15:00", "-"]}, {"name": "\uac74\uac15\ud504\ub77c\uc790\uc57d\uad6d", "lat": "37.59633488191095", "lng": "126.72189225004862", "url": "/info/%EA%B1%B4%EA%B0%95%ED%94%84%EB%9D%BC%EC%9E%90%EC%95%BD%EA%B5%AD-%EA%B2%BD%EA%B8%B0%EB%8F%84-%EA%B9%80%ED%8F%AC%EC%8B%9C-%ED%92%8D%EB%AC%B4%EB%8F%99/", "workingTime": ["-", "09:00~20:30", "09:00~20:30", "09:00~20:30", "09:00~20:30", "09:00~20:30", "09:00~18:00", "10:00~16:00"]}]