[{"name": "\ub2e4\ub098\uc57d\uad6d", "lat": "37.3067379424123", "lng": "126.815113845871", "url": "/info/%EB%8B%A4%EB%82%98%EC%95%BD%EA%B5%AD-%EA%B2%BD%EA%B8%B0%EB%8F%84-%EC%95%88%EC%82%B0%EC%8B%9C-%EC%B4%88%EC%A7%80%EB%8F%99/", "workingTime": ["-", "09:00~18:00", "09:00~18:00", "09:00~18:00", "09:00~18:00", "09:00~18:00", "09:00~13:00", "-"]}, {"name": "\ub77c\ub77c\uc57d\uad6d", "lat": "37.30244711607451", "lng": "126.8123032851823", "url": "/info/%EB%9D%BC%EB%9D%BC%EC%95%BD%EA%B5%AD-%EA%B2%BD%EA%B8%B0%EB%8F%84-%EC%95%88%EC%82%B0%EC%8B%9C-%EC%B4%88%EC%A7%80%EB%8F%99/", "workingTime": ["-", "09:00~21:00", "09:00~21:00", "-", "09:00~21:00", "09:00~21:00", "09:00~16:00", "-"]}, {"name": "\ud070\uc0ac\ub791\uc57d\uad6d", "lat": "37.308090848758916", "lng": "126.81627137493939", "url": "/info/%ED%81%B0%EC%82%AC%EB%9E%91%EC%95%BD%EA%B5%AD-%EA%B2%BD%EA%B8%B0%EB%8F%84-%EC%95%88%EC%82%B0%EC%8B%9C-%EC%B4%88%EC%A7%80%EB%8F%99/", "workingTime": ["-", "09:00~19:00", "09:00~19:00", "09:00~19:00", "09:00~19:00", "09:00~19:00", "09:00~13:00", "-"]}, {"name": "\ub2e8\uc6d0\uc218\uc57d\uad6d", "lat": "37.3004165785496", "lng": "126.811928229152", "url": "/info/%EB%8B%A8%EC%9B%90%EC%88%98%EC%95%BD%EA%B5%AD-%EA%B2%BD%EA%B8%B0%EB%8F%84-%EC%95%88%EC%82%B0%EC%8B%9C-%EC%B4%88%EC%A7%80%EB%8F%99/", "workingTime": ["-", "09:00~18:00", "09:00~18:00", "09:00~18:00", "09:00~18:00", "09:00~18:00", "-", "-"]}, {"name": "\uc548\uc0b0\ub3d9\uc6b0\uc131\uc57d\uad6d", "lat": "37.30014940667689", "lng": "126.81298388824081", "url": "/info/%EC%95%88%EC%82%B0%EB%8F%99%EC%9A%B0%EC%84%B1%EC%95%BD%EA%B5%AD-%EA%B2%BD%EA%B8%B0%EB%8F%84-%EC%95%88%EC%82%B0%EC%8B%9C-%EC%B4%88%EC%A7%80%EB%8F%99/", "workingTime": ["1,2,3,4,5\uc9f8\uc8fc10:00~11:30", "09:00~19:30", "09:00~19:30", "09:00~19:30", "09:00~19:30", "09:00~19:30", "09:00~13:30", "-"]}, {"name": "\ubcc4\uc57d\uad6d", "lat": "37.3018671307", "lng": "126.8124806822", "url": "/info/%EB%B3%84%EC%95%BD%EA%B5%AD-%EA%B2%BD%EA%B8%B0%EB%8F%84-%EC%95%88%EC%82%B0%EC%8B%9C-%EC%B4%88%EC%A7%80%EB%8F%99/", "workingTime": ["-", "09:30~19:00", "09:30~19:00", "09:30~19:00", "09:30~19:00", "09:30~19:00", "09:30~15:00", "09:00~13:00"]}, {"name": "\ucd08\uc9c0\ub77c\uc131\uc57d\uad6d", "lat": "37.30768893817761", "lng": "126.81509021770827", "url": "/info/%EC%B4%88%EC%A7%80%EB%9D%BC%EC%84%B1%EC%95%BD%EA%B5%AD-%EA%B2%BD%EA%B8%B0%EB%8F%84-%EC%95%88%EC%82%B0%EC%8B%9C-%EC%B4%88%EC%A7%80%EB%8F%99/", "workingTime": ["09:00~22:00(\uc5f0\ub77d\ud6c4\ubc29\ubb38\uc694\ub9dd)", "09:00~22:00", "09:00~22:00", "09:00~22:00", "09:00~22:00", "09:00~22:00", "09:00~22:00", "09:00~22:00"]}, {"name": "\ud0dc\uc5f0\uc57d\uad6d", "lat": "37.32345943995986", "lng": "126.8057433282542", "url": "/info/%ED%83%9C%EC%97%B0%EC%95%BD%EA%B5%AD-%EA%B2%BD%EA%B8%B0%EB%8F%84-%EC%95%88%EC%82%B0%EC%8B%9C-%EC%B4%88%EC%A7%80%EB%8F%99/", "workingTime": ["1,2,3,4,5\uc9f8\uc8fc12:00~19:00", "09:00~21:00", "09:00~21:00", "09:00~21:00", "09:00~21:00", "09:00~21:00", "09:00~20:00", "12:00~19:00"]}, {"name": "\uba54\ub514\ud504\ub77c\uc790\uc57d\uad6d", "lat": "37.30877929305201", "lng": "126.81672295775368", "url": "/info/%EB%A9%94%EB%94%94%ED%94%84%EB%9D%BC%EC%9E%90%EC%95%BD%EA%B5%AD-%EA%B2%BD%EA%B8%B0%EB%8F%84-%EC%95%88%EC%82%B0%EC%8B%9C-%EC%B4%88%EC%A7%80%EB%8F%99/", "workingTime": ["-", "09:00~22:00", "09:00~22:00", "09:00~22:00", "09:00~22:00", "09:00~22:00", "09:00~21:10", "-"]}, {"name": "\ub2e4\uc815\ud55c\uc628\ub204\ub9ac\uc57d\uad6d", "lat": "37.30248382537749", "lng": "126.81232837889692", "url": "/info/%EB%8B%A4%EC%A0%95%ED%95%9C%EC%98%A8%EB%88%84%EB%A6%AC%EC%95%BD%EA%B5%AD-%EA%B2%BD%EA%B8%B0%EB%8F%84-%EC%95%88%EC%82%B0%EC%8B%9C-%EC%B4%88%EC%A7%80%EB%8F%99/", "workingTime": ["1,2,3,4,5\uc9f8\uc8fc09:00~16:00", "09:00~21:00", "09:00~21:00", "09:00~21:00", "09:00~21:00", "09:00~21:00", "09:00~16:00", "09:00~16:00"]}, {"name": "\uc138\uacc4\ub85c\uc628\ub204\ub9ac\uc57d\uad6d", "lat": "37.3087344166767", "lng": "126.81527263117327", "url": "/info/%EC%84%B8%EA%B3%84%EB%A1%9C%EC%98%A8%EB%88%84%EB%A6%AC%EC%95%BD%EA%B5%AD-%EA%B2%BD%EA%B8%B0%EB%8F%84-%EC%95%88%EC%82%B0%EC%8B%9C-%EC%B4%88%EC%A7%80%EB%8F%99/", "workingTime": ["-", "09:00~20:25", "09:00~20:25", "09:00~20:25", "09:00~20:25", "09:00~20:25", "09:00~16:00", "-"]}, {"name": "\uccad\uc554\uc57d\uad6d", "lat": "37.30316602195234", "lng": "126.81296733527782", "url": "/info/%EC%B2%AD%EC%95%94%EC%95%BD%EA%B5%AD-%EA%B2%BD%EA%B8%B0%EB%8F%84-%EC%95%88%EC%82%B0%EC%8B%9C-%EC%B4%88%EC%A7%80%EB%8F%99/", "workingTime": ["1,2,3,5\uc9f8\uc8fc10:00~23:00", "10:00~23:00", "10:00~23:00", "10:00~23:00", "10:00~23:00", "10:00~23:00", "10:00~23:00", "10:00~23:00"]}, {"name": "\ub300\uac74\uc57d\uad6d", "lat": "37.30721987675657", "lng": "126.81516107717408", "url": "/info/%EB%8C%80%EA%B1%B4%EC%95%BD%EA%B5%AD-%EA%B2%BD%EA%B8%B0%EB%8F%84-%EC%95%88%EC%82%B0%EC%8B%9C-%EC%B4%88%EC%A7%80%EB%8F%99/", "workingTime": ["09:00~21:00(\uc5f0\ub77d\ud6c4\ubc29\ubb38\uc694\ub9dd)", "09:00~21:00", "09:00~21:00", "09:00~21:00", "09:00~21:00", "09:00~21:00", "09:00~21:30", "09:00~21:00"]}, {"name": "\uc0c8\uadf8\ub9b0\uc57d\uad6d", "lat": "37.30245149665559", "lng": "126.81239613512352", "url": "/info/%EC%83%88%EA%B7%B8%EB%A6%B0%EC%95%BD%EA%B5%AD-%EA%B2%BD%EA%B8%B0%EB%8F%84-%EC%95%88%EC%82%B0%EC%8B%9C-%EC%B4%88%EC%A7%80%EB%8F%99/", "workingTime": ["-", "08:30~21:00", "08:30~21:00", "08:30~21:00", "08:30~21:00", "08:30~21:00", "08:30~16:00", "09:00~16:00"]}, {"name": "\uc548\uc0b0\uc2dc\ubbfc\uc57d\uad6d", "lat": "37.325503935072085", "lng": "126.803321866259", "url": "/info/%EC%95%88%EC%82%B0%EC%8B%9C%EB%AF%BC%EC%95%BD%EA%B5%AD-%EA%B2%BD%EA%B8%B0%EB%8F%84-%EC%95%88%EC%82%B0%EC%8B%9C-%EC%B4%88%EC%A7%80%EB%8F%99/", "workingTime": ["-", "07:40~18:00", "07:40~18:00", "07:40~18:00", "07:40~18:00", "07:40~18:00", "07:40~13:00", "-"]}, {"name": "\uc218\uc57d\uad6d", "lat": "37.3070022491", "lng": "126.8165828671", "url": "/info/%EC%88%98%EC%95%BD%EA%B5%AD-%EA%B2%BD%EA%B8%B0%EB%8F%84-%EC%95%88%EC%82%B0%EC%8B%9C-%EC%B4%88%EC%A7%80%EB%8F%99/", "workingTime": ["-", "09:00~19:00", "09:00~19:00", "09:00~19:00", "09:00~19:00", "09:00~19:00", "-", "-"]}, {"name": "\ud55c\uc194\uc57d\uad6d", "lat": "37.30019713536455", "lng": "126.81353417808384", "url": "/info/%ED%95%9C%EC%86%94%EC%95%BD%EA%B5%AD-%EA%B2%BD%EA%B8%B0%EB%8F%84-%EC%95%88%EC%82%B0%EC%8B%9C-%EC%B4%88%EC%A7%80%EB%8F%99/", "workingTime": ["-", "09:00~19:30", "09:00~19:30", "09:00~19:30", "09:00~19:30", "09:00~19:30", "09:00~14:00", "-"]}, {"name": "\ub2e8\uc6d0\uc0c1\uc0dd\uc57d\uad6d", "lat": "37.3003893244", "lng": "126.8124121657", "url": "/info/%EB%8B%A8%EC%9B%90%EC%83%81%EC%83%9D%EC%95%BD%EA%B5%AD-%EA%B2%BD%EA%B8%B0%EB%8F%84-%EC%95%88%EC%82%B0%EC%8B%9C-%EC%B4%88%EC%A7%80%EB%8F%99/", "workingTime": ["2,4\uc9f8\uc8fc09:00~21:00", "09:00~21:00", "09:00~21:00", "09:00~21:00", "09:00~21:00", "09:00~21:00", "09:00~21:00", "09:00~21:00"]}, {"name": "\ub300\uc601\uc57d\uad6d", "lat": "37.30441749806782", "lng": "126.81621468254231", "url": "/info/%EB%8C%80%EC%98%81%EC%95%BD%EA%B5%AD-%EA%B2%BD%EA%B8%B0%EB%8F%84-%EC%95%88%EC%82%B0%EC%8B%9C-%EC%B4%88%EC%A7%80%EB%8F%99/", "workingTime": ["09:00~17:00(\uc5f0\ub77d\ud6c4\ubc29\ubb38\uc694\ub9dd)", "10:00~18:00", "10:00~18:00", "10:00~18:00", "10:00~18:00", "10:00~18:00", "09:00~17:00", "-"]}]