[{"name": "\ub2e4\ub098\uc628\ub204\ub9ac\uc57d\uad6d", "lat": "37.6351971914", "lng": "126.8314092248", "url": "/info/%EB%8B%A4%EB%82%98%EC%98%A8%EB%88%84%EB%A6%AC%EC%95%BD%EA%B5%AD-%EA%B2%BD%EA%B8%B0%EB%8F%84-%EA%B3%A0%EC%96%91%EC%8B%9C-%ED%99%94%EC%A0%95%EB%8F%99/", "workingTime": ["-", "09:00~19:00", "09:00~19:00", "09:00~19:00", "09:00~19:00", "09:00~19:00", "09:00~15:00", "-"]}, {"name": "\uc885\ub85c\ub300\ud559\uc57d\uad6d", "lat": "37.642130574534164", "lng": "126.82981202680995", "url": "/info/%EC%A2%85%EB%A1%9C%EB%8C%80%ED%95%99%EC%95%BD%EA%B5%AD-%EA%B2%BD%EA%B8%B0%EB%8F%84-%EA%B3%A0%EC%96%91%EC%8B%9C-%ED%99%94%EC%A0%95%EB%8F%99/", "workingTime": ["-", "08:30~18:30", "08:30~18:30", "08:30~18:30", "08:30~18:30", "08:30~18:30", "08:30~13:30", "-"]}, {"name": "\ubc1d\uc740\ubbf8\uc18c\uc57d\uad6d", "lat": "37.63365930340653", "lng": "126.83210604476852", "url": "/info/%EB%B0%9D%EC%9D%80%EB%AF%B8%EC%86%8C%EC%95%BD%EA%B5%AD-%EA%B2%BD%EA%B8%B0%EB%8F%84-%EA%B3%A0%EC%96%91%EC%8B%9C-%ED%99%94%EC%A0%95%EB%8F%99/", "workingTime": ["-", "09:00~19:00", "09:00~19:00", "09:00~19:00", "09:00~19:00", "09:00~19:00", "09:00~16:00", "-"]}, {"name": "\ub2e4\uc778\uc628\ub204\ub9ac\uc57d\uad6d", "lat": "37.63073995731565", "lng": "126.83073093224655", "url": "/info/%EB%8B%A4%EC%9D%B8%EC%98%A8%EB%88%84%EB%A6%AC%EC%95%BD%EA%B5%AD-%EA%B2%BD%EA%B8%B0%EB%8F%84-%EA%B3%A0%EC%96%91%EC%8B%9C-%ED%99%94%EC%A0%95%EB%8F%99/", "workingTime": ["-", "09:00~20:00", "09:00~20:00", "09:00~20:00", "09:00~20:00", "09:00~20:00", "09:00~16:00", "-"]}, {"name": "\uba54\ub514\ud31c\uc7a5\uacc4\uc57d\uad6d", "lat": "37.64684436794606", "lng": "126.83475965857167", "url": "/info/%EB%A9%94%EB%94%94%ED%8C%9C%EC%9E%A5%EA%B3%84%EC%95%BD%EA%B5%AD-%EA%B2%BD%EA%B8%B0%EB%8F%84-%EA%B3%A0%EC%96%91%EC%8B%9C-%ED%99%94%EC%A0%95%EB%8F%99/", "workingTime": ["1,2,3,4,5\uc9f8\uc8fc09:30~18:00", "09:30~21:30", "09:30~21:30", "09:30~21:30", "09:30~21:30", "09:30~21:30", "09:30~18:00", "09:30~18:00"]}, {"name": "\ub098\ub214\uc57d\uad6d", "lat": "37.6353878222933", "lng": "126.833171767779", "url": "/info/%EB%82%98%EB%88%94%EC%95%BD%EA%B5%AD-%EA%B2%BD%EA%B8%B0%EB%8F%84-%EA%B3%A0%EC%96%91%EC%8B%9C-%ED%99%94%EC%A0%95%EB%8F%99/", "workingTime": ["-", "09:00~18:00", "09:00~18:00", "09:00~18:00", "09:00~18:00", "09:00~18:00", "-", "-"]}, {"name": "\ub355\uc591\uba54\ub514\uce7c\uc57d\uad6d", "lat": "37.630280555555558", "lng": "126.833119444444449", "url": "/info/%EB%8D%95%EC%96%91%EB%A9%94%EB%94%94%EC%B9%BC%EC%95%BD%EA%B5%AD-%EA%B2%BD%EA%B8%B0%EB%8F%84-%EA%B3%A0%EC%96%91%EC%8B%9C-%ED%99%94%EC%A0%95%EB%8F%99/", "workingTime": ["1,2,3,4,5\uc9f8\uc8fc22:00~25:00", "22:00~25:00", "22:00~25:00", "22:00~25:00", "22:00~25:00", "22:00~25:00", "22:00~25:00", "22:00~25:00"]}, {"name": "\uc815\ubb38\uc57d\uad6d", "lat": "37.6421180583", "lng": "126.8298118535", "url": "/info/%EC%A0%95%EB%AC%B8%EC%95%BD%EA%B5%AD-%EA%B2%BD%EA%B8%B0%EB%8F%84-%EA%B3%A0%EC%96%91%EC%8B%9C-%ED%99%94%EC%A0%95%EB%8F%99/", "workingTime": ["-", "08:30~19:00", "08:30~19:00", "08:30~19:00", "08:30~19:00", "08:30~19:00", "-", "-"]}, {"name": "\uc774\uc2ed\uc77c\uc138\uae30\uc0c8\ub86c\uc57d\uad6d", "lat": "37.635185327725075", "lng": "126.83194432457199", "url": "/info/%EC%9D%B4%EC%8B%AD%EC%9D%BC%EC%84%B8%EA%B8%B0%EC%83%88%EB%A1%AC%EC%95%BD%EA%B5%AD-%EA%B2%BD%EA%B8%B0%EB%8F%84-%EA%B3%A0%EC%96%91%EC%8B%9C-%ED%99%94%EC%A0%95%EB%8F%99/", "workingTime": ["-", "09:00~21:00", "09:00~21:00", "09:00~21:00", "09:00~21:00", "09:00~21:00", "09:00~18:00", "-"]}, {"name": "\ud654\uc815\uadf8\ub9b0\uc57d\uad6d", "lat": "37.6269794166846", "lng": "126.830668121371", "url": "/info/%ED%99%94%EC%A0%95%EA%B7%B8%EB%A6%B0%EC%95%BD%EA%B5%AD-%EA%B2%BD%EA%B8%B0%EB%8F%84-%EA%B3%A0%EC%96%91%EC%8B%9C-%ED%99%94%EC%A0%95%EB%8F%99/", "workingTime": ["1,2,3,4,5\uc9f8\uc8fc09:00~19:00", "09:00~21:00", "09:00~21:00", "09:00~21:00", "09:00~21:00", "09:00~21:00", "09:00~21:00", "-"]}, {"name": "\ud654\uc815\ud50c\ub7ec\uc2a4\uc57d\uad6d", "lat": "37.6339356817424", "lng": "126.831128391342", "url": "/info/%ED%99%94%EC%A0%95%ED%94%8C%EB%9F%AC%EC%8A%A4%EC%95%BD%EA%B5%AD-%EA%B2%BD%EA%B8%B0%EB%8F%84-%EA%B3%A0%EC%96%91%EC%8B%9C-%ED%99%94%EC%A0%95%EB%8F%99/", "workingTime": ["-", "09:00~20:00", "09:00~21:00", "09:00~20:00", "09:00~20:00", "09:00~20:00", "09:00~16:00", "-"]}, {"name": "\ub098\ub798\uc57d\uad6d", "lat": "37.6317029490777", "lng": "126.830686746113", "url": "/info/%EB%82%98%EB%9E%98%EC%95%BD%EA%B5%AD-%EA%B2%BD%EA%B8%B0%EB%8F%84-%EA%B3%A0%EC%96%91%EC%8B%9C-%ED%99%94%EC%A0%95%EB%8F%99/", "workingTime": ["-", "10:00~18:00", "10:00~18:00", "10:00~18:00", "10:00~18:00", "10:00~18:00", "-", "-"]}, {"name": "\ud654\uc815\ubd04\uc57d\uad6d", "lat": "37.6453159339824", "lng": "126.833740814374", "url": "/info/%ED%99%94%EC%A0%95%EB%B4%84%EC%95%BD%EA%B5%AD-%EA%B2%BD%EA%B8%B0%EB%8F%84-%EA%B3%A0%EC%96%91%EC%8B%9C-%ED%99%94%EC%A0%95%EB%8F%99/", "workingTime": ["-", "08:30~20:30", "08:30~20:30", "08:30~20:30", "08:30~20:30", "08:30~20:30", "-", "-"]}, {"name": "5\uce35\uad6c\uad6c\uc57d\uad6d", "lat": "37.6336223707871", "lng": "126.832745886023", "url": "/info/5%EC%B8%B5%EA%B5%AC%EA%B5%AC%EC%95%BD%EA%B5%AD-%EA%B2%BD%EA%B8%B0%EB%8F%84-%EA%B3%A0%EC%96%91%EC%8B%9C-%ED%99%94%EC%A0%95%EB%8F%99/", "workingTime": ["-", "09:00~18:00", "09:00~18:00", "09:00~18:00", "09:00~18:00", "09:00~18:00", "-", "-"]}, {"name": "\ubc14\ub85c\ud31c\uc57d\uad6d", "lat": "37.635506788098546", "lng": "126.83243499476053", "url": "/info/%EB%B0%94%EB%A1%9C%ED%8C%9C%EC%95%BD%EA%B5%AD-%EA%B2%BD%EA%B8%B0%EB%8F%84-%EA%B3%A0%EC%96%91%EC%8B%9C-%ED%99%94%EC%A0%95%EB%8F%99/", "workingTime": ["-", "09:00~22:00", "09:00~22:00", "09:00~22:00", "09:00~22:00", "09:00~22:00", "09:00~22:00", "09:00~22:00"]}, {"name": "\uc544\uc774\ub9d8\uc57d\uad6d", "lat": "37.62753522375736", "lng": "126.82891166226804", "url": "/info/%EC%95%84%EC%9D%B4%EB%A7%98%EC%95%BD%EA%B5%AD-%EA%B2%BD%EA%B8%B0%EB%8F%84-%EA%B3%A0%EC%96%91%EC%8B%9C-%ED%99%94%EC%A0%95%EB%8F%99/", "workingTime": ["-", "09:00~20:00", "09:00~20:00", "09:00~20:00", "09:00~20:00", "09:00~20:00", "08:00~14:00", "-"]}, {"name": "\ud654\uc815\uba54\ub514\uce7c\uc57d\uad6d", "lat": "37.63358921966573", "lng": "126.83098010440562", "url": "/info/%ED%99%94%EC%A0%95%EB%A9%94%EB%94%94%EC%B9%BC%EC%95%BD%EA%B5%AD-%EA%B2%BD%EA%B8%B0%EB%8F%84-%EA%B3%A0%EC%96%91%EC%8B%9C-%ED%99%94%EC%A0%95%EB%8F%99/", "workingTime": ["-", "09:00~20:00", "09:00~21:00", "09:00~20:00", "09:00~20:00", "09:00~21:00", "09:00~16:00", "-"]}, {"name": "\uaf43\uc6b0\ubb3c\uc57d\uad6d", "lat": "37.63239695433007", "lng": "126.83079700944326", "url": "/info/%EA%BD%83%EC%9A%B0%EB%AC%BC%EC%95%BD%EA%B5%AD-%EA%B2%BD%EA%B8%B0%EB%8F%84-%EA%B3%A0%EC%96%91%EC%8B%9C-%ED%99%94%EC%A0%95%EB%8F%99/", "workingTime": ["-", "08:30~20:00", "08:30~20:00", "08:30~20:00", "08:30~20:00", "08:30~20:00", "08:30~15:00", "09:00~13:00"]}, {"name": "\ub2ec\ube5b\uc774\ud654\uc57d\uad6d", "lat": "37.64647859336277", "lng": "126.83472529767593", "url": "/info/%EB%8B%AC%EB%B9%9B%EC%9D%B4%ED%99%94%EC%95%BD%EA%B5%AD-%EA%B2%BD%EA%B8%B0%EB%8F%84-%EA%B3%A0%EC%96%91%EC%8B%9C-%ED%99%94%EC%A0%95%EB%8F%99/", "workingTime": ["-", "09:30~20:00", "09:30~20:00", "09:30~20:00", "09:30~20:00", "09:30~20:00", "09:30~16:00", "09:30~15:00"]}, {"name": "\ud654\uc815\ub2e4\uc19c\uc57d\uad6d", "lat": "37.633641666666669", "lng": "126.832036111111108", "url": "/info/%ED%99%94%EC%A0%95%EB%8B%A4%EC%86%9C%EC%95%BD%EA%B5%AD-%EA%B2%BD%EA%B8%B0%EB%8F%84-%EA%B3%A0%EC%96%91%EC%8B%9C-%ED%99%94%EC%A0%95%EB%8F%99/", "workingTime": ["-", "09:00~19:00", "09:00~19:00", "09:00~19:00", "09:00~19:00", "09:00~19:00", "09:00~16:00", "-"]}, {"name": "\uc0c8\ud654\uc815\uc57d\uad6d", "lat": "37.63515913822475", "lng": "126.8318930970845", "url": "/info/%EC%83%88%ED%99%94%EC%A0%95%EC%95%BD%EA%B5%AD-%EA%B2%BD%EA%B8%B0%EB%8F%84-%EA%B3%A0%EC%96%91%EC%8B%9C-%ED%99%94%EC%A0%95%EB%8F%99/", "workingTime": ["-", "09:00~19:00", "09:00~19:00", "09:00~19:00", "09:00~19:00", "09:00~19:00", "09:00~16:30", "-"]}, {"name": "\ub3d9\uc6b0\uc57d\uad6d", "lat": "37.633640431889546", "lng": "126.8327680603422", "url": "/info/%EB%8F%99%EC%9A%B0%EC%95%BD%EA%B5%AD-%EA%B2%BD%EA%B8%B0%EB%8F%84-%EA%B3%A0%EC%96%91%EC%8B%9C-%ED%99%94%EC%A0%95%EB%8F%99/", "workingTime": ["-", "09:00~13:30", "09:00~13:30", "09:00~13:30", "09:00~13:30", "09:00~13:30", "09:00~13:30", "-"]}, {"name": "\ud0b4\uc2a4\ubc31\ud654\uc810\uc57d\uad6d", "lat": "37.63305651316096", "lng": "126.83271919224404", "url": "/info/%ED%82%B4%EC%8A%A4%EB%B0%B1%ED%99%94%EC%A0%90%EC%95%BD%EA%B5%AD-%EA%B2%BD%EA%B8%B0%EB%8F%84-%EA%B3%A0%EC%96%91%EC%8B%9C-%ED%99%94%EC%A0%95%EB%8F%99/", "workingTime": ["1,2,3,4,5\uc9f8\uc8fc10:00~22:00", "09:00~23:00", "09:00~23:00", "09:00~23:00", "09:00~23:00", "09:00~23:00", "09:00~23:00", "14:00~23:00"]}, {"name": "\ud654\uc815\ub179\uc2ed\uc790\uc57d\uad6d", "lat": "37.632426719442066", "lng": "126.8308222349814", "url": "/info/%ED%99%94%EC%A0%95%EB%85%B9%EC%8B%AD%EC%9E%90%EC%95%BD%EA%B5%AD-%EA%B2%BD%EA%B8%B0%EB%8F%84-%EA%B3%A0%EC%96%91%EC%8B%9C-%ED%99%94%EC%A0%95%EB%8F%99/", "workingTime": ["-", "08:30~21:00", "08:30~21:00", "08:30~21:00", "08:30~21:00", "08:30~21:00", "08:30~21:00", "10:30~18:00"]}, {"name": "\uad7f\ubaa8\ub2dd\uc57d\uad6d", "lat": "37.633919444444444", "lng": "126.831005555555549", "url": "/info/%EA%B5%BF%EB%AA%A8%EB%8B%9D%EC%95%BD%EA%B5%AD-%EA%B2%BD%EA%B8%B0%EB%8F%84-%EA%B3%A0%EC%96%91%EC%8B%9C-%ED%99%94%EC%A0%95%EB%8F%99/", "workingTime": ["-", "09:00~21:00", "09:00~21:00", "09:00~21:00", "09:00~21:00", "09:00~21:00", "09:00~18:00", "09:00~13:00"]}, {"name": "\ud654\uc815\ud558\ub098\ub85c\uc57d\uad6d", "lat": "37.635180967171095", "lng": "126.83141865439778", "url": "/info/%ED%99%94%EC%A0%95%ED%95%98%EB%82%98%EB%A1%9C%EC%95%BD%EA%B5%AD-%EA%B2%BD%EA%B8%B0%EB%8F%84-%EA%B3%A0%EC%96%91%EC%8B%9C-%ED%99%94%EC%A0%95%EB%8F%99/", "workingTime": ["-", "09:00~20:00", "09:00~20:00", "09:00~20:00", "09:00~20:00", "09:00~20:00", "09:00~14:00", "-"]}, {"name": "\ud654\uc815\uc885\ub85c\uc57d\uad6d", "lat": "37.63520434060561", "lng": "126.83200062463446", "url": "/info/%ED%99%94%EC%A0%95%EC%A2%85%EB%A1%9C%EC%95%BD%EA%B5%AD-%EA%B2%BD%EA%B8%B0%EB%8F%84-%EA%B3%A0%EC%96%91%EC%8B%9C-%ED%99%94%EC%A0%95%EB%8F%99/", "workingTime": ["-", "09:00~19:00", "09:00~19:00", "09:00~19:00", "09:00~19:00", "09:00~19:00", "09:00~15:00", "-"]}, {"name": "\ucc38\uc0ac\ub791\uc57d\uad6d", "lat": "37.6301452024", "lng": "126.8319236292", "url": "/info/%EC%B0%B8%EC%82%AC%EB%9E%91%EC%95%BD%EA%B5%AD-%EA%B2%BD%EA%B8%B0%EB%8F%84-%EA%B3%A0%EC%96%91%EC%8B%9C-%ED%99%94%EC%A0%95%EB%8F%99/", "workingTime": ["-", "08:00~22:00", "08:00~22:00", "08:00~22:00", "08:00~22:00", "08:00~22:00", "08:00~16:00", "-"]}, {"name": "\uc0dd\uc0dd\uc57d\uad6d", "lat": "37.638179128894365", "lng": "126.8324493662276", "url": "/info/%EC%83%9D%EC%83%9D%EC%95%BD%EA%B5%AD-%EA%B2%BD%EA%B8%B0%EB%8F%84-%EA%B3%A0%EC%96%91%EC%8B%9C-%ED%99%94%EC%A0%95%EB%8F%99/", "workingTime": ["-", "09:00~22:00", "09:00~22:00", "09:00~22:00", "09:00~22:00", "09:00~22:00", "09:00~22:00", "09:00~22:00"]}, {"name": "\uc2a4\uce74\uc774\uc57d\uad6d", "lat": "37.63295514716271", "lng": "126.8311333292142", "url": "/info/%EC%8A%A4%EC%B9%B4%EC%9D%B4%EC%95%BD%EA%B5%AD-%EA%B2%BD%EA%B8%B0%EB%8F%84-%EA%B3%A0%EC%96%91%EC%8B%9C-%ED%99%94%EC%A0%95%EB%8F%99/", "workingTime": ["1,3,5\uc9f8\uc8fc10:00~22:00", "10:00~22:00", "10:00~22:00", "10:00~22:00", "10:00~22:00", "10:00~22:00", "10:00~22:00", "10:00~22:00"]}, {"name": "\ud654\uc815\ub9c8\ub354\uc2a4\uc57d\uad6d", "lat": "37.63435022986022", "lng": "126.83138394808746", "url": "/info/%ED%99%94%EC%A0%95%EB%A7%88%EB%8D%94%EC%8A%A4%EC%95%BD%EA%B5%AD-%EA%B2%BD%EA%B8%B0%EB%8F%84-%EA%B3%A0%EC%96%91%EC%8B%9C-%ED%99%94%EC%A0%95%EB%8F%99/", "workingTime": ["1,2,3,4,5\uc9f8\uc8fc10:00~22:00", "10:00~22:00", "10:00~22:00", "10:00~22:00", "10:00~22:00", "10:00~22:00", "10:00~22:00", "10:00~22:00"]}, {"name": "\ub4dc\ub9bc\ud31c\uc57d\uad6d", "lat": "37.632700000000000", "lng": "126.833316666666661", "url": "/info/%EB%93%9C%EB%A6%BC%ED%8C%9C%EC%95%BD%EA%B5%AD-%EA%B2%BD%EA%B8%B0%EB%8F%84-%EA%B3%A0%EC%96%91%EC%8B%9C-%ED%99%94%EC%A0%95%EB%8F%99/", "workingTime": ["1,2,3,4,5\uc9f8\uc8fc10:00~22:30", "10:00~22:30", "10:00~22:30", "10:00~22:30", "10:00~22:30", "10:00~22:30", "10:00~22:30", "10:00~22:30"]}, {"name": "\ud574\uc194\uc57d\uad6d", "lat": "37.6319742944", "lng": "126.8307277076", "url": "/info/%ED%95%B4%EC%86%94%EC%95%BD%EA%B5%AD-%EA%B2%BD%EA%B8%B0%EB%8F%84-%EA%B3%A0%EC%96%91%EC%8B%9C-%ED%99%94%EC%A0%95%EB%8F%99/", "workingTime": ["-", "09:00~20:00", "09:00~20:00", "09:00~20:00", "09:00~20:00", "09:00~20:00", "-", "-"]}, {"name": "\ud654\uc815\ud478\ub978\uc194\uc57d\uad6d", "lat": "37.6276337816", "lng": "126.8297769154", "url": "/info/%ED%99%94%EC%A0%95%ED%91%B8%EB%A5%B8%EC%86%94%EC%95%BD%EA%B5%AD-%EA%B2%BD%EA%B8%B0%EB%8F%84-%EA%B3%A0%EC%96%91%EC%8B%9C-%ED%99%94%EC%A0%95%EB%8F%99/", "workingTime": ["-", "09:00~21:00", "09:00~21:00", "09:00~21:00", "09:00~21:00", "09:00~21:00", "09:00~19:00", "-"]}, {"name": "\ud55c\uc6b8\uc57d\uad6d", "lat": "37.63241768803993", "lng": "126.83080373900864", "url": "/info/%ED%95%9C%EC%9A%B8%EC%95%BD%EA%B5%AD-%EA%B2%BD%EA%B8%B0%EB%8F%84-%EA%B3%A0%EC%96%91%EC%8B%9C-%ED%99%94%EC%A0%95%EB%8F%99/", "workingTime": ["-", "08:30~19:00", "08:30~21:00", "08:30~19:00", "08:30~21:00", "08:30~19:00", "-", "09:00~13:00"]}, {"name": "\ub9c8\uc774\ub2e4\uc2a4\uc218\uc57d\uad6d", "lat": "37.632095400796565", "lng": "126.83350113144562", "url": "/info/%EB%A7%88%EC%9D%B4%EB%8B%A4%EC%8A%A4%EC%88%98%EC%95%BD%EA%B5%AD-%EA%B2%BD%EA%B8%B0%EB%8F%84-%EA%B3%A0%EC%96%91%EC%8B%9C-%ED%99%94%EC%A0%95%EB%8F%99/", "workingTime": ["-", "09:00~20:00", "09:00~20:00", "09:00~20:00", "09:00~20:00", "09:00~20:00", "-", "-"]}, {"name": "\uc6b0\ub9ac\uc628\ub204\ub9ac\uc57d\uad6d", "lat": "37.63518278865937", "lng": "126.83141832088789", "url": "/info/%EC%9A%B0%EB%A6%AC%EC%98%A8%EB%88%84%EB%A6%AC%EC%95%BD%EA%B5%AD-%EA%B2%BD%EA%B8%B0%EB%8F%84-%EA%B3%A0%EC%96%91%EC%8B%9C-%ED%99%94%EC%A0%95%EB%8F%99/", "workingTime": ["-", "09:00~19:30", "09:00~19:30", "09:00~19:30", "09:00~19:30", "09:00~19:30", "09:00~16:00", "-"]}, {"name": "\uc131\uc9c0\uc57d\uad6d", "lat": "37.6338459325", "lng": "126.8315618231", "url": "/info/%EC%84%B1%EC%A7%80%EC%95%BD%EA%B5%AD-%EA%B2%BD%EA%B8%B0%EB%8F%84-%EA%B3%A0%EC%96%91%EC%8B%9C-%ED%99%94%EC%A0%95%EB%8F%99/", "workingTime": ["-", "09:00~14:00", "09:00~14:00", "09:00~14:00", "09:00~14:00", "09:00~14:00", "09:30~16:00", "-"]}, {"name": "\ud654\uc218\uc57d\uad6d", "lat": "37.64351187204457", "lng": "126.83050227886777", "url": "/info/%ED%99%94%EC%88%98%EC%95%BD%EA%B5%AD-%EA%B2%BD%EA%B8%B0%EB%8F%84-%EA%B3%A0%EC%96%91%EC%8B%9C-%ED%99%94%EC%A0%95%EB%8F%99/", "workingTime": ["-", "08:30~18:30", "08:30~18:30", "08:30~18:30", "08:30~18:30", "08:30~18:30", "08:30~13:30", "-"]}, {"name": "\uc138\uc6d0\uc57d\uad6d", "lat": "37.642614791661984", "lng": "126.83001469075589", "url": "/info/%EC%84%B8%EC%9B%90%EC%95%BD%EA%B5%AD-%EA%B2%BD%EA%B8%B0%EB%8F%84-%EA%B3%A0%EC%96%91%EC%8B%9C-%ED%99%94%EC%A0%95%EB%8F%99/", "workingTime": ["08:30~13:00(\uc5f0\ub77d\ud6c4\ubc29\ubb38\uc694\ub9dd)", "08:30~18:00", "08:30~18:00", "08:30~18:00", "08:30~18:00", "08:30~18:00", "08:30~13:00", "-"]}, {"name": "\uc0c8\ud55c\ube5b\uc57d\uad6d", "lat": "37.63370348083022", "lng": "126.83212749163793", "url": "/info/%EC%83%88%ED%95%9C%EB%B9%9B%EC%95%BD%EA%B5%AD-%EA%B2%BD%EA%B8%B0%EB%8F%84-%EA%B3%A0%EC%96%91%EC%8B%9C-%ED%99%94%EC%A0%95%EB%8F%99/", "workingTime": ["-", "09:00~18:30", "09:00~18:30", "09:00~18:30", "09:00~18:30", "09:00~18:30", "09:00~14:00", "-"]}, {"name": "\uc885\ub85c\uc57d\uad6d", "lat": "37.631145965209534", "lng": "126.83050303137457", "url": "/info/%EC%A2%85%EB%A1%9C%EC%95%BD%EA%B5%AD-%EA%B2%BD%EA%B8%B0%EB%8F%84-%EA%B3%A0%EC%96%91%EC%8B%9C-%ED%99%94%EC%A0%95%EB%8F%99/", "workingTime": ["-", "09:00~20:30", "09:00~20:30", "09:00~20:30", "09:00~20:30", "09:00~20:30", "09:00~13:00", "-"]}, {"name": "\ub3d9\uc6d0\ud154\uc57d\uad6d", "lat": "37.63511164062888", "lng": "126.8314400282992", "url": "/info/%EB%8F%99%EC%9B%90%ED%85%94%EC%95%BD%EA%B5%AD-%EA%B2%BD%EA%B8%B0%EB%8F%84-%EA%B3%A0%EC%96%91%EC%8B%9C-%ED%99%94%EC%A0%95%EB%8F%99/", "workingTime": ["-", "08:00~20:00", "08:00~20:00", "08:00~20:00", "08:00~20:00", "08:00~20:00", "08:00~17:00", "09:00~13:00"]}]