[{"name": "\uc2e0\uc548\uc628\ub204\ub9ac\uc57d\uad6d", "lat": "37.6195779321", "lng": "126.6992354685", "url": "/info/%EC%8B%A0%EC%95%88%EC%98%A8%EB%88%84%EB%A6%AC%EC%95%BD%EA%B5%AD-%EA%B2%BD%EA%B8%B0%EB%8F%84-%EA%B9%80%ED%8F%AC%EC%8B%9C-%EA%B0%90%EC%A0%95%EB%8F%99/", "workingTime": ["-", "09:00~20:00", "09:00~20:00", "09:00~20:00", "09:00~20:00", "09:00~20:00", "09:00~17:00", "-"]}, {"name": "\ubbf8\uc18c\uc57d\uad6d", "lat": "37.62684984477585", "lng": "126.70032538666687", "url": "/info/%EB%AF%B8%EC%86%8C%EC%95%BD%EA%B5%AD-%EA%B2%BD%EA%B8%B0%EB%8F%84-%EA%B9%80%ED%8F%AC%EC%8B%9C-%EA%B0%90%EC%A0%95%EB%8F%99/", "workingTime": ["-", "09:00~19:00", "09:00~19:00", "09:00~19:00", "09:00~19:00", "09:00~19:00", "09:00~16:00", "-"]}, {"name": "\ud558\ub098\ub85c\uc57d\uad6d", "lat": "37.62320930865161", "lng": "126.70010438828915", "url": "/info/%ED%95%98%EB%82%98%EB%A1%9C%EC%95%BD%EA%B5%AD-%EA%B2%BD%EA%B8%B0%EB%8F%84-%EA%B9%80%ED%8F%AC%EC%8B%9C-%EA%B0%90%EC%A0%95%EB%8F%99/", "workingTime": ["-", "09:00~20:00", "09:00~20:00", "09:00~20:00", "09:00~20:00", "09:00~20:00", "09:00~13:00", "-"]}, {"name": "\uae40\ud3ec\ud648\ud50c\ub7ec\uc2a4\uc57d\uad6d", "lat": "37.62386147615602", "lng": "126.69863372441081", "url": "/info/%EA%B9%80%ED%8F%AC%ED%99%88%ED%94%8C%EB%9F%AC%EC%8A%A4%EC%95%BD%EA%B5%AD-%EA%B2%BD%EA%B8%B0%EB%8F%84-%EA%B9%80%ED%8F%AC%EC%8B%9C-%EA%B0%90%EC%A0%95%EB%8F%99/", "workingTime": ["1,2,3,4,5\uc9f8\uc8fc10:00~22:00", "10:00~22:00", "10:00~22:00", "10:00~22:00", "10:00~22:00", "10:00~22:00", "10:00~22:00", "10:00~22:00"]}, {"name": "\ub2e4\uc628\uc57d\uad6d", "lat": "37.623698589651895", "lng": "126.69694880920265", "url": "/info/%EB%8B%A4%EC%98%A8%EC%95%BD%EA%B5%AD-%EA%B2%BD%EA%B8%B0%EB%8F%84-%EA%B9%80%ED%8F%AC%EC%8B%9C-%EA%B0%90%EC%A0%95%EB%8F%99/", "workingTime": ["-", "09:00~18:00", "09:00~18:00", "09:00~18:00", "09:00~18:00", "09:00~18:00", "09:00~14:00", "-"]}, {"name": "\uc8fc\uc5f0\uba54\ub514\uce7c\uc57d\uad6d", "lat": "37.62332593615417", "lng": "126.69708740649687", "url": "/info/%EC%A3%BC%EC%97%B0%EB%A9%94%EB%94%94%EC%B9%BC%EC%95%BD%EA%B5%AD-%EA%B2%BD%EA%B8%B0%EB%8F%84-%EA%B9%80%ED%8F%AC%EC%8B%9C-%EA%B0%90%EC%A0%95%EB%8F%99/", "workingTime": ["1,2,3,4,5\uc9f8\uc8fc09:00~13:00", "08:00~21:00", "08:00~21:00", "08:00~21:00", "08:00~21:00", "08:00~21:00", "08:00~17:00", "09:00~13:00"]}, {"name": "\uc0c8\ud55c\ube5b\uc57d\uad6d", "lat": "37.625043008233675", "lng": "126.70267525850758", "url": "/info/%EC%83%88%ED%95%9C%EB%B9%9B%EC%95%BD%EA%B5%AD-%EA%B2%BD%EA%B8%B0%EB%8F%84-%EA%B9%80%ED%8F%AC%EC%8B%9C-%EA%B0%90%EC%A0%95%EB%8F%99/", "workingTime": ["-", "08:00~18:00", "08:00~18:00", "08:00~13:00", "08:00~18:00", "08:00~18:00", "08:00~13:00", "-"]}, {"name": "\uc0ac\ub791\uc628\ub204\ub9ac\uc57d\uad6d", "lat": "37.62330467686131", "lng": "126.69934279211497", "url": "/info/%EC%82%AC%EB%9E%91%EC%98%A8%EB%88%84%EB%A6%AC%EC%95%BD%EA%B5%AD-%EA%B2%BD%EA%B8%B0%EB%8F%84-%EA%B9%80%ED%8F%AC%EC%8B%9C-%EA%B0%90%EC%A0%95%EB%8F%99/", "workingTime": ["-", "09:00~21:00", "09:00~21:00", "09:00~21:00", "09:00~21:00", "09:00~21:00", "09:00~16:00", "-"]}]