[{"name": "\uc57d\uc0ac\ub791\uc57d\uad6d", "lat": "37.6448506466", "lng": "126.7920828853", "url": "/info/%EC%95%BD%EC%82%AC%EB%9E%91%EC%95%BD%EA%B5%AD-%EA%B2%BD%EA%B8%B0%EB%8F%84-%EA%B3%A0%EC%96%91%EC%8B%9C-%EB%B0%B1%EC%84%9D%EB%8F%99/", "workingTime": ["-", "09:00~18:00", "09:00~18:00", "09:00~18:00", "09:00~18:00", "09:00~18:00", "09:00~13:00", "-"]}, {"name": "\ub2e4\uc778\ud30c\ub791\uc0c8\uc57d\uad6d", "lat": "37.6448507377235", "lng": "126.792083451585", "url": "/info/%EB%8B%A4%EC%9D%B8%ED%8C%8C%EB%9E%91%EC%83%88%EC%95%BD%EA%B5%AD-%EA%B2%BD%EA%B8%B0%EB%8F%84-%EA%B3%A0%EC%96%91%EC%8B%9C-%EB%B0%B1%EC%84%9D%EB%8F%99/", "workingTime": ["-", "09:00~18:00", "09:00~18:00", "09:00~18:00", "09:00~18:00", "09:00~18:00", "-", "-"]}, {"name": "\uad7f\ubaa8\ub2dd\uc870\uc740\uc57d\uad6d", "lat": "37.64514248483321", "lng": "126.79203790212476", "url": "/info/%EA%B5%BF%EB%AA%A8%EB%8B%9D%EC%A1%B0%EC%9D%80%EC%95%BD%EA%B5%AD-%EA%B2%BD%EA%B8%B0%EB%8F%84-%EA%B3%A0%EC%96%91%EC%8B%9C-%EB%B0%B1%EC%84%9D%EB%8F%99/", "workingTime": ["-", "09:00~19:00", "09:00~19:00", "09:00~19:00", "09:00~19:00", "09:00~19:00", "09:00~14:00", "-"]}, {"name": "\ud130\ubbf8\ub110\uc57d\uad6d", "lat": "37.64317773709999", "lng": "126.78966279689999", "url": "/info/%ED%84%B0%EB%AF%B8%EB%84%90%EC%95%BD%EA%B5%AD-%EA%B2%BD%EA%B8%B0%EB%8F%84-%EA%B3%A0%EC%96%91%EC%8B%9C-%EB%B0%B1%EC%84%9D%EB%8F%99/", "workingTime": ["-", "09:00~18:00", "09:00~18:00", "09:00~18:00", "09:00~18:00", "09:00~18:00", "09:00~18:00", "-"]}, {"name": "\uc77c\uc0b0\uba54\ub514\uce7c\uc57d\uad6d", "lat": "37.6448507377235", "lng": "126.792083451585", "url": "/info/%EC%9D%BC%EC%82%B0%EB%A9%94%EB%94%94%EC%B9%BC%EC%95%BD%EA%B5%AD-%EA%B2%BD%EA%B8%B0%EB%8F%84-%EA%B3%A0%EC%96%91%EC%8B%9C-%EB%B0%B1%EC%84%9D%EB%8F%99/", "workingTime": ["-", "09:00~18:30", "09:00~18:30", "09:00~18:30", "09:00~18:30", "09:00~18:30", "09:00~13:00", "-"]}, {"name": "\uc0ac\ub791\ud50c\ub7ec\uc2a4\uc57d\uad6d", "lat": "37.6450543770892", "lng": "126.784560867709", "url": "/info/%EC%82%AC%EB%9E%91%ED%94%8C%EB%9F%AC%EC%8A%A4%EC%95%BD%EA%B5%AD-%EA%B2%BD%EA%B8%B0%EB%8F%84-%EA%B3%A0%EC%96%91%EC%8B%9C-%EB%B0%B1%EC%84%9D%EB%8F%99/", "workingTime": ["-", "09:00~19:00", "09:00~19:00", "09:00~19:00", "09:00~19:00", "09:00~19:00", "09:00~16:00", "-"]}, {"name": "\ub450\ub808\uc628\ub204\ub9ac\uc57d\uad6d", "lat": "37.6456384466", "lng": "126.7852322413", "url": "/info/%EB%91%90%EB%A0%88%EC%98%A8%EB%88%84%EB%A6%AC%EC%95%BD%EA%B5%AD-%EA%B2%BD%EA%B8%B0%EB%8F%84-%EA%B3%A0%EC%96%91%EC%8B%9C-%EB%B0%B1%EC%84%9D%EB%8F%99/", "workingTime": ["-", "09:00~19:00", "09:00~19:00", "09:00~19:00", "09:00~19:00", "09:00~19:00", "09:00~14:00", "-"]}, {"name": "\uc608\uc9c0\uc57d\uad6d", "lat": "37.6436642856737", "lng": "126.787861318886", "url": "/info/%EC%98%88%EC%A7%80%EC%95%BD%EA%B5%AD-%EA%B2%BD%EA%B8%B0%EB%8F%84-%EA%B3%A0%EC%96%91%EC%8B%9C-%EB%B0%B1%EC%84%9D%EB%8F%99/", "workingTime": ["-", "10:00~18:00", "10:00~18:00", "10:00~18:00", "10:00~18:00", "10:00~18:00", "-", "-"]}, {"name": "\uc628\ub204\ub9ac\ud770\ub3cc\uc57d\uad6d", "lat": "37.642869825722045", "lng": "126.78614720414147", "url": "/info/%EC%98%A8%EB%88%84%EB%A6%AC%ED%9D%B0%EB%8F%8C%EC%95%BD%EA%B5%AD-%EA%B2%BD%EA%B8%B0%EB%8F%84-%EA%B3%A0%EC%96%91%EC%8B%9C-%EB%B0%B1%EC%84%9D%EB%8F%99/", "workingTime": ["2\uc9f8\uc8fc10:00~21:00", "10:00~21:00", "10:00~21:00", "10:00~21:00", "10:00~21:00", "10:00~21:00", "10:00~21:00", "-"]}, {"name": "\uba54\ub514\ud31c\uc77c\uc0b0\uc57d\uad6d", "lat": "37.646382391759175", "lng": "126.79145810307915", "url": "/info/%EB%A9%94%EB%94%94%ED%8C%9C%EC%9D%BC%EC%82%B0%EC%95%BD%EA%B5%AD-%EA%B2%BD%EA%B8%B0%EB%8F%84-%EA%B3%A0%EC%96%91%EC%8B%9C-%EB%B0%B1%EC%84%9D%EB%8F%99/", "workingTime": ["-", "09:00~18:30", "09:00~18:30", "09:00~18:30", "09:00~18:30", "09:00~18:30", "09:00~14:00", "-"]}, {"name": "\ubbf8\ub974\uc57d\uad6d", "lat": "37.644252979161635", "lng": "126.78573983867872", "url": "/info/%EB%AF%B8%EB%A5%B4%EC%95%BD%EA%B5%AD-%EA%B2%BD%EA%B8%B0%EB%8F%84-%EA%B3%A0%EC%96%91%EC%8B%9C-%EB%B0%B1%EC%84%9D%EB%8F%99/", "workingTime": ["1\uc9f8\uc8fc09:30~16:30", "09:30~18:30", "09:30~18:30", "09:30~18:30", "09:30~18:30", "09:30~18:30", "09:30~14:30", "09:00~13:00"]}, {"name": "\uc73c\ub738\uc57d\uad6d", "lat": "37.64235645995964", "lng": "126.7878839598955", "url": "/info/%EC%9C%BC%EB%9C%B8%EC%95%BD%EA%B5%AD-%EA%B2%BD%EA%B8%B0%EB%8F%84-%EA%B3%A0%EC%96%91%EC%8B%9C-%EB%B0%B1%EC%84%9D%EB%8F%99/", "workingTime": ["-", "09:00~18:30", "09:00~18:30", "09:00~18:30", "09:00~18:30", "09:00~18:30", "-", "-"]}, {"name": "\ubca8\ub77c\uc2dc\ud0c0\uc57d\uad6d", "lat": "37.644069857500874", "lng": "126.79280116489467", "url": "/info/%EB%B2%A8%EB%9D%BC%EC%8B%9C%ED%83%80%EC%95%BD%EA%B5%AD-%EA%B2%BD%EA%B8%B0%EB%8F%84-%EA%B3%A0%EC%96%91%EC%8B%9C-%EB%B0%B1%EC%84%9D%EB%8F%99/", "workingTime": ["11:00~22:00(\uc5f0\ub77d\ud6c4\ubc29\ubb38\uc694\ub9dd)", "11:00~22:00", "11:00~22:00", "11:00~22:00", "11:00~22:00", "11:00~22:00", "11:00~22:00", "11:00~22:00"]}, {"name": "\ud589\ubcf5\ud55c\uc57d\uad6d", "lat": "37.64582962969957", "lng": "126.79084622969228", "url": "/info/%ED%96%89%EB%B3%B5%ED%95%9C%EC%95%BD%EA%B5%AD-%EA%B2%BD%EA%B8%B0%EB%8F%84-%EA%B3%A0%EC%96%91%EC%8B%9C-%EB%B0%B1%EC%84%9D%EB%8F%99/", "workingTime": ["-", "09:00~18:00", "09:00~18:00", "09:00~18:00", "09:00~18:00", "09:00~18:00", "-", "-"]}, {"name": "\uac00\uae4c\uc6b4\uc57d\uad6d", "lat": "37.64496739544569", "lng": "126.79220991993175", "url": "/info/%EA%B0%80%EA%B9%8C%EC%9A%B4%EC%95%BD%EA%B5%AD-%EA%B2%BD%EA%B8%B0%EB%8F%84-%EA%B3%A0%EC%96%91%EC%8B%9C-%EB%B0%B1%EC%84%9D%EB%8F%99/", "workingTime": ["-", "09:00~19:30", "09:00~19:30", "09:00~19:30", "09:00~19:30", "09:00~19:30", "09:00~14:00", "-"]}, {"name": "\uc0c8\uba85\uc57d\uad6d", "lat": "37.643246300279934", "lng": "126.78971245834385", "url": "/info/%EC%83%88%EB%AA%85%EC%95%BD%EA%B5%AD-%EA%B2%BD%EA%B8%B0%EB%8F%84-%EA%B3%A0%EC%96%91%EC%8B%9C-%EB%B0%B1%EC%84%9D%EB%8F%99/", "workingTime": ["1,2,3,4,5\uc9f8\uc8fc10:00~22:00", "10:00~22:00", "10:00~22:00", "10:00~22:00", "10:00~22:00", "10:00~22:00", "10:00~22:00", "10:00~22:00"]}, {"name": "\ubc31\uc11d\uc740\ud61c\uc57d\uad6d", "lat": "37.64235765920134", "lng": "126.78790262771955", "url": "/info/%EB%B0%B1%EC%84%9D%EC%9D%80%ED%98%9C%EC%95%BD%EA%B5%AD-%EA%B2%BD%EA%B8%B0%EB%8F%84-%EA%B3%A0%EC%96%91%EC%8B%9C-%EB%B0%B1%EC%84%9D%EB%8F%99/", "workingTime": ["-", "09:00~18:30", "09:00~18:30", "09:00~18:30", "09:00~18:30", "09:00~18:30", "09:00~15:00", "-"]}, {"name": "\ubd04\uc57d\uad6d", "lat": "37.6429647821606", "lng": "126.78683582357291", "url": "/info/%EB%B4%84%EC%95%BD%EA%B5%AD-%EA%B2%BD%EA%B8%B0%EB%8F%84-%EA%B3%A0%EC%96%91%EC%8B%9C-%EB%B0%B1%EC%84%9D%EB%8F%99/", "workingTime": ["-", "09:00~18:30", "09:00~18:30", "09:00~18:30", "09:00~18:30", "09:00~18:30", "09:00~15:00", "-"]}, {"name": "\ud30c\ub791\uc0c8\uc57d\uad6d", "lat": "37.64485960850307", "lng": "126.79239604707934", "url": "/info/%ED%8C%8C%EB%9E%91%EC%83%88%EC%95%BD%EA%B5%AD-%EA%B2%BD%EA%B8%B0%EB%8F%84-%EA%B3%A0%EC%96%91%EC%8B%9C-%EB%B0%B1%EC%84%9D%EB%8F%99/", "workingTime": ["-", "08:30~18:00", "08:30~18:00", "08:30~18:00", "08:30~18:00", "08:30~18:00", "09:00~13:00", "-"]}, {"name": "\uc624\uc57d\uad6d", "lat": "37.64473378811444", "lng": "126.78458724323485", "url": "/info/%EC%98%A4%EC%95%BD%EA%B5%AD-%EA%B2%BD%EA%B8%B0%EB%8F%84-%EA%B3%A0%EC%96%91%EC%8B%9C-%EB%B0%B1%EC%84%9D%EB%8F%99/", "workingTime": ["-", "09:00~18:00", "09:00~18:00", "09:00~18:00", "09:00~18:00", "09:00~18:00", "09:00~16:00", "-"]}, {"name": "\uc2e0\ub3c4\uc2dc\uc57d\uad6d", "lat": "37.646358146693295", "lng": "126.79115182040183", "url": "/info/%EC%8B%A0%EB%8F%84%EC%8B%9C%EC%95%BD%EA%B5%AD-%EA%B2%BD%EA%B8%B0%EB%8F%84-%EA%B3%A0%EC%96%91%EC%8B%9C-%EB%B0%B1%EC%84%9D%EB%8F%99/", "workingTime": ["-", "09:00~18:30", "09:00~18:30", "09:00~18:30", "09:00~18:30", "09:00~18:30", "09:00~14:00", "-"]}, {"name": "\uc774\uce35\ud638\uc218\uc57d\uad6d", "lat": "37.64357299822126", "lng": "126.78245593784268", "url": "/info/%EC%9D%B4%EC%B8%B5%ED%98%B8%EC%88%98%EC%95%BD%EA%B5%AD-%EA%B2%BD%EA%B8%B0%EB%8F%84-%EA%B3%A0%EC%96%91%EC%8B%9C-%EB%B0%B1%EC%84%9D%EB%8F%99/", "workingTime": ["-", "09:00~19:30", "09:00~19:30", "09:00~19:30", "09:00~19:30", "09:00~19:30", "09:00~16:30", "-"]}, {"name": "\uc77c\uc0b0\uc790\uc720\ub85c\uc57d\uad6d", "lat": "37.6471451128", "lng": "126.7814296801", "url": "/info/%EC%9D%BC%EC%82%B0%EC%9E%90%EC%9C%A0%EB%A1%9C%EC%95%BD%EA%B5%AD-%EA%B2%BD%EA%B8%B0%EB%8F%84-%EA%B3%A0%EC%96%91%EC%8B%9C-%EB%B0%B1%EC%84%9D%EB%8F%99/", "workingTime": ["-", "08:30~20:30", "08:30~20:30", "08:30~20:30", "08:30~20:30", "08:30~20:30", "08:30~20:30", "-"]}, {"name": "\ud638\ud638\ud638\uc57d\uad6d", "lat": "37.64625481168469", "lng": "126.79130845779754", "url": "/info/%ED%98%B8%ED%98%B8%ED%98%B8%EC%95%BD%EA%B5%AD-%EA%B2%BD%EA%B8%B0%EB%8F%84-%EA%B3%A0%EC%96%91%EC%8B%9C-%EB%B0%B1%EC%84%9D%EB%8F%99/", "workingTime": ["-", "09:00~18:30", "09:00~18:30", "09:00~18:30", "09:00~18:30", "09:00~18:30", "09:00~13:00", "-"]}, {"name": "\ub098\ubb34\uc57d\uad6d", "lat": "37.64235646", "lng": "126.7878839599", "url": "/info/%EB%82%98%EB%AC%B4%EC%95%BD%EA%B5%AD-%EA%B2%BD%EA%B8%B0%EB%8F%84-%EA%B3%A0%EC%96%91%EC%8B%9C-%EB%B0%B1%EC%84%9D%EB%8F%99/", "workingTime": ["-", "08:40~20:00", "08:40~20:00", "08:40~20:00", "08:40~20:00", "08:40~20:00", "08:40~17:00", "-"]}, {"name": "\ub9c8\ud2b8\uc57d\uad6d", "lat": "37.648058985276364", "lng": "126.78198951301933", "url": "/info/%EB%A7%88%ED%8A%B8%EC%95%BD%EA%B5%AD-%EA%B2%BD%EA%B8%B0%EB%8F%84-%EA%B3%A0%EC%96%91%EC%8B%9C-%EB%B0%B1%EC%84%9D%EB%8F%99/", "workingTime": ["-", "09:00~20:00", "09:00~20:00", "09:00~20:00", "09:00~20:00", "09:00~20:00", "09:00~18:00", "-"]}, {"name": "\uc628\ub204\ub9ac\uc6b0\uc131\uc57d\uad6d", "lat": "37.64931841494012", "lng": "126.7888028071622", "url": "/info/%EC%98%A8%EB%88%84%EB%A6%AC%EC%9A%B0%EC%84%B1%EC%95%BD%EA%B5%AD-%EA%B2%BD%EA%B8%B0%EB%8F%84-%EA%B3%A0%EC%96%91%EC%8B%9C-%EB%B0%B1%EC%84%9D%EB%8F%99/", "workingTime": ["-", "09:00~20:00", "09:00~20:00", "09:00~20:00", "09:00~20:00", "09:00~20:00", "09:00~19:00", "09:00~20:00"]}, {"name": "\uc131\uc2ec\uc57d\uad6d", "lat": "37.64394980991511", "lng": "126.78611636772371", "url": "/info/%EC%84%B1%EC%8B%AC%EC%95%BD%EA%B5%AD-%EA%B2%BD%EA%B8%B0%EB%8F%84-%EA%B3%A0%EC%96%91%EC%8B%9C-%EB%B0%B1%EC%84%9D%EB%8F%99/", "workingTime": ["-", "09:00~19:30", "09:00~19:30", "09:00~19:30", "09:00~19:30", "09:00~19:30", "09:00~14:30", "-"]}, {"name": "\uc131\uc6d0\uc57d\uad6d", "lat": "37.645586111111108", "lng": "126.785011111111118", "url": "/info/%EC%84%B1%EC%9B%90%EC%95%BD%EA%B5%AD-%EA%B2%BD%EA%B8%B0%EB%8F%84-%EA%B3%A0%EC%96%91%EC%8B%9C-%EB%B0%B1%EC%84%9D%EB%8F%99/", "workingTime": ["-", "09:30~21:00", "09:30~21:00", "09:30~21:00", "09:30~21:00", "09:30~21:00", "09:30~17:00", "-"]}]