[{"name": "\uc0b0\ucc45\uc57d\uad6d", "lat": "37.6520047338999", "lng": "126.895533499856", "url": "/info/%EC%82%B0%EC%B1%85%EC%95%BD%EA%B5%AD-%EA%B2%BD%EA%B8%B0%EB%8F%84-%EA%B3%A0%EC%96%91%EC%8B%9C-%EC%82%BC%EC%86%A1%EB%8F%99/", "workingTime": ["-", "09:00~18:00", "09:00~18:00", "09:00~18:00", "09:00~18:00", "09:00~18:00", "09:00~13:00", "-"]}, {"name": "\ub354\ubd88\uc5b4\uc57d\uad6d", "lat": "37.652984171002984", "lng": "126.89490138214282", "url": "/info/%EB%8D%94%EB%B6%88%EC%96%B4%EC%95%BD%EA%B5%AD-%EA%B2%BD%EA%B8%B0%EB%8F%84-%EA%B3%A0%EC%96%91%EC%8B%9C-%EC%82%BC%EC%86%A1%EB%8F%99/", "workingTime": ["1,2,3,4,5\uc9f8\uc8fc14:00~19:00", "08:40~20:30", "08:40~19:30", "08:40~20:30", "08:40~19:30", "08:40~19:30", "08:40~15:00", "-"]}, {"name": "\ucc38\uc57d\uc0ac\ucc38\uc57d\uad6d", "lat": "37.6522099712635", "lng": "126.895424538473", "url": "/info/%EC%B0%B8%EC%95%BD%EC%82%AC%EC%B0%B8%EC%95%BD%EA%B5%AD-%EA%B2%BD%EA%B8%B0%EB%8F%84-%EA%B3%A0%EC%96%91%EC%8B%9C-%EC%82%BC%EC%86%A1%EB%8F%99/", "workingTime": ["-", "09:00~18:00", "09:00~18:00", "09:00~18:00", "09:00~18:00", "09:00~18:00", "-", "-"]}, {"name": "\uc0bc\uc1a1\uc5ed3\ubc88\ucd9c\uad6c\uc57d\uad6d", "lat": "37.6526294015109", "lng": "126.895247283428", "url": "/info/%EC%82%BC%EC%86%A1%EC%97%AD3%EB%B2%88%EC%B6%9C%EA%B5%AC%EC%95%BD%EA%B5%AD-%EA%B2%BD%EA%B8%B0%EB%8F%84-%EA%B3%A0%EC%96%91%EC%8B%9C-%EC%82%BC%EC%86%A1%EB%8F%99/", "workingTime": ["-", "09:00~21:00", "09:00~21:00", "09:00~21:00", "09:00~21:00", "09:00~21:00", "-", "-"]}, {"name": "\ud65c\uae30\ucc2c\uc57d\uad6d", "lat": "37.650332363200405", "lng": "126.88409013169418", "url": "/info/%ED%99%9C%EA%B8%B0%EC%B0%AC%EC%95%BD%EA%B5%AD-%EA%B2%BD%EA%B8%B0%EB%8F%84-%EA%B3%A0%EC%96%91%EC%8B%9C-%EC%82%BC%EC%86%A1%EB%8F%99/", "workingTime": ["08:30~14:30(\uc5f0\ub77d\ud6c4\ubc29\ubb38\uc694\ub9dd)", "08:30~14:30", "08:30~14:30", "08:30~14:30", "08:30~14:30", "08:30~14:30", "08:30~15:30", "-"]}, {"name": "\ubcc4\ube5b\uc57d\uad6d", "lat": "37.650735931518035", "lng": "126.88401698110706", "url": "/info/%EB%B3%84%EB%B9%9B%EC%95%BD%EA%B5%AD-%EA%B2%BD%EA%B8%B0%EB%8F%84-%EA%B3%A0%EC%96%91%EC%8B%9C-%EC%82%BC%EC%86%A1%EB%8F%99/", "workingTime": ["-", "09:00~19:00", "09:00~21:00", "09:00~19:00", "09:00~21:00", "09:00~19:00", "09:00~16:00", "-"]}, {"name": "\uc62c\ub9ac\ube0c\uc57d\uad6d", "lat": "37.650087024303055", "lng": "126.88381402010483", "url": "/info/%EC%98%AC%EB%A6%AC%EB%B8%8C%EC%95%BD%EA%B5%AD-%EA%B2%BD%EA%B8%B0%EB%8F%84-%EA%B3%A0%EC%96%91%EC%8B%9C-%EC%82%BC%EC%86%A1%EB%8F%99/", "workingTime": ["-", "09:00~21:00", "09:00~21:00", "09:00~21:00", "09:00~21:00", "09:00~21:00", "09:00~15:00", "09:00~15:00"]}, {"name": "\ub2f4\uc6b0\uc57d\uad6d", "lat": "37.6531236434232", "lng": "126.8936954669255", "url": "/info/%EB%8B%B4%EC%9A%B0%EC%95%BD%EA%B5%AD-%EA%B2%BD%EA%B8%B0%EB%8F%84-%EA%B3%A0%EC%96%91%EC%8B%9C-%EC%82%BC%EC%86%A1%EB%8F%99/", "workingTime": ["-", "09:20~16:00", "09:20~16:00", "09:20~16:00", "09:20~16:00", "09:20~16:00", "09:30~18:00", "-"]}, {"name": "\uc720\uc2a4\uc57d\uad6d", "lat": "37.64813418203108", "lng": "126.88431111039203", "url": "/info/%EC%9C%A0%EC%8A%A4%EC%95%BD%EA%B5%AD-%EA%B2%BD%EA%B8%B0%EB%8F%84-%EA%B3%A0%EC%96%91%EC%8B%9C-%EC%82%BC%EC%86%A1%EB%8F%99/", "workingTime": ["-", "08:30~19:00", "08:30~19:00", "08:30~19:00", "08:30~19:00", "08:30~19:00", "08:30~15:00", "-"]}, {"name": "\ucf54\ucf54\uc628\ub204\ub9ac\uc57d\uad6d", "lat": "37.650209486310914", "lng": "126.883741306478", "url": "/info/%EC%BD%94%EC%BD%94%EC%98%A8%EB%88%84%EB%A6%AC%EC%95%BD%EA%B5%AD-%EA%B2%BD%EA%B8%B0%EB%8F%84-%EA%B3%A0%EC%96%91%EC%8B%9C-%EC%82%BC%EC%86%A1%EB%8F%99/", "workingTime": ["-", "09:00~19:00", "09:00~19:00", "09:00~19:00", "09:00~19:00", "09:00~19:00", "09:00~15:00", "-"]}, {"name": "\ubcf4\uc131\uc57d\uad6d", "lat": "37.65371736625606", "lng": "126.89467259185909", "url": "/info/%EB%B3%B4%EC%84%B1%EC%95%BD%EA%B5%AD-%EA%B2%BD%EA%B8%B0%EB%8F%84-%EA%B3%A0%EC%96%91%EC%8B%9C-%EC%82%BC%EC%86%A1%EB%8F%99/", "workingTime": ["-", "11:00~18:00", "11:00~18:00", "11:00~18:00", "11:00~18:00", "11:00~18:00", "09:00~20:00", "09:00~19:00"]}, {"name": "\ub3c4\ud1a0\ub9ac\uc57d\uad6d", "lat": "37.652516602300004", "lng": "126.88808921519998", "url": "/info/%EB%8F%84%ED%86%A0%EB%A6%AC%EC%95%BD%EA%B5%AD-%EA%B2%BD%EA%B8%B0%EB%8F%84-%EA%B3%A0%EC%96%91%EC%8B%9C-%EC%82%BC%EC%86%A1%EB%8F%99/", "workingTime": ["-", "12:00~21:00", "12:00~21:00", "12:00~21:00", "12:00~21:00", "12:00~21:00", "09:00~21:00", "-"]}]