[{"name": "\uc635\ud2f0\ub9c8\uc608\uc77c\uc57d\uad6d", "lat": "37.25362871098501", "lng": "127.10953822576191", "url": "/info/%EC%98%B5%ED%8B%B0%EB%A7%88%EC%98%88%EC%9D%BC%EC%95%BD%EA%B5%AD-%EA%B2%BD%EA%B8%B0%EB%8F%84-%EC%9A%A9%EC%9D%B8%EC%8B%9C-%EB%B3%B4%EB%9D%BC%EB%8F%99/", "workingTime": ["-", "09:00~19:00", "09:00~19:00", "09:00~19:00", "09:00~19:00", "09:00~19:00", "09:00~13:00", "-"]}, {"name": "\ubcf4\ub77c\ud488\uc548\uc5d0\uc57d\uad6d", "lat": "37.2539865476", "lng": "127.109420367", "url": "/info/%EB%B3%B4%EB%9D%BC%ED%92%88%EC%95%88%EC%97%90%EC%95%BD%EA%B5%AD-%EA%B2%BD%EA%B8%B0%EB%8F%84-%EC%9A%A9%EC%9D%B8%EC%8B%9C-%EB%B3%B4%EB%9D%BC%EB%8F%99/", "workingTime": ["-", "08:30~20:00", "08:30~20:00", "08:30~20:00", "08:30~20:00", "08:30~20:00", "08:30~16:00", "-"]}, {"name": "\uc720\uba85\uc57d\uad6d", "lat": "37.24760141571949", "lng": "127.1051295253941", "url": "/info/%EC%9C%A0%EB%AA%85%EC%95%BD%EA%B5%AD-%EA%B2%BD%EA%B8%B0%EB%8F%84-%EC%9A%A9%EC%9D%B8%EC%8B%9C-%EB%B3%B4%EB%9D%BC%EB%8F%99/", "workingTime": ["1,2,3,4,5\uc9f8\uc8fc10:00~22:00", "10:00~22:00", "10:00~22:00", "10:00~22:00", "10:00~22:00", "10:00~22:00", "10:00~22:00", "10:00~22:00"]}, {"name": "\uadf8\ub9b0\uc57d\uad6d", "lat": "37.254315270826424", "lng": "127.10990453839511", "url": "/info/%EA%B7%B8%EB%A6%B0%EC%95%BD%EA%B5%AD-%EA%B2%BD%EA%B8%B0%EB%8F%84-%EC%9A%A9%EC%9D%B8%EC%8B%9C-%EB%B3%B4%EB%9D%BC%EB%8F%99/", "workingTime": ["-", "09:00~20:00", "09:00~20:00", "09:00~20:00", "09:00~20:00", "09:00~20:00", "09:00~15:00", "-"]}, {"name": "\uc2e0\uba85\uc57d\uad6d", "lat": "37.255226205502765", "lng": "127.11844113529166", "url": "/info/%EC%8B%A0%EB%AA%85%EC%95%BD%EA%B5%AD-%EA%B2%BD%EA%B8%B0%EB%8F%84-%EC%9A%A9%EC%9D%B8%EC%8B%9C-%EB%B3%B4%EB%9D%BC%EB%8F%99/", "workingTime": ["-", "09:00~20:00", "09:00~20:00", "09:00~20:00", "09:00~20:00", "09:00~20:00", "09:00~17:00", "-"]}, {"name": "\ubcf4\ub77c\uc628\ub204\ub9ac\uc57d\uad6d", "lat": "37.254236564097695", "lng": "127.1092641743769", "url": "/info/%EB%B3%B4%EB%9D%BC%EC%98%A8%EB%88%84%EB%A6%AC%EC%95%BD%EA%B5%AD-%EA%B2%BD%EA%B8%B0%EB%8F%84-%EC%9A%A9%EC%9D%B8%EC%8B%9C-%EB%B3%B4%EB%9D%BC%EB%8F%99/", "workingTime": ["-", "09:00~19:00", "09:00~19:00", "09:00~19:00", "09:00~19:00", "09:00~19:00", "09:00~15:00", "-"]}, {"name": "\ubcf4\ub77c\uc2dc\ubbfc\uc57d\uad6d", "lat": "37.254019632626246", "lng": "127.11990347295854", "url": "/info/%EB%B3%B4%EB%9D%BC%EC%8B%9C%EB%AF%BC%EC%95%BD%EA%B5%AD-%EA%B2%BD%EA%B8%B0%EB%8F%84-%EC%9A%A9%EC%9D%B8%EC%8B%9C-%EB%B3%B4%EB%9D%BC%EB%8F%99/", "workingTime": ["-", "09:00~20:00", "09:00~20:00", "09:00~20:00", "09:00~20:00", "09:00~20:00", "09:00~15:00", "09:00~15:00"]}, {"name": "\uae30\uc068\uc628\ub204\ub9ac\uc57d\uad6d", "lat": "37.25060846952945", "lng": "127.10784781746881", "url": "/info/%EA%B8%B0%EC%81%A8%EC%98%A8%EB%88%84%EB%A6%AC%EC%95%BD%EA%B5%AD-%EA%B2%BD%EA%B8%B0%EB%8F%84-%EC%9A%A9%EC%9D%B8%EC%8B%9C-%EB%B3%B4%EB%9D%BC%EB%8F%99/", "workingTime": ["-", "08:30~21:00", "08:30~21:00", "08:30~21:00", "08:30~21:00", "08:30~21:00", "08:30~21:00", "10:00~22:00"]}]