[{"name": "\ub77c\ud30c\uc57d\uad6d", "lat": "37.79600578289419", "lng": "127.08041309093583", "url": "/info/%EB%9D%BC%ED%8C%8C%EC%95%BD%EA%B5%AD-%EA%B2%BD%EA%B8%B0%EB%8F%84-%EC%96%91%EC%A3%BC%EC%8B%9C-%EA%B4%91%EC%82%AC%EB%8F%99/", "workingTime": ["-", "09:00~22:00", "09:00~22:00", "09:00~22:00", "09:00~22:00", "09:00~22:00", "09:00~15:00", "-"]}, {"name": "\uadfc\uc57d\uad6d", "lat": "37.79560954443629", "lng": "127.08023961725058", "url": "/info/%EA%B7%BC%EC%95%BD%EA%B5%AD-%EA%B2%BD%EA%B8%B0%EB%8F%84-%EC%96%91%EC%A3%BC%EC%8B%9C-%EA%B4%91%EC%82%AC%EB%8F%99/", "workingTime": ["-", "09:00~19:30", "09:00~19:30", "09:00~19:30", "09:00~19:30", "09:00~19:30", "09:00~15:00", "-"]}, {"name": "\uace0\uc74d\ud0dc\uc591\uc57d\uad6d", "lat": "37.79569687213043", "lng": "127.07890496039704", "url": "/info/%EA%B3%A0%EC%9D%8D%ED%83%9C%EC%96%91%EC%95%BD%EA%B5%AD-%EA%B2%BD%EA%B8%B0%EB%8F%84-%EC%96%91%EC%A3%BC%EC%8B%9C-%EA%B4%91%EC%82%AC%EB%8F%99/", "workingTime": ["09:00~13:00(\uc5f0\ub77d\ud6c4\ubc29\ubb38\uc694\ub9dd)", "09:00~13:00", "08:00~20:00", "08:00~20:00", "08:00~20:00", "08:00~20:00", "08:00~16:00", "-"]}, {"name": "\uc0c8\ubd04\uc57d\uad6d", "lat": "37.7954006531", "lng": "127.0799491984", "url": "/info/%EC%83%88%EB%B4%84%EC%95%BD%EA%B5%AD-%EA%B2%BD%EA%B8%B0%EB%8F%84-%EC%96%91%EC%A3%BC%EC%8B%9C-%EA%B4%91%EC%82%AC%EB%8F%99/", "workingTime": ["1,2,3,4,5\uc9f8\uc8fc08:30~12:30", "08:30~19:30", "08:30~19:30", "13:30~19:30", "08:30~19:30", "08:30~19:30", "08:30~14:30", "08:30~12:30"]}, {"name": "\uc591\uc8fc\uc218\uc57d\uad6d", "lat": "37.79562697527826", "lng": "127.08100308171188", "url": "/info/%EC%96%91%EC%A3%BC%EC%88%98%EC%95%BD%EA%B5%AD-%EA%B2%BD%EA%B8%B0%EB%8F%84-%EC%96%91%EC%A3%BC%EC%8B%9C-%EA%B4%91%EC%82%AC%EB%8F%99/", "workingTime": ["1,2,3,4,5\uc9f8\uc8fc09:00~21:00", "08:00~21:00", "08:00~21:00", "08:00~21:00", "08:00~21:00", "08:00~21:00", "08:00~21:00", "09:00~21:00"]}, {"name": "\ucd08\ub85d\uc628\ub204\ub9ac\uc57d\uad6d", "lat": "37.7964279359575", "lng": "127.07974999698406", "url": "/info/%EC%B4%88%EB%A1%9D%EC%98%A8%EB%88%84%EB%A6%AC%EC%95%BD%EA%B5%AD-%EA%B2%BD%EA%B8%B0%EB%8F%84-%EC%96%91%EC%A3%BC%EC%8B%9C-%EA%B4%91%EC%82%AC%EB%8F%99/", "workingTime": ["08:30~20:00(\uc5f0\ub77d\ud6c4\ubc29\ubb38\uc694\ub9dd)", "08:30~20:00", "08:30~20:00", "08:30~20:00", "08:30~20:00", "08:30~20:00", "08:30~20:00", "-"]}, {"name": "\uc2a4\ub9c8\uc77c\uc57d\uad6d", "lat": "37.794968542418", "lng": "127.07943100078434", "url": "/info/%EC%8A%A4%EB%A7%88%EC%9D%BC%EC%95%BD%EA%B5%AD-%EA%B2%BD%EA%B8%B0%EB%8F%84-%EC%96%91%EC%A3%BC%EC%8B%9C-%EA%B4%91%EC%82%AC%EB%8F%99/", "workingTime": ["1,2,3,4,5\uc9f8\uc8fc09:00~18:00", "08:00~20:00", "08:00~20:00", "08:00~20:00", "08:00~20:00", "08:00~20:00", "08:00~20:00", "09:00~18:00"]}]