[{"name": "\ubaa8\uc0b0\uace8\uc57d\uad6d", "lat": "37.0168928217201", "lng": "127.093826986464", "url": "/info/%EB%AA%A8%EC%82%B0%EA%B3%A8%EC%95%BD%EA%B5%AD-%EA%B2%BD%EA%B8%B0%EB%8F%84-%ED%8F%89%ED%83%9D%EC%8B%9C-%EC%A7%80%EC%A0%9C%EB%8F%99/", "workingTime": ["-", "09:00~18:00", "09:00~18:00", "09:00~18:00", "09:00~18:00", "09:00~18:00", "09:00~13:00", "-"]}, {"name": "\ubcc4\ube5b\uc57d\uad6d", "lat": "37.0209548248916", "lng": "127.07272761315", "url": "/info/%EB%B3%84%EB%B9%9B%EC%95%BD%EA%B5%AD-%EA%B2%BD%EA%B8%B0%EB%8F%84-%ED%8F%89%ED%83%9D%EC%8B%9C-%EC%A7%80%EC%A0%9C%EB%8F%99/", "workingTime": ["-", "09:00~18:00", "09:00~18:00", "09:00~18:00", "09:00~18:00", "09:00~18:00", "09:00~13:00", "-"]}, {"name": "\ub298\ud478\ub978\uc628\ub204\ub9ac\uc57d\uad6d", "lat": "37.0172167069211", "lng": "127.094121344903", "url": "/info/%EB%8A%98%ED%91%B8%EB%A5%B8%EC%98%A8%EB%88%84%EB%A6%AC%EC%95%BD%EA%B5%AD-%EA%B2%BD%EA%B8%B0%EB%8F%84-%ED%8F%89%ED%83%9D%EC%8B%9C-%EC%A7%80%EC%A0%9C%EB%8F%99/", "workingTime": ["-", "-", "-", "-", "-", "-", "-", "-"]}, {"name": "\uc0bc\uc131\uc911\uc559\uc57d\uad6d", "lat": "37.0213550576", "lng": "127.0567544999", "url": "/info/%EC%82%BC%EC%84%B1%EC%A4%91%EC%95%99%EC%95%BD%EA%B5%AD-%EA%B2%BD%EA%B8%B0%EB%8F%84-%ED%8F%89%ED%83%9D%EC%8B%9C-%EC%A7%80%EC%A0%9C%EB%8F%99/", "workingTime": ["-", "09:00~20:00", "09:00~20:00", "09:00~20:00", "09:00~20:00", "09:00~20:00", "-", "-"]}, {"name": "\ub9c8\ud2b8\uc885\ub85c\uc57d\uad6d", "lat": "37.02111280167999", "lng": "127.07562611735219", "url": "/info/%EB%A7%88%ED%8A%B8%EC%A2%85%EB%A1%9C%EC%95%BD%EA%B5%AD-%EA%B2%BD%EA%B8%B0%EB%8F%84-%ED%8F%89%ED%83%9D%EC%8B%9C-%EC%A7%80%EC%A0%9C%EB%8F%99/", "workingTime": ["-", "10:00~23:00", "10:00~23:00", "10:00~23:00", "10:00~23:00", "10:00~23:00", "10:30~23:30", "-"]}]