[{"name": "\uad11\ud0c4\ub3d9\ud654\uc57d\uad6d", "lat": "37.7364913874176", "lng": "126.880249920738", "url": "/info/%EA%B4%91%ED%83%84%EB%8F%99%ED%99%94%EC%95%BD%EA%B5%AD-%EA%B2%BD%EA%B8%B0%EB%8F%84-%ED%8C%8C%EC%A3%BC%EC%8B%9C-%EA%B4%91%ED%83%84%EB%A9%B4/", "workingTime": ["2,4,5\uc9f8\uc8fc09:00~20:00", "08:00~21:00", "08:00~21:00", "08:00~21:00", "08:00~21:00", "08:00~21:00", "09:00~20:00", "09:00~20:00"]}, {"name": "\ubcf4\uad11\uc57d\uad6d", "lat": "37.8066137704069", "lng": "126.863196227404", "url": "/info/%EB%B3%B4%EA%B4%91%EC%95%BD%EA%B5%AD-%EA%B2%BD%EA%B8%B0%EB%8F%84-%ED%8C%8C%EC%A3%BC%EC%8B%9C-%EA%B4%91%ED%83%84%EB%A9%B4/", "workingTime": ["-", "10:00~18:00", "10:00~18:00", "10:00~18:00", "10:00~18:00", "10:00~18:00", "-", "-"]}, {"name": "\uc911\uc559\ub2f9\uc57d\uad6d", "lat": "37.78128185442077", "lng": "126.84792613984902", "url": "/info/%EC%A4%91%EC%95%99%EB%8B%B9%EC%95%BD%EA%B5%AD-%EA%B2%BD%EA%B8%B0%EB%8F%84-%ED%8C%8C%EC%A3%BC%EC%8B%9C-%EA%B4%91%ED%83%84%EB%A9%B4/", "workingTime": ["-", "09:00~20:00", "09:00~20:00", "09:00~20:00", "09:00~20:00", "09:00~20:00", "09:00~13:00", "-"]}, {"name": "\uad11\ud0c4\uae40\uc57d\uad6d", "lat": "37.7824673114886", "lng": "126.846450560025", "url": "/info/%EA%B4%91%ED%83%84%EA%B9%80%EC%95%BD%EA%B5%AD-%EA%B2%BD%EA%B8%B0%EB%8F%84-%ED%8C%8C%EC%A3%BC%EC%8B%9C-%EA%B4%91%ED%83%84%EB%A9%B4/", "workingTime": ["-", "09:00~19:00", "09:00~19:00", "09:00~19:00", "09:00~19:00", "09:00~19:00", "09:00~15:00", "-"]}, {"name": "\uad11\ud0c4\ud558\ub098\ub85c\uc57d\uad6d", "lat": "37.78336093890265", "lng": "126.84490904110171", "url": "/info/%EA%B4%91%ED%83%84%ED%95%98%EB%82%98%EB%A1%9C%EC%95%BD%EA%B5%AD-%EA%B2%BD%EA%B8%B0%EB%8F%84-%ED%8C%8C%EC%A3%BC%EC%8B%9C-%EA%B4%91%ED%83%84%EB%A9%B4/", "workingTime": ["-", "09:00~19:00", "09:00~19:00", "09:00~19:00", "09:00~19:00", "09:00~19:00", "09:00~14:00", "-"]}, {"name": "\ub098\uc744\uc57d\uad6d", "lat": "37.779449751435735", "lng": "126.84968481826014", "url": "/info/%EB%82%98%EC%9D%84%EC%95%BD%EA%B5%AD-%EA%B2%BD%EA%B8%B0%EB%8F%84-%ED%8C%8C%EC%A3%BC%EC%8B%9C-%EA%B4%91%ED%83%84%EB%A9%B4/", "workingTime": ["-", "09:00~19:00", "09:00~19:00", "09:00~19:00", "09:00~19:00", "09:00~19:00", "09:00~15:00", "-"]}, {"name": "\uad11\ud0c4\uc870\uc740\uc57d\uad6d", "lat": "37.781660803677965", "lng": "126.84765065162213", "url": "/info/%EA%B4%91%ED%83%84%EC%A1%B0%EC%9D%80%EC%95%BD%EA%B5%AD-%EA%B2%BD%EA%B8%B0%EB%8F%84-%ED%8C%8C%EC%A3%BC%EC%8B%9C-%EA%B4%91%ED%83%84%EB%A9%B4/", "workingTime": ["-", "09:00~20:00", "09:00~20:00", "09:00~20:00", "09:00~20:00", "09:00~20:00", "09:00~14:00", "-"]}, {"name": "\ub098\ub77c\uc57d\uad6d", "lat": "37.78215498908841", "lng": "126.84536285381489", "url": "/info/%EB%82%98%EB%9D%BC%EC%95%BD%EA%B5%AD-%EA%B2%BD%EA%B8%B0%EB%8F%84-%ED%8C%8C%EC%A3%BC%EC%8B%9C-%EA%B4%91%ED%83%84%EB%A9%B4/", "workingTime": ["-", "00:00~00:00", "00:00~00:00", "00:00~00:00", "00:00~00:00", "00:00~00:00", "09:00~14:00", "-"]}]