[{"name": "\ud558\ub298\uc57d\uad6d", "lat": "37.3028525125249", "lng": "126.90179917897163", "url": "/info/%ED%95%98%EB%8A%98%EC%95%BD%EA%B5%AD-%EA%B2%BD%EA%B8%B0%EB%8F%84-%EC%95%88%EC%82%B0%EC%8B%9C-%EA%B1%B4%EA%B1%B4%EB%8F%99/", "workingTime": ["-", "08:30~20:00", "08:30~20:00", "08:30~20:00", "08:30~20:00", "08:30~20:00", "08:30~16:00", "-"]}, {"name": "\ubc18\uc6d4\ud654\uc131\uc57d\uad6d", "lat": "37.3044765558273", "lng": "126.90221928989986", "url": "/info/%EB%B0%98%EC%9B%94%ED%99%94%EC%84%B1%EC%95%BD%EA%B5%AD-%EA%B2%BD%EA%B8%B0%EB%8F%84-%EC%95%88%EC%82%B0%EC%8B%9C-%EA%B1%B4%EA%B1%B4%EB%8F%99/", "workingTime": ["1,2,3,4,5\uc9f8\uc8fc09:00~13:00", "08:00~21:00", "08:00~21:00", "08:00~21:00", "08:00~21:00", "08:00~21:00", "08:00~20:00", "09:00~13:00"]}, {"name": "\ubd04\uc628\ub204\ub9ac\uc57d\uad6d", "lat": "37.31165114757442", "lng": "126.90509332170326", "url": "/info/%EB%B4%84%EC%98%A8%EB%88%84%EB%A6%AC%EC%95%BD%EA%B5%AD-%EA%B2%BD%EA%B8%B0%EB%8F%84-%EC%95%88%EC%82%B0%EC%8B%9C-%EA%B1%B4%EA%B1%B4%EB%8F%99/", "workingTime": ["-", "09:00~19:00", "09:00~19:00", "09:00~19:00", "09:00~19:00", "09:00~19:00", "09:00~14:00", "-"]}, {"name": "\uc194\uc57d\uad6d", "lat": "37.31130654850143", "lng": "126.9046803473244", "url": "/info/%EC%86%94%EC%95%BD%EA%B5%AD-%EA%B2%BD%EA%B8%B0%EB%8F%84-%EC%95%88%EC%82%B0%EC%8B%9C-%EA%B1%B4%EA%B1%B4%EB%8F%99/", "workingTime": ["-", "09:00~21:00", "09:00~21:00", "09:00~21:00", "09:00~21:00", "09:00~21:00", "09:00~18:00", "-"]}, {"name": "\ub179\uc2ed\uc790\uc57d\uad6d", "lat": "37.30379314740185", "lng": "126.9017528194669", "url": "/info/%EB%85%B9%EC%8B%AD%EC%9E%90%EC%95%BD%EA%B5%AD-%EA%B2%BD%EA%B8%B0%EB%8F%84-%EC%95%88%EC%82%B0%EC%8B%9C-%EA%B1%B4%EA%B1%B4%EB%8F%99/", "workingTime": ["-", "09:00~21:00", "09:00~21:00", "09:00~21:00", "09:00~21:00", "09:00~21:00", "09:00~21:00", "-"]}]