[{"name": "\uc7a5\uc6b0\uc57d\uad6d", "lat": "37.082150943351806", "lng": "126.81704053540352", "url": "/info/%EC%9E%A5%EC%9A%B0%EC%95%BD%EA%B5%AD-%EA%B2%BD%EA%B8%B0%EB%8F%84-%ED%99%94%EC%84%B1%EC%8B%9C-%EC%9A%B0%EC%A0%95%EC%9D%8D/", "workingTime": ["1,2,3,4,5\uc9f8\uc8fc07:30~22:00", "07:30~22:00", "07:30~22:00", "07:30~22:00", "07:30~22:00", "07:30~22:00", "07:30~22:00", "07:30~22:00"]}, {"name": "\uae30\uc0b0\uc57d\uad6d", "lat": "37.081616666666669", "lng": "126.815650000000005", "url": "/info/%EA%B8%B0%EC%82%B0%EC%95%BD%EA%B5%AD-%EA%B2%BD%EA%B8%B0%EB%8F%84-%ED%99%94%EC%84%B1%EC%8B%9C-%EC%9A%B0%EC%A0%95%EC%9D%8D/", "workingTime": ["1,2,3,4,5\uc9f8\uc8fc12:00~19:00", "08:00~20:00", "08:00~20:00", "08:00~20:00", "08:00~20:00", "08:00~20:00", "08:00~19:30", "12:00~19:00"]}, {"name": "\ud55c\uc194\uc57d\uad6d", "lat": "37.08410230792892", "lng": "126.8187432213326", "url": "/info/%ED%95%9C%EC%86%94%EC%95%BD%EA%B5%AD-%EA%B2%BD%EA%B8%B0%EB%8F%84-%ED%99%94%EC%84%B1%EC%8B%9C-%EC%9A%B0%EC%A0%95%EC%9D%8D/", "workingTime": ["-", "09:00~21:00", "09:00~21:00", "09:00~21:00", "09:00~21:00", "09:00~21:00", "-", "09:00~17:00"]}, {"name": "\uae30\uc544\uc885\ud569\uc57d\uad6d", "lat": "37.0633053692544", "lng": "126.793452007531", "url": "/info/%EA%B8%B0%EC%95%84%EC%A2%85%ED%95%A9%EC%95%BD%EA%B5%AD-%EA%B2%BD%EA%B8%B0%EB%8F%84-%ED%99%94%EC%84%B1%EC%8B%9C-%EC%9A%B0%EC%A0%95%EC%9D%8D/", "workingTime": ["-", "09:00~18:00", "09:00~18:00", "09:00~18:00", "09:00~18:00", "09:00~18:00", "-", "-"]}, {"name": "\uc6b0\uc815\ud31c\uc57d\uad6d", "lat": "37.08305030841427", "lng": "126.81902916154525", "url": "/info/%EC%9A%B0%EC%A0%95%ED%8C%9C%EC%95%BD%EA%B5%AD-%EA%B2%BD%EA%B8%B0%EB%8F%84-%ED%99%94%EC%84%B1%EC%8B%9C-%EC%9A%B0%EC%A0%95%EC%9D%8D/", "workingTime": ["-", "09:00~18:30", "09:00~18:30", "09:00~18:30", "09:00~18:30", "09:00~18:30", "09:00~13:00", "-"]}, {"name": "\ub098\uc774\uc2a4\uc624\uc11c\uc57d\uad6d", "lat": "37.06431579893791", "lng": "126.79507965571374", "url": "/info/%EB%82%98%EC%9D%B4%EC%8A%A4%EC%98%A4%EC%84%9C%EC%95%BD%EA%B5%AD-%EA%B2%BD%EA%B8%B0%EB%8F%84-%ED%99%94%EC%84%B1%EC%8B%9C-%EC%9A%B0%EC%A0%95%EC%9D%8D/", "workingTime": ["1,2,3,4,5\uc9f8\uc8fc08:30~01:00", "08:30~01:00", "08:30~01:00", "08:30~01:00", "08:30~01:00", "08:30~01:00", "08:30~01:00", "08:30~01:00"]}, {"name": "\ub300\uc131\uc57d\uad6d", "lat": "37.08234101993553", "lng": "126.81718193388386", "url": "/info/%EB%8C%80%EC%84%B1%EC%95%BD%EA%B5%AD-%EA%B2%BD%EA%B8%B0%EB%8F%84-%ED%99%94%EC%84%B1%EC%8B%9C-%EC%9A%B0%EC%A0%95%EC%9D%8D/", "workingTime": ["-", "09:00~18:30", "09:00~18:30", "09:00~18:30", "09:00~18:30", "09:00~18:30", "09:00~13:30", "-"]}, {"name": "\uc6b0\uc9c4\uc57d\uad6d", "lat": "37.08437355267715", "lng": "126.81934539966691", "url": "/info/%EC%9A%B0%EC%A7%84%EC%95%BD%EA%B5%AD-%EA%B2%BD%EA%B8%B0%EB%8F%84-%ED%99%94%EC%84%B1%EC%8B%9C-%EC%9A%B0%EC%A0%95%EC%9D%8D/", "workingTime": ["09:30~18:00(\uc5f0\ub77d\ud6c4\ubc29\ubb38\uc694\ub9dd)", "08:30~21:30", "08:30~21:30", "08:30~21:30", "08:30~21:30", "08:30~21:30", "09:00~21:30", "-"]}, {"name": "\uc870\uc554\uc57d\uad6d", "lat": "37.081870174571165", "lng": "126.815712038302", "url": "/info/%EC%A1%B0%EC%95%94%EC%95%BD%EA%B5%AD-%EA%B2%BD%EA%B8%B0%EB%8F%84-%ED%99%94%EC%84%B1%EC%8B%9C-%EC%9A%B0%EC%A0%95%EC%9D%8D/", "workingTime": ["09:00~19:00(\uc5f0\ub77d\ud6c4\ubc29\ubb38\uc694\ub9dd)", "09:00~20:00", "09:00~20:00", "09:00~20:00", "09:00~20:00", "09:00~20:00", "09:00~19:00", "-"]}]