[{"name": "\ud589\ubcf5\ud55c\uc57d\uad6d", "lat": "37.81683758086035", "lng": "126.98817042048773", "url": "/info/%ED%96%89%EB%B3%B5%ED%95%9C%EC%95%BD%EA%B5%AD-%EA%B2%BD%EA%B8%B0%EB%8F%84-%EC%96%91%EC%A3%BC%EC%8B%9C-%EA%B4%91%EC%A0%81%EB%A9%B4/", "workingTime": ["-", "09:00~18:30", "09:00~18:30", "09:00~18:30", "09:00~18:30", "09:00~18:30", "09:00~13:30", "09:00~13:30"]}, {"name": "\uac00\ub798\ube44\ud0dc\ud3c9\uc591\uc57d\uad6d", "lat": "37.82591982110685", "lng": "126.97781885156607", "url": "/info/%EA%B0%80%EB%9E%98%EB%B9%84%ED%83%9C%ED%8F%89%EC%96%91%EC%95%BD%EA%B5%AD-%EA%B2%BD%EA%B8%B0%EB%8F%84-%EC%96%91%EC%A3%BC%EC%8B%9C-%EA%B4%91%EC%A0%81%EB%A9%B4/", "workingTime": ["-", "09:00~19:00", "09:00~19:00", "09:00~19:00", "09:00~19:00", "09:00~19:00", "09:00~13:30", "-"]}, {"name": "\uc544\uce68\ud5a5\uae30\uc57d\uad6d", "lat": "37.82674607666929", "lng": "126.98337064491608", "url": "/info/%EC%95%84%EC%B9%A8%ED%96%A5%EA%B8%B0%EC%95%BD%EA%B5%AD-%EA%B2%BD%EA%B8%B0%EB%8F%84-%EC%96%91%EC%A3%BC%EC%8B%9C-%EA%B4%91%EC%A0%81%EB%A9%B4/", "workingTime": ["-", "09:00~18:30", "09:00~18:30", "09:00~18:30", "09:00~18:30", "09:00~18:30", "-", "-"]}, {"name": "\uc6b0\ub9ac\ub4e4\uc57d\uad6d", "lat": "37.824426630902806", "lng": "126.98471829924776", "url": "/info/%EC%9A%B0%EB%A6%AC%EB%93%A4%EC%95%BD%EA%B5%AD-%EA%B2%BD%EA%B8%B0%EB%8F%84-%EC%96%91%EC%A3%BC%EC%8B%9C-%EA%B4%91%EC%A0%81%EB%A9%B4/", "workingTime": ["-", "08:45~19:00", "08:45~19:00", "08:45~19:00", "08:45~19:00", "08:45~19:00", "08:45~14:00", "-"]}, {"name": "\uac00\ub798\ube44\uc57d\uad6d", "lat": "37.82397488016216", "lng": "126.98418002211784", "url": "/info/%EA%B0%80%EB%9E%98%EB%B9%84%EC%95%BD%EA%B5%AD-%EA%B2%BD%EA%B8%B0%EB%8F%84-%EC%96%91%EC%A3%BC%EC%8B%9C-%EA%B4%91%EC%A0%81%EB%A9%B4/", "workingTime": ["1,2,3,4,5\uc9f8\uc8fc09:00~18:00", "09:00~22:00", "09:00~22:00", "09:00~22:00", "09:00~22:00", "09:00~22:00", "09:00~18:00", "-"]}, {"name": "\uad11\uc801\uc57d\uad6d", "lat": "37.82457095938437", "lng": "126.98433918595401", "url": "/info/%EA%B4%91%EC%A0%81%EC%95%BD%EA%B5%AD-%EA%B2%BD%EA%B8%B0%EB%8F%84-%EC%96%91%EC%A3%BC%EC%8B%9C-%EA%B4%91%EC%A0%81%EB%A9%B4/", "workingTime": ["-", "09:00~19:00", "09:00~19:00", "09:00~19:00", "09:00~19:00", "09:00~19:00", "09:00~13:00", "-"]}]