[{"name": "\uc628\uc815\uc57d\uad6d", "lat": "37.4406350919036", "lng": "126.894167397639", "url": "/info/%EC%98%A8%EC%A0%95%EC%95%BD%EA%B5%AD-%EA%B2%BD%EA%B8%B0%EB%8F%84-%EA%B4%91%EB%AA%85%EC%8B%9C-%EC%86%8C%ED%95%98%EB%8F%99/", "workingTime": ["-", "09:00~18:00", "09:00~18:00", "09:00~18:00", "09:00~18:00", "09:00~18:00", "09:00~13:00", "-"]}, {"name": "\uc18c\ud558\ud0dc\ud3c9\uc591\uc57d\uad6d", "lat": "37.435967158457935", "lng": "126.88458876209545", "url": "/info/%EC%86%8C%ED%95%98%ED%83%9C%ED%8F%89%EC%96%91%EC%95%BD%EA%B5%AD-%EA%B2%BD%EA%B8%B0%EB%8F%84-%EA%B4%91%EB%AA%85%EC%8B%9C-%EC%86%8C%ED%95%98%EB%8F%99/", "workingTime": ["-", "08:30~20:00", "08:30~20:00", "08:30~20:00", "08:30~20:00", "08:30~20:00", "-", "-"]}, {"name": "\uac74\uac15\uc57d\uad6d", "lat": "37.4350361974943", "lng": "126.879677536657", "url": "/info/%EA%B1%B4%EA%B0%95%EC%95%BD%EA%B5%AD-%EA%B2%BD%EA%B8%B0%EB%8F%84-%EA%B4%91%EB%AA%85%EC%8B%9C-%EC%86%8C%ED%95%98%EB%8F%99/", "workingTime": ["-", "09:00~18:00", "09:00~18:00", "09:00~18:00", "09:00~18:00", "09:00~18:00", "09:00~13:00", "-"]}, {"name": "\uc18c\ud558\uc911\uc559\uc57d\uad6d", "lat": "37.4458355945491", "lng": "126.894198382378", "url": "/info/%EC%86%8C%ED%95%98%EC%A4%91%EC%95%99%EC%95%BD%EA%B5%AD-%EA%B2%BD%EA%B8%B0%EB%8F%84-%EA%B4%91%EB%AA%85%EC%8B%9C-%EC%86%8C%ED%95%98%EB%8F%99/", "workingTime": ["-", "09:00~18:00", "09:00~18:00", "09:00~18:00", "09:00~18:00", "09:00~18:00", "09:00~13:00", "-"]}, {"name": "\ud76c\ub9dd\uc57d\uad6d", "lat": "37.436059582886564", "lng": "126.8796982913727", "url": "/info/%ED%9D%AC%EB%A7%9D%EC%95%BD%EA%B5%AD-%EA%B2%BD%EA%B8%B0%EB%8F%84-%EA%B4%91%EB%AA%85%EC%8B%9C-%EC%86%8C%ED%95%98%EB%8F%99/", "workingTime": ["1,2,3,4,5\uc9f8\uc8fc09:00~17:00", "09:00~19:30", "09:00~19:30", "09:00~19:30", "09:00~19:30", "09:00~19:30", "09:00~15:00", "-"]}, {"name": "\ub4dc\ub9bc\uc57d\uad6d", "lat": "37.43328093338423", "lng": "126.87977051170627", "url": "/info/%EB%93%9C%EB%A6%BC%EC%95%BD%EA%B5%AD-%EA%B2%BD%EA%B8%B0%EB%8F%84-%EA%B4%91%EB%AA%85%EC%8B%9C-%EC%86%8C%ED%95%98%EB%8F%99/", "workingTime": ["-", "09:00~21:00", "09:00~21:00", "09:00~21:00", "09:00~21:00", "09:00~21:00", "-", "-"]}, {"name": "\uc0c8\ubbf8\uc18c\uc57d\uad6d", "lat": "37.45339950932877", "lng": "126.88784406485863", "url": "/info/%EC%83%88%EB%AF%B8%EC%86%8C%EC%95%BD%EA%B5%AD-%EA%B2%BD%EA%B8%B0%EB%8F%84-%EA%B4%91%EB%AA%85%EC%8B%9C-%EC%86%8C%ED%95%98%EB%8F%99/", "workingTime": ["-", "09:00~19:00", "09:00~19:00", "09:00~18:00", "09:00~19:00", "09:00~19:00", "09:00~16:00", "-"]}, {"name": "\uc778\uc81c\uc57d\uad6d", "lat": "37.4512322065", "lng": "126.8903336552", "url": "/info/%EC%9D%B8%EC%A0%9C%EC%95%BD%EA%B5%AD-%EA%B2%BD%EA%B8%B0%EB%8F%84-%EA%B4%91%EB%AA%85%EC%8B%9C-%EC%86%8C%ED%95%98%EB%8F%99/", "workingTime": ["-", "09:30~21:30", "09:30~21:30", "09:30~21:30", "09:30~21:30", "09:30~21:30", "-", "-"]}, {"name": "\ud31c\uba54\uc774\ud2b8\uad11\uba85\uadf8\ub79c\ub4dc\uc57d\uad6d", "lat": "37.4357892648988", "lng": "126.87968516489786", "url": "/info/%ED%8C%9C%EB%A9%94%EC%9D%B4%ED%8A%B8%EA%B4%91%EB%AA%85%EA%B7%B8%EB%9E%9C%EB%93%9C%EC%95%BD%EA%B5%AD-%EA%B2%BD%EA%B8%B0%EB%8F%84-%EA%B4%91%EB%AA%85%EC%8B%9C-%EC%86%8C%ED%95%98%EB%8F%99/", "workingTime": ["-", "09:00~20:00", "09:00~20:00", "09:00~20:00", "09:00~20:00", "09:00~20:00", "09:00~15:00", "-"]}, {"name": "\ud070\uc0ac\ub791\uc57d\uad6d", "lat": "37.448346881308865", "lng": "126.89147610987808", "url": "/info/%ED%81%B0%EC%82%AC%EB%9E%91%EC%95%BD%EA%B5%AD-%EA%B2%BD%EA%B8%B0%EB%8F%84-%EA%B4%91%EB%AA%85%EC%8B%9C-%EC%86%8C%ED%95%98%EB%8F%99/", "workingTime": ["-", "09:00~21:00", "09:00~21:00", "09:00~21:00", "09:00~21:00", "09:00~21:00", "09:00~19:00", "-"]}, {"name": "\ub9c8\uc74c\ub4dc\ub9bc\uc57d\uad6d", "lat": "37.44827045927595", "lng": "126.88324903990056", "url": "/info/%EB%A7%88%EC%9D%8C%EB%93%9C%EB%A6%BC%EC%95%BD%EA%B5%AD-%EA%B2%BD%EA%B8%B0%EB%8F%84-%EA%B4%91%EB%AA%85%EC%8B%9C-%EC%86%8C%ED%95%98%EB%8F%99/", "workingTime": ["1,2,3,4,5\uc9f8\uc8fc09:30~13:00", "09:30~20:30", "09:30~19:00", "09:30~20:30", "09:30~19:00", "09:30~20:30", "09:30~15:00", "09:30~13:00"]}, {"name": "\ud55c\ube5b\uc628\ub204\ub9ac\uc57d\uad6d", "lat": "37.44770706762931", "lng": "126.88336379486598", "url": "/info/%ED%95%9C%EB%B9%9B%EC%98%A8%EB%88%84%EB%A6%AC%EC%95%BD%EA%B5%AD-%EA%B2%BD%EA%B8%B0%EB%8F%84-%EA%B4%91%EB%AA%85%EC%8B%9C-%EC%86%8C%ED%95%98%EB%8F%99/", "workingTime": ["-", "09:00~19:00", "09:00~19:00", "09:00~19:00", "09:00~19:00", "09:00~19:00", "09:00~16:00", "-"]}, {"name": "\uc18c\ud558\uc81c\uc77c\uc57d\uad6d", "lat": "37.44726826571197", "lng": "126.88335543528417", "url": "/info/%EC%86%8C%ED%95%98%EC%A0%9C%EC%9D%BC%EC%95%BD%EA%B5%AD-%EA%B2%BD%EA%B8%B0%EB%8F%84-%EA%B4%91%EB%AA%85%EC%8B%9C-%EC%86%8C%ED%95%98%EB%8F%99/", "workingTime": ["-", "09:00~21:00", "09:00~21:00", "09:00~21:00", "09:00~21:00", "09:00~21:00", "09:00~18:00", "-"]}, {"name": "\uc18c\ud558\ubc31\ud654\uc810\uc57d\uad6d", "lat": "37.45518978114777", "lng": "126.8864931552549", "url": "/info/%EC%86%8C%ED%95%98%EB%B0%B1%ED%99%94%EC%A0%90%EC%95%BD%EA%B5%AD-%EA%B2%BD%EA%B8%B0%EB%8F%84-%EA%B4%91%EB%AA%85%EC%8B%9C-%EC%86%8C%ED%95%98%EB%8F%99/", "workingTime": ["-", "08:30~20:30", "08:30~20:30", "08:30~20:30", "08:30~20:30", "08:30~20:30", "08:30~16:00", "-"]}, {"name": "\ud558\ub298\ub2e4\ub798\uc628\ub204\ub9ac\uc57d\uad6d", "lat": "37.44818633016363", "lng": "126.88201961690541", "url": "/info/%ED%95%98%EB%8A%98%EB%8B%A4%EB%9E%98%EC%98%A8%EB%88%84%EB%A6%AC%EC%95%BD%EA%B5%AD-%EA%B2%BD%EA%B8%B0%EB%8F%84-%EA%B4%91%EB%AA%85%EC%8B%9C-%EC%86%8C%ED%95%98%EB%8F%99/", "workingTime": ["-", "09:00~18:30", "09:00~18:30", "09:00~18:30", "09:00~18:30", "09:00~18:30", "08:30~13:30", "-"]}, {"name": "\uc544\uc774\ubcc4\uc57d\uad6d", "lat": "37.44791498530476", "lng": "126.88497272990682", "url": "/info/%EC%95%84%EC%9D%B4%EB%B3%84%EC%95%BD%EA%B5%AD-%EA%B2%BD%EA%B8%B0%EB%8F%84-%EA%B4%91%EB%AA%85%EC%8B%9C-%EC%86%8C%ED%95%98%EB%8F%99/", "workingTime": ["-", "09:00~22:00", "09:00~22:00", "09:00~22:00", "09:00~22:00", "09:00~22:00", "09:00~22:00", "09:00~17:00"]}, {"name": "M\ud504\ub77c\uc790\uc57d\uad6d", "lat": "37.4484546827", "lng": "126.8840406853", "url": "/info/M%ED%94%84%EB%9D%BC%EC%9E%90%EC%95%BD%EA%B5%AD-%EA%B2%BD%EA%B8%B0%EB%8F%84-%EA%B4%91%EB%AA%85%EC%8B%9C-%EC%86%8C%ED%95%98%EB%8F%99/", "workingTime": ["-", "09:00~15:00", "09:00~15:00", "09:00~15:00", "09:00~15:00", "09:00~15:00", "-", "09:00~16:00"]}, {"name": "\uc778\uc815\uc628\ub204\ub9ac\uc57d\uad6d", "lat": "37.447626518092775", "lng": "126.89195180597693", "url": "/info/%EC%9D%B8%EC%A0%95%EC%98%A8%EB%88%84%EB%A6%AC%EC%95%BD%EA%B5%AD-%EA%B2%BD%EA%B8%B0%EB%8F%84-%EA%B4%91%EB%AA%85%EC%8B%9C-%EC%86%8C%ED%95%98%EB%8F%99/", "workingTime": ["-", "09:00~21:30", "09:00~21:30", "09:00~21:30", "09:00~21:30", "09:00~21:30", "09:00~21:00", "-"]}, {"name": "\uc18c\ud558\ud589\ubcf5\ud55c\uc57d\uad6d", "lat": "37.43431158791489", "lng": "126.87966491174927", "url": "/info/%EC%86%8C%ED%95%98%ED%96%89%EB%B3%B5%ED%95%9C%EC%95%BD%EA%B5%AD-%EA%B2%BD%EA%B8%B0%EB%8F%84-%EA%B4%91%EB%AA%85%EC%8B%9C-%EC%86%8C%ED%95%98%EB%8F%99/", "workingTime": ["-", "08:00~20:20", "08:00~20:20", "08:00~20:20", "08:00~20:20", "08:00~20:20", "-", "-"]}]