[{"name": "\uc720\ud0c0\uc6cc \uc628\ub204\ub9ac\uc57d\uad6d", "lat": "37.3383160489", "lng": "127.1017200496", "url": "/info/%EC%9C%A0%ED%83%80%EC%9B%8C+%EC%98%A8%EB%88%84%EB%A6%AC%EC%95%BD%EA%B5%AD-%EA%B2%BD%EA%B8%B0%EB%8F%84-%EC%9A%A9%EC%9D%B8%EC%8B%9C-%EB%8F%99%EC%B2%9C%EB%8F%99/", "workingTime": ["-", "07:30~20:00", "07:30~20:00", "07:30~20:00", "07:30~20:00", "07:30~20:00", "07:30~20:00", "-"]}, {"name": "\ud3ec\ub808\ub098\uc57d\uad6d", "lat": "37.3401906166844", "lng": "127.092876981329", "url": "/info/%ED%8F%AC%EB%A0%88%EB%82%98%EC%95%BD%EA%B5%AD-%EA%B2%BD%EA%B8%B0%EB%8F%84-%EC%9A%A9%EC%9D%B8%EC%8B%9C-%EB%8F%99%EC%B2%9C%EB%8F%99/", "workingTime": ["-", "09:00~18:00", "09:00~18:00", "09:00~18:00", "09:00~18:00", "09:00~18:00", "09:00~13:00", "-"]}, {"name": "\uc218\uc9c0\ud504\ub77c\uc784\uc57d\uad6d", "lat": "37.3383157783567", "lng": "127.101720274904", "url": "/info/%EC%88%98%EC%A7%80%ED%94%84%EB%9D%BC%EC%9E%84%EC%95%BD%EA%B5%AD-%EA%B2%BD%EA%B8%B0%EB%8F%84-%EC%9A%A9%EC%9D%B8%EC%8B%9C-%EB%8F%99%EC%B2%9C%EB%8F%99/", "workingTime": ["-", "09:00~18:00", "09:00~18:00", "09:00~18:00", "09:00~18:00", "09:00~18:00", "09:00~13:00", "-"]}, {"name": "\ucc9c\uba85\uc57d\uad6d", "lat": "37.3403101356", "lng": "127.0962066459", "url": "/info/%EC%B2%9C%EB%AA%85%EC%95%BD%EA%B5%AD-%EA%B2%BD%EA%B8%B0%EB%8F%84-%EC%9A%A9%EC%9D%B8%EC%8B%9C-%EB%8F%99%EC%B2%9C%EB%8F%99/", "workingTime": ["-", "09:00~19:00", "09:00~19:00", "09:00~19:00", "09:00~19:00", "09:00~19:00", "09:00~18:00", "-"]}, {"name": "\ubd04\uc57d\uad6d", "lat": "37.345386322483", "lng": "127.092867580286", "url": "/info/%EB%B4%84%EC%95%BD%EA%B5%AD-%EA%B2%BD%EA%B8%B0%EB%8F%84-%EC%9A%A9%EC%9D%B8%EC%8B%9C-%EB%8F%99%EC%B2%9C%EB%8F%99/", "workingTime": ["-", "10:00~18:00", "10:00~18:00", "10:00~18:00", "10:00~18:00", "10:00~18:00", "-", "-"]}, {"name": "\uc724\uc9c4\uc57d\uad6d", "lat": "37.33573876859349", "lng": "127.09336622302426", "url": "/info/%EC%9C%A4%EC%A7%84%EC%95%BD%EA%B5%AD-%EA%B2%BD%EA%B8%B0%EB%8F%84-%EC%9A%A9%EC%9D%B8%EC%8B%9C-%EB%8F%99%EC%B2%9C%EB%8F%99/", "workingTime": ["-", "09:00~19:00", "09:00~19:00", "09:00~19:00", "09:00~19:00", "09:00~19:00", "-", "-"]}, {"name": "\ubc14\ub978\uc57d\uad6d", "lat": "37.33898164190943", "lng": "127.09443549933921", "url": "/info/%EB%B0%94%EB%A5%B8%EC%95%BD%EA%B5%AD-%EA%B2%BD%EA%B8%B0%EB%8F%84-%EC%9A%A9%EC%9D%B8%EC%8B%9C-%EB%8F%99%EC%B2%9C%EB%8F%99/", "workingTime": ["-", "09:00~19:30", "09:00~19:30", "09:00~19:30", "09:00~19:30", "09:00~19:30", "09:00~15:00", "-"]}, {"name": "\ub9e4\uc77c\ubd04\uc57d\uad6d", "lat": "37.333252093381645", "lng": "127.09316452838596", "url": "/info/%EB%A7%A4%EC%9D%BC%EB%B4%84%EC%95%BD%EA%B5%AD-%EA%B2%BD%EA%B8%B0%EB%8F%84-%EC%9A%A9%EC%9D%B8%EC%8B%9C-%EB%8F%99%EC%B2%9C%EB%8F%99/", "workingTime": ["-", "08:30~18:30", "08:30~18:30", "08:30~18:30", "08:30~18:30", "08:30~18:30", "08:30~13:30", "-"]}, {"name": "\ub3d9\ucc9c\uc57d\uad6d", "lat": "37.33603106122851", "lng": "127.09335727597102", "url": "/info/%EB%8F%99%EC%B2%9C%EC%95%BD%EA%B5%AD-%EA%B2%BD%EA%B8%B0%EB%8F%84-%EC%9A%A9%EC%9D%B8%EC%8B%9C-%EB%8F%99%EC%B2%9C%EB%8F%99/", "workingTime": ["-", "09:00~20:00", "09:00~20:00", "09:00~20:00", "09:00~20:00", "09:00~20:00", "09:00~16:00", "-"]}, {"name": "\uc5fc\uad11\ud50c\ub7ec\uc2a4\uc57d\uad6d", "lat": "37.337331938512406", "lng": "127.08886314063813", "url": "/info/%EC%97%BC%EA%B4%91%ED%94%8C%EB%9F%AC%EC%8A%A4%EC%95%BD%EA%B5%AD-%EA%B2%BD%EA%B8%B0%EB%8F%84-%EC%9A%A9%EC%9D%B8%EC%8B%9C-%EB%8F%99%EC%B2%9C%EB%8F%99/", "workingTime": ["1,2,3,4,5\uc9f8\uc8fc09:00~18:00", "09:30~18:00", "09:30~18:00", "09:30~18:00", "09:30~18:00", "09:30~18:00", "-", "09:30~18:30"]}, {"name": "\uce5c\uc808\ud55c\ud574\ub4e0\uc57d\uad6d", "lat": "37.33639277561714", "lng": "127.09166055837264", "url": "/info/%EC%B9%9C%EC%A0%88%ED%95%9C%ED%95%B4%EB%93%A0%EC%95%BD%EA%B5%AD-%EA%B2%BD%EA%B8%B0%EB%8F%84-%EC%9A%A9%EC%9D%B8%EC%8B%9C-%EB%8F%99%EC%B2%9C%EB%8F%99/", "workingTime": ["1,2,3,4,5\uc9f8\uc8fc10:00~22:00", "09:00~22:00", "09:00~22:00", "09:00~22:00", "09:00~22:00", "09:00~22:00", "09:00~22:00", "09:00~22:00"]}, {"name": "\uccad\ud55c\uc57d\uad6d", "lat": "37.33227525184525", "lng": "127.0933212948304", "url": "/info/%EC%B2%AD%ED%95%9C%EC%95%BD%EA%B5%AD-%EA%B2%BD%EA%B8%B0%EB%8F%84-%EC%9A%A9%EC%9D%B8%EC%8B%9C-%EB%8F%99%EC%B2%9C%EB%8F%99/", "workingTime": ["-", "09:00~21:00", "09:00~21:00", "09:00~21:00", "09:00~21:00", "09:00~21:00", "09:00~21:00", "-"]}, {"name": "\uc218\uc9c0\uba54\ub514\uce7c\uc57d\uad6d", "lat": "37.340743811248124", "lng": "127.09912778616004", "url": "/info/%EC%88%98%EC%A7%80%EB%A9%94%EB%94%94%EC%B9%BC%EC%95%BD%EA%B5%AD-%EA%B2%BD%EA%B8%B0%EB%8F%84-%EC%9A%A9%EC%9D%B8%EC%8B%9C-%EB%8F%99%EC%B2%9C%EB%8F%99/", "workingTime": ["-", "08:30~21:00", "08:30~21:00", "08:30~21:00", "08:30~21:00", "08:30~21:00", "08:30~16:00", "-"]}, {"name": "\uc218\uc9c0\ub4dc\ub9bc\uc57d\uad6d", "lat": "37.336017715831304", "lng": "127.09196704147652", "url": "/info/%EC%88%98%EC%A7%80%EB%93%9C%EB%A6%BC%EC%95%BD%EA%B5%AD-%EA%B2%BD%EA%B8%B0%EB%8F%84-%EC%9A%A9%EC%9D%B8%EC%8B%9C-%EB%8F%99%EC%B2%9C%EB%8F%99/", "workingTime": ["-", "08:30~21:00", "08:30~21:00", "08:30~21:00", "08:30~21:00", "08:30~21:00", "08:30~16:00", "-"]}]