[{"name": "\uc774\ud654\uc774\ud3b8\ud55c\uc57d\uad6d", "lat": "37.6490641128528", "lng": "126.896975022417", "url": "/info/%EC%9D%B4%ED%99%94%EC%9D%B4%ED%8E%B8%ED%95%9C%EC%95%BD%EA%B5%AD-%EA%B2%BD%EA%B8%B0%EB%8F%84-%EA%B3%A0%EC%96%91%EC%8B%9C-%EB%8F%99%EC%82%B0%EB%8F%99/", "workingTime": ["-", "09:00~19:00", "09:00~19:00", "09:00~19:00", "09:00~19:00", "09:00~19:00", "09:00~15:00", "-"]}, {"name": "\uace0\uc591\uc2a4\ud0c0\uc57d\uad6d", "lat": "37.6469763082", "lng": "126.8947784062", "url": "/info/%EA%B3%A0%EC%96%91%EC%8A%A4%ED%83%80%EC%95%BD%EA%B5%AD-%EA%B2%BD%EA%B8%B0%EB%8F%84-%EA%B3%A0%EC%96%91%EC%8B%9C-%EB%8F%99%EC%82%B0%EB%8F%99/", "workingTime": ["10:00~22:00(\uc5f0\ub77d\ud6c4\ubc29\ubb38\uc694\ub9dd)", "10:00~22:00", "10:00~22:00", "10:00~22:00", "10:00~22:00", "10:00~22:00", "10:00~22:00", "10:00~22:00"]}, {"name": "1004\uc57d\uad6d", "lat": "37.6445427586745", "lng": "126.886335948466", "url": "/info/1004%EC%95%BD%EA%B5%AD-%EA%B2%BD%EA%B8%B0%EB%8F%84-%EA%B3%A0%EC%96%91%EC%8B%9C-%EB%8F%99%EC%82%B0%EB%8F%99/", "workingTime": ["-", "09:00~18:00", "09:00~18:00", "09:00~18:00", "09:00~18:00", "09:00~18:00", "-", "-"]}, {"name": "\uacf0\ub3cc\uc774\uc57d\uad6d", "lat": "37.6486125857708", "lng": "126.895795928553", "url": "/info/%EA%B3%B0%EB%8F%8C%EC%9D%B4%EC%95%BD%EA%B5%AD-%EA%B2%BD%EA%B8%B0%EB%8F%84-%EA%B3%A0%EC%96%91%EC%8B%9C-%EB%8F%99%EC%82%B0%EB%8F%99/", "workingTime": ["-", "09:00~19:00", "09:00~19:00", "09:00~19:00", "09:00~19:00", "09:00~19:00", "-", "-"]}, {"name": "\uc2e0\uc131\uc57d\uad6d", "lat": "37.64485279849742", "lng": "126.88616086715963", "url": "/info/%EC%8B%A0%EC%84%B1%EC%95%BD%EA%B5%AD-%EA%B2%BD%EA%B8%B0%EB%8F%84-%EA%B3%A0%EC%96%91%EC%8B%9C-%EB%8F%99%EC%82%B0%EB%8F%99/", "workingTime": ["-", "09:00~21:00", "09:00~21:00", "09:00~21:00", "09:00~21:00", "09:00~21:00", "09:00~18:00", "-"]}, {"name": "\uc0bc\uc1a1\uc2a4\ud0c0\uc57d\uad6d", "lat": "37.6469763082", "lng": "126.8947784062", "url": "/info/%EC%82%BC%EC%86%A1%EC%8A%A4%ED%83%80%EC%95%BD%EA%B5%AD-%EA%B2%BD%EA%B8%B0%EB%8F%84-%EA%B3%A0%EC%96%91%EC%8B%9C-%EB%8F%99%EC%82%B0%EB%8F%99/", "workingTime": ["-", "10:00~23:00", "10:00~23:00", "10:00~23:00", "10:00~23:00", "10:00~23:00", "-", "10:00~23:00"]}, {"name": "\uc0bc\uc1a1\ud558\ub098\ub85c\uc57d\uad6d", "lat": "37.64863409847956", "lng": "126.89887805464512", "url": "/info/%EC%82%BC%EC%86%A1%ED%95%98%EB%82%98%EB%A1%9C%EC%95%BD%EA%B5%AD-%EA%B2%BD%EA%B8%B0%EB%8F%84-%EA%B3%A0%EC%96%91%EC%8B%9C-%EB%8F%99%EC%82%B0%EB%8F%99/", "workingTime": ["-", "09:00~18:00", "09:00~18:00", "09:00~18:00", "09:00~18:00", "09:00~18:00", "-", "-"]}]