[{"name": "\ub2e4\uc62c\uc57d\uad6d", "lat": "37.214639967574556", "lng": "127.04248976479613", "url": "/info/%EB%8B%A4%EC%98%AC%EC%95%BD%EA%B5%AD-%EA%B2%BD%EA%B8%B0%EB%8F%84-%ED%99%94%EC%84%B1%EC%8B%9C-%EC%A7%84%EC%95%88%EB%8F%99/", "workingTime": ["-", "08:00~21:30", "08:00~21:30", "08:00~21:30", "08:00~21:30", "08:00~21:30", "08:00~21:30", "-"]}, {"name": "\ud589\ubcf5\uc774\uc5f4\ub9ac\ub294\ub458\ub9ac\uc57d\uad6d", "lat": "37.2154071399289", "lng": "127.0439547928294", "url": "/info/%ED%96%89%EB%B3%B5%EC%9D%B4%EC%97%B4%EB%A6%AC%EB%8A%94%EB%91%98%EB%A6%AC%EC%95%BD%EA%B5%AD-%EA%B2%BD%EA%B8%B0%EB%8F%84-%ED%99%94%EC%84%B1%EC%8B%9C-%EC%A7%84%EC%95%88%EB%8F%99/", "workingTime": ["1,2,3,4,5\uc9f8\uc8fc09:00~16:00", "09:00~21:00", "09:00~21:00", "09:00~21:00", "09:00~21:00", "09:00~21:00", "09:00~16:00", "09:00~16:00"]}, {"name": "\ud587\uc0b4\uc57d\uad6d", "lat": "37.21539927227181", "lng": "127.04393424467342", "url": "/info/%ED%96%87%EC%82%B4%EC%95%BD%EA%B5%AD-%EA%B2%BD%EA%B8%B0%EB%8F%84-%ED%99%94%EC%84%B1%EC%8B%9C-%EC%A7%84%EC%95%88%EB%8F%99/", "workingTime": ["09:00~13:00(\uc5f0\ub77d\ud6c4\ubc29\ubb38\uc694\ub9dd)", "09:00~20:00", "09:00~20:00", "09:00~20:00", "09:00~20:00", "09:00~20:00", "09:00~15:00", "-"]}, {"name": "\uc0c8\ubd04\uc57d\uad6d", "lat": "37.2117364209759", "lng": "127.037109309462", "url": "/info/%EC%83%88%EB%B4%84%EC%95%BD%EA%B5%AD-%EA%B2%BD%EA%B8%B0%EB%8F%84-%ED%99%94%EC%84%B1%EC%8B%9C-%EC%A7%84%EC%95%88%EB%8F%99/", "workingTime": ["-", "-", "-", "-", "-", "-", "-", "-"]}, {"name": "\ud6fc\ubbf8\ub9ac\uc57d\uad6d", "lat": "37.21448159147519", "lng": "127.04188581526803", "url": "/info/%ED%9B%BC%EB%AF%B8%EB%A6%AC%EC%95%BD%EA%B5%AD-%EA%B2%BD%EA%B8%B0%EB%8F%84-%ED%99%94%EC%84%B1%EC%8B%9C-%EC%A7%84%EC%95%88%EB%8F%99/", "workingTime": ["-", "09:00~19:00", "09:00~19:00", "09:00~19:00", "09:00~19:00", "09:00~19:00", "-", "-"]}, {"name": "\uc774\ud654\uc57d\uad6d", "lat": "37.21360155523698", "lng": "127.04182417344933", "url": "/info/%EC%9D%B4%ED%99%94%EC%95%BD%EA%B5%AD-%EA%B2%BD%EA%B8%B0%EB%8F%84-%ED%99%94%EC%84%B1%EC%8B%9C-%EC%A7%84%EC%95%88%EB%8F%99/", "workingTime": ["-", "09:00~18:00", "09:00~18:00", "09:00~18:00", "09:00~18:00", "09:00~18:00", "09:00~17:00", "-"]}, {"name": "\ub3c4\ud1a0\ub9ac\uc57d\uad6d", "lat": "37.1256838482529", "lng": "126.926347683453", "url": "/info/%EB%8F%84%ED%86%A0%EB%A6%AC%EC%95%BD%EA%B5%AD-%EA%B2%BD%EA%B8%B0%EB%8F%84-%ED%99%94%EC%84%B1%EC%8B%9C-%EC%A7%84%EC%95%88%EB%8F%99/", "workingTime": ["-", "09:00~19:30", "09:00~19:30", "09:00~19:30", "09:00~19:30", "09:00~19:30", "-", "-"]}, {"name": "\ud0dc\ud3c9\uc591\uc57d\uad6d", "lat": "37.2152480185", "lng": "127.0436412128", "url": "/info/%ED%83%9C%ED%8F%89%EC%96%91%EC%95%BD%EA%B5%AD-%EA%B2%BD%EA%B8%B0%EB%8F%84-%ED%99%94%EC%84%B1%EC%8B%9C-%EC%A7%84%EC%95%88%EB%8F%99/", "workingTime": ["1,2,3,4,5\uc9f8\uc8fc09:00~22:30", "09:00~22:30", "09:00~22:30", "09:00~22:30", "09:00~22:30", "09:00~22:30", "09:00~22:30", "09:00~22:30"]}, {"name": "\ud0d1\uc628\ub204\ub9ac\uc57d\uad6d", "lat": "37.215115405908975", "lng": "127.0433823058711", "url": "/info/%ED%83%91%EC%98%A8%EB%88%84%EB%A6%AC%EC%95%BD%EA%B5%AD-%EA%B2%BD%EA%B8%B0%EB%8F%84-%ED%99%94%EC%84%B1%EC%8B%9C-%EC%A7%84%EC%95%88%EB%8F%99/", "workingTime": ["-", "09:00~19:00", "09:00~19:00", "09:00~19:00", "09:00~19:00", "09:00~19:00", "09:00~16:00", "-"]}, {"name": "\uc591\ubb38\uc57d\uad6d", "lat": "37.2112090849004", "lng": "127.036371709968", "url": "/info/%EC%96%91%EB%AC%B8%EC%95%BD%EA%B5%AD-%EA%B2%BD%EA%B8%B0%EB%8F%84-%ED%99%94%EC%84%B1%EC%8B%9C-%EC%A7%84%EC%95%88%EB%8F%99/", "workingTime": ["-", "09:00~18:00", "09:00~18:00", "09:00~18:00", "09:00~18:00", "09:00~18:00", "-", "-"]}, {"name": "\ub354\ud654\uc778\uc57d\uad6d", "lat": "37.21361301254716", "lng": "127.04180874370175", "url": "/info/%EB%8D%94%ED%99%94%EC%9D%B8%EC%95%BD%EA%B5%AD-%EA%B2%BD%EA%B8%B0%EB%8F%84-%ED%99%94%EC%84%B1%EC%8B%9C-%EC%A7%84%EC%95%88%EB%8F%99/", "workingTime": ["-", "09:00~21:00", "09:00~21:00", "09:00~21:00", "09:00~21:00", "09:00~21:00", "09:00~19:00", "-"]}, {"name": "\uc2e0\ud654\uc131\uc57d\uad6d", "lat": "37.20860536447034", "lng": "127.03488922115851", "url": "/info/%EC%8B%A0%ED%99%94%EC%84%B1%EC%95%BD%EA%B5%AD-%EA%B2%BD%EA%B8%B0%EB%8F%84-%ED%99%94%EC%84%B1%EC%8B%9C-%EC%A7%84%EC%95%88%EB%8F%99/", "workingTime": ["-", "09:00~21:00", "09:00~21:00", "09:00~21:00", "09:00~21:00", "09:00~21:00", "09:00~18:00", "09:00~17:00"]}, {"name": "\uba85\uc57d\uad6d", "lat": "37.208141666666670", "lng": "127.035141666666661", "url": "/info/%EB%AA%85%EC%95%BD%EA%B5%AD-%EA%B2%BD%EA%B8%B0%EB%8F%84-%ED%99%94%EC%84%B1%EC%8B%9C-%EC%A7%84%EC%95%88%EB%8F%99/", "workingTime": ["-", "09:00~20:00", "09:00~20:00", "09:00~20:00", "09:00~20:00", "09:00~20:00", "09:00~20:00", "09:00~20:00"]}, {"name": "\ud76c\ub9dd\uc57d\uad6d", "lat": "37.212969223128745", "lng": "127.03759946398716", "url": "/info/%ED%9D%AC%EB%A7%9D%EC%95%BD%EA%B5%AD-%EA%B2%BD%EA%B8%B0%EB%8F%84-%ED%99%94%EC%84%B1%EC%8B%9C-%EC%A7%84%EC%95%88%EB%8F%99/", "workingTime": ["-", "09:00~19:00", "09:00~19:00", "09:00~19:00", "09:00~19:00", "09:00~19:00", "09:00~14:00", "-"]}, {"name": "\ud1a0\ub9e4\ub2f9\ub2e8\uace8\uc57d\uad6d", "lat": "37.2132631592", "lng": "127.0406793587", "url": "/info/%ED%86%A0%EB%A7%A4%EB%8B%B9%EB%8B%A8%EA%B3%A8%EC%95%BD%EA%B5%AD-%EA%B2%BD%EA%B8%B0%EB%8F%84-%ED%99%94%EC%84%B1%EC%8B%9C-%EC%A7%84%EC%95%88%EB%8F%99/", "workingTime": ["1,2,3,4,5\uc9f8\uc8fc09:00~21:00", "09:00~22:00", "09:00~22:00", "09:00~22:00", "09:00~22:00", "09:00~22:00", "09:00~21:00", "09:00~21:00"]}, {"name": "\uc2e0\ud0dc\uc548\uc57d\uad6d", "lat": "37.21134412343578", "lng": "127.03632341833155", "url": "/info/%EC%8B%A0%ED%83%9C%EC%95%88%EC%95%BD%EA%B5%AD-%EA%B2%BD%EA%B8%B0%EB%8F%84-%ED%99%94%EC%84%B1%EC%8B%9C-%EC%A7%84%EC%95%88%EB%8F%99/", "workingTime": ["-", "09:00~19:00", "09:00~19:00", "09:00~19:00", "09:00~19:00", "09:00~19:00", "09:00~15:00", "-"]}]