[{"name": "\uc0c8\uace0\uc740\uba54\ub514\uceec\uc57d\uad6d", "lat": "37.643556423014175", "lng": "126.62661366076769", "url": "/info/%EC%83%88%EA%B3%A0%EC%9D%80%EB%A9%94%EB%94%94%EC%BB%AC%EC%95%BD%EA%B5%AD-%EA%B2%BD%EA%B8%B0%EB%8F%84-%EA%B9%80%ED%8F%AC%EC%8B%9C-%EA%B5%AC%EB%9E%98%EB%8F%99/", "workingTime": ["-", "09:00~18:00", "09:00~18:00", "09:00~18:00", "09:00~18:00", "09:00~18:00", "-", "-"]}, {"name": "\ub2e4\uc815\uc57d\uad6d", "lat": "37.645843308948656", "lng": "126.62610818271217", "url": "/info/%EB%8B%A4%EC%A0%95%EC%95%BD%EA%B5%AD-%EA%B2%BD%EA%B8%B0%EB%8F%84-%EA%B9%80%ED%8F%AC%EC%8B%9C-%EA%B5%AC%EB%9E%98%EB%8F%99/", "workingTime": ["-", "09:00~21:00", "09:00~21:00", "09:00~21:00", "09:00~21:00", "09:00~21:00", "-", "-"]}, {"name": "\uc0ac\ub791\uc57d\uad6d", "lat": "37.6465636761058", "lng": "126.625182108121", "url": "/info/%EC%82%AC%EB%9E%91%EC%95%BD%EA%B5%AD-%EA%B2%BD%EA%B8%B0%EB%8F%84-%EA%B9%80%ED%8F%AC%EC%8B%9C-%EA%B5%AC%EB%9E%98%EB%8F%99/", "workingTime": ["1,2,3,4,5\uc9f8\uc8fc09:00~22:00", "09:00~22:00", "09:00~22:00", "09:00~22:00", "09:00~22:00", "09:00~22:00", "09:00~22:00", "09:00~22:00"]}, {"name": "\uc628\uc720\uc57d\uad6d", "lat": "37.6429991455763", "lng": "126.623629605751", "url": "/info/%EC%98%A8%EC%9C%A0%EC%95%BD%EA%B5%AD-%EA%B2%BD%EA%B8%B0%EB%8F%84-%EA%B9%80%ED%8F%AC%EC%8B%9C-%EA%B5%AC%EB%9E%98%EB%8F%99/", "workingTime": ["1,2,3,4,5\uc9f8\uc8fc09:00~14:00", "09:00~20:00", "09:00~20:00", "09:00~20:00", "09:00~20:00", "09:00~20:00", "09:00~14:00", "09:00~13:00"]}, {"name": "\ud587\uc0b4\uc57d\uad6d", "lat": "37.6454292192719", "lng": "126.630857571038", "url": "/info/%ED%96%87%EC%82%B4%EC%95%BD%EA%B5%AD-%EA%B2%BD%EA%B8%B0%EB%8F%84-%EA%B9%80%ED%8F%AC%EC%8B%9C-%EA%B5%AC%EB%9E%98%EB%8F%99/", "workingTime": ["-", "09:00~20:40", "09:00~20:40", "09:00~20:40", "09:00~20:40", "09:00~20:40", "09:00~15:00", "-"]}, {"name": "\ud638\uc218\uc628\ub204\ub9ac\uc57d\uad6d", "lat": "37.65072836570133", "lng": "126.6335580943564", "url": "/info/%ED%98%B8%EC%88%98%EC%98%A8%EB%88%84%EB%A6%AC%EC%95%BD%EA%B5%AD-%EA%B2%BD%EA%B8%B0%EB%8F%84-%EA%B9%80%ED%8F%AC%EC%8B%9C-%EA%B5%AC%EB%9E%98%EB%8F%99/", "workingTime": ["-", "09:00~21:00", "09:00~21:00", "09:00~21:00", "09:00~21:00", "09:00~21:00", "09:00~14:00", "-"]}, {"name": "\uc13c\ud2b8\ub7f4\uc57d\uad6d", "lat": "37.64335110175303", "lng": "126.62550882225591", "url": "/info/%EC%84%BC%ED%8A%B8%EB%9F%B4%EC%95%BD%EA%B5%AD-%EA%B2%BD%EA%B8%B0%EB%8F%84-%EA%B9%80%ED%8F%AC%EC%8B%9C-%EA%B5%AC%EB%9E%98%EB%8F%99/", "workingTime": ["09:00~16:00(\uc5f0\ub77d\ud6c4\ubc29\ubb38\uc694\ub9dd)", "09:00~21:00", "09:00~21:00", "09:00~21:00", "09:00~21:00", "09:00~21:00", "09:00~21:00", "-"]}, {"name": "\uad7f\ubaa8\ub2dd\uc57d\uad6d", "lat": "37.64571138468957", "lng": "126.62541992192999", "url": "/info/%EA%B5%BF%EB%AA%A8%EB%8B%9D%EC%95%BD%EA%B5%AD-%EA%B2%BD%EA%B8%B0%EB%8F%84-%EA%B9%80%ED%8F%AC%EC%8B%9C-%EA%B5%AC%EB%9E%98%EB%8F%99/", "workingTime": ["1,2,3,4,5\uc9f8\uc8fc09:00~19:00", "09:00~21:00", "09:00~21:00", "09:00~21:00", "09:00~21:00", "09:00~21:00", "09:00~19:00", "09:00~19:00"]}, {"name": "\uc131\uc2ec\uc57d\uad6d", "lat": "37.6405258372365", "lng": "126.62711024789", "url": "/info/%EC%84%B1%EC%8B%AC%EC%95%BD%EA%B5%AD-%EA%B2%BD%EA%B8%B0%EB%8F%84-%EA%B9%80%ED%8F%AC%EC%8B%9C-%EA%B5%AC%EB%9E%98%EB%8F%99/", "workingTime": ["-", "09:00~18:00", "09:00~18:00", "09:00~18:00", "09:00~18:00", "09:00~18:00", "-", "-"]}, {"name": "\uc0d8\uc57d\uad6d", "lat": "37.6432777579", "lng": "126.6251103539", "url": "/info/%EC%83%98%EC%95%BD%EA%B5%AD-%EA%B2%BD%EA%B8%B0%EB%8F%84-%EA%B9%80%ED%8F%AC%EC%8B%9C-%EA%B5%AC%EB%9E%98%EB%8F%99/", "workingTime": ["1,2,3,4,5\uc9f8\uc8fc10:00~13:00", "09:00~20:00", "09:00~20:00", "09:00~20:00", "09:00~20:00", "09:00~20:00", "09:00~16:00", "10:00~13:00"]}, {"name": "\uc774\ud654\uc57d\uad6d", "lat": "37.64364400529891", "lng": "126.62695767387571", "url": "/info/%EC%9D%B4%ED%99%94%EC%95%BD%EA%B5%AD-%EA%B2%BD%EA%B8%B0%EB%8F%84-%EA%B9%80%ED%8F%AC%EC%8B%9C-%EA%B5%AC%EB%9E%98%EB%8F%99/", "workingTime": ["-", "09:00~19:30", "09:00~19:30", "09:00~19:30", "09:00~19:30", "09:00~19:30", "09:00~15:00", "-"]}, {"name": "\ubc31\uc138\uc57d\uad6d", "lat": "37.6473448040504", "lng": "126.624948839185", "url": "/info/%EB%B0%B1%EC%84%B8%EC%95%BD%EA%B5%AD-%EA%B2%BD%EA%B8%B0%EB%8F%84-%EA%B9%80%ED%8F%AC%EC%8B%9C-%EA%B5%AC%EB%9E%98%EB%8F%99/", "workingTime": ["-", "09:00~18:00", "09:00~18:00", "09:00~18:00", "09:00~18:00", "09:00~18:00", "-", "-"]}, {"name": "\uae40\ud3ec\ud604\ub300\uc57d\uad6d", "lat": "37.6453256320087", "lng": "126.623566311565", "url": "/info/%EA%B9%80%ED%8F%AC%ED%98%84%EB%8C%80%EC%95%BD%EA%B5%AD-%EA%B2%BD%EA%B8%B0%EB%8F%84-%EA%B9%80%ED%8F%AC%EC%8B%9C-%EA%B5%AC%EB%9E%98%EB%8F%99/", "workingTime": ["-", "10:00~18:00", "10:00~18:00", "10:00~18:00", "10:00~18:00", "10:00~18:00", "-", "-"]}, {"name": "\uace0\uc740\ud55c\uc57d\uad6d", "lat": "37.64464692841076", "lng": "126.62614590577706", "url": "/info/%EA%B3%A0%EC%9D%80%ED%95%9C%EC%95%BD%EA%B5%AD-%EA%B2%BD%EA%B8%B0%EB%8F%84-%EA%B9%80%ED%8F%AC%EC%8B%9C-%EA%B5%AC%EB%9E%98%EB%8F%99/", "workingTime": ["-", "10:00~19:00", "10:00~19:00", "10:00~19:00", "10:00~19:00", "10:00~19:00", "10:00~16:00", "-"]}, {"name": "\uc911\uc559\uba54\ub514\uce7c\uc628\ub204\ub9ac\uc57d\uad6d", "lat": "37.6461181144418", "lng": "126.62753451337121", "url": "/info/%EC%A4%91%EC%95%99%EB%A9%94%EB%94%94%EC%B9%BC%EC%98%A8%EB%88%84%EB%A6%AC%EC%95%BD%EA%B5%AD-%EA%B2%BD%EA%B8%B0%EB%8F%84-%EA%B9%80%ED%8F%AC%EC%8B%9C-%EA%B5%AC%EB%9E%98%EB%8F%99/", "workingTime": ["-", "09:00~21:00", "09:00~21:00", "09:00~21:00", "09:00~21:00", "09:00~21:00", "09:00~16:30", "-"]}, {"name": "\ud544\uc57d\uad6d", "lat": "37.64627585127875", "lng": "126.62499557251743", "url": "/info/%ED%95%84%EC%95%BD%EA%B5%AD-%EA%B2%BD%EA%B8%B0%EB%8F%84-%EA%B9%80%ED%8F%AC%EC%8B%9C-%EA%B5%AC%EB%9E%98%EB%8F%99/", "workingTime": ["-", "09:00~21:00", "09:00~21:00", "09:00~21:00", "09:00~21:00", "09:00~21:00", "09:00~15:00", "09:00~15:00"]}, {"name": "\ud589\ubcf5\uc57d\uad6d", "lat": "37.6434865862", "lng": "126.6261834469", "url": "/info/%ED%96%89%EB%B3%B5%EC%95%BD%EA%B5%AD-%EA%B2%BD%EA%B8%B0%EB%8F%84-%EA%B9%80%ED%8F%AC%EC%8B%9C-%EA%B5%AC%EB%9E%98%EB%8F%99/", "workingTime": ["-", "09:00~20:00", "09:00~20:00", "09:00~20:00", "09:00~20:00", "09:00~20:00", "-", "-"]}, {"name": "\uacbd\uc11c\ud504\ub77c\uc790\uc57d\uad6d", "lat": "37.64419657042053", "lng": "126.62732655833639", "url": "/info/%EA%B2%BD%EC%84%9C%ED%94%84%EB%9D%BC%EC%9E%90%EC%95%BD%EA%B5%AD-%EA%B2%BD%EA%B8%B0%EB%8F%84-%EA%B9%80%ED%8F%AC%EC%8B%9C-%EA%B5%AC%EB%9E%98%EB%8F%99/", "workingTime": ["-", "08:30~18:30", "08:30~18:30", "08:30~18:30", "08:30~18:30", "08:30~18:30", "08:30~15:00", "-"]}, {"name": "\uc628\ub204\ub9ac\ud0dc\ud3c9\uc591\uc57d\uad6d", "lat": "37.646383857408736", "lng": "126.62952292016834", "url": "/info/%EC%98%A8%EB%88%84%EB%A6%AC%ED%83%9C%ED%8F%89%EC%96%91%EC%95%BD%EA%B5%AD-%EA%B2%BD%EA%B8%B0%EB%8F%84-%EA%B9%80%ED%8F%AC%EC%8B%9C-%EA%B5%AC%EB%9E%98%EB%8F%99/", "workingTime": ["-", "09:00~19:00", "09:00~19:00", "09:00~19:00", "09:00~19:00", "09:00~19:00", "09:00~15:00", "-"]}, {"name": "\uae40\ud3ec\ub3c4\ub2f4\uc57d\uad6d", "lat": "37.64434015222817", "lng": "126.62828668838168", "url": "/info/%EA%B9%80%ED%8F%AC%EB%8F%84%EB%8B%B4%EC%95%BD%EA%B5%AD-%EA%B2%BD%EA%B8%B0%EB%8F%84-%EA%B9%80%ED%8F%AC%EC%8B%9C-%EA%B5%AC%EB%9E%98%EB%8F%99/", "workingTime": ["10:00~22:00(\uc5f0\ub77d\ud6c4\ubc29\ubb38\uc694\ub9dd)", "10:00~22:00", "10:00~22:00", "10:00~22:00", "10:00~22:00", "10:00~22:00", "10:00~22:00", "10:00~22:00"]}, {"name": "\ud568\ucd08\ub86c\uc57d\uad6d", "lat": "37.6395180283", "lng": "126.6271187973", "url": "/info/%ED%95%A8%EC%B4%88%EB%A1%AC%EC%95%BD%EA%B5%AD-%EA%B2%BD%EA%B8%B0%EB%8F%84-%EA%B9%80%ED%8F%AC%EC%8B%9C-%EA%B5%AC%EB%9E%98%EB%8F%99/", "workingTime": ["-", "09:00~19:00", "09:00~19:00", "09:00~19:00", "09:00~19:00", "09:00~19:00", "09:00~14:00", "-"]}]