[{"name": "\ucc38\uc57d\uc0ac\ucc38\uc57d\uad6d", "lat": "37.1821551701882", "lng": "127.122970771029", "url": "/info/%EC%B0%B8%EC%95%BD%EC%82%AC%EC%B0%B8%EC%95%BD%EA%B5%AD-%EA%B2%BD%EA%B8%B0%EB%8F%84-%ED%99%94%EC%84%B1%EC%8B%9C-%EB%AA%A9%EB%8F%99/", "workingTime": ["-", "09:00~18:00", "09:00~18:00", "09:00~18:00", "09:00~18:00", "09:00~18:00", "09:00~13:00", "-"]}, {"name": "\ub098\uc74c\uc628\ub204\ub9ac\uc57d\uad6d", "lat": "37.1895290950084", "lng": "127.12751396465576", "url": "/info/%EB%82%98%EC%9D%8C%EC%98%A8%EB%88%84%EB%A6%AC%EC%95%BD%EA%B5%AD-%EA%B2%BD%EA%B8%B0%EB%8F%84-%ED%99%94%EC%84%B1%EC%8B%9C-%EB%AA%A9%EB%8F%99/", "workingTime": ["1,2,3,4,5\uc9f8\uc8fc09:00~14:00", "09:00~18:00", "09:00~18:00", "09:00~18:00", "09:00~18:00", "09:00~18:00", "09:00~14:00", "09:00~14:00"]}, {"name": "\ubc14\ub978\uc57d\uad6d", "lat": "37.1821355556416", "lng": "127.12346331253", "url": "/info/%EB%B0%94%EB%A5%B8%EC%95%BD%EA%B5%AD-%EA%B2%BD%EA%B8%B0%EB%8F%84-%ED%99%94%EC%84%B1%EC%8B%9C-%EB%AA%A9%EB%8F%99/", "workingTime": ["-", "09:00~21:30", "09:00~21:30", "09:00~21:30", "09:00~21:30", "09:00~21:30", "09:00~17:00", "-"]}, {"name": "\ud574\ubc14\ub77c\uae30\uc57d\uad6d", "lat": "37.183120571203645", "lng": "127.12434095085182", "url": "/info/%ED%95%B4%EB%B0%94%EB%9D%BC%EA%B8%B0%EC%95%BD%EA%B5%AD-%EA%B2%BD%EA%B8%B0%EB%8F%84-%ED%99%94%EC%84%B1%EC%8B%9C-%EB%AA%A9%EB%8F%99/", "workingTime": ["1,2,3,4,5\uc9f8\uc8fc09:00~18:00", "08:30~20:30", "08:30~20:30", "08:30~20:30", "08:30~20:30", "08:30~20:30", "09:00~18:00", "09:00~18:00"]}, {"name": "\uc5d0\uc774\uba54\ub514\uce7c\uc57d\uad6d", "lat": "37.1826525526733", "lng": "127.124694469484", "url": "/info/%EC%97%90%EC%9D%B4%EB%A9%94%EB%94%94%EC%B9%BC%EC%95%BD%EA%B5%AD-%EA%B2%BD%EA%B8%B0%EB%8F%84-%ED%99%94%EC%84%B1%EC%8B%9C-%EB%AA%A9%EB%8F%99/", "workingTime": ["1,2,3,4,5\uc9f8\uc8fc09:00~18:00", "09:00~18:00", "09:00~18:00", "09:00~18:00", "09:00~18:00", "09:00~18:00", "09:00~18:00", "-"]}, {"name": "\uba54\ub514\ud31c\ub3d9\ud0c4\uc57d\uad6d", "lat": "37.18294344865917", "lng": "127.12483166243595", "url": "/info/%EB%A9%94%EB%94%94%ED%8C%9C%EB%8F%99%ED%83%84%EC%95%BD%EA%B5%AD-%EA%B2%BD%EA%B8%B0%EB%8F%84-%ED%99%94%EC%84%B1%EC%8B%9C-%EB%AA%A9%EB%8F%99/", "workingTime": ["1,2,3,4,5\uc9f8\uc8fc10:00~16:00", "08:30~20:30", "08:30~20:30", "08:30~20:30", "08:30~20:30", "08:30~20:30", "09:00~15:30", "-"]}]