[{"name": "\ub3d9\uc131\uc57d\uad6d", "lat": "37.85747849892422", "lng": "126.78299641723089", "url": "/info/%EB%8F%99%EC%84%B1%EC%95%BD%EA%B5%AD-%EA%B2%BD%EA%B8%B0%EB%8F%84-%ED%8C%8C%EC%A3%BC%EC%8B%9C-%EB%AC%B8%EC%82%B0%EC%9D%8D/", "workingTime": ["1,2,3,4,5\uc9f8\uc8fc06:00~22:30", "06:00~22:30", "06:00~22:30", "06:00~22:30", "06:00~22:30", "06:00~22:30", "06:00~22:30", "06:00~22:30"]}, {"name": "\uc2ed\uc790\uc57d\uad6d", "lat": "37.86070939825323", "lng": "126.78736945848405", "url": "/info/%EC%8B%AD%EC%9E%90%EC%95%BD%EA%B5%AD-%EA%B2%BD%EA%B8%B0%EB%8F%84-%ED%8C%8C%EC%A3%BC%EC%8B%9C-%EB%AC%B8%EC%82%B0%EC%9D%8D/", "workingTime": ["-", "08:00~21:00", "08:00~21:00", "08:00~21:00", "08:00~21:00", "08:00~21:00", "08:00~21:00", "-"]}, {"name": "\ubb38\uc0b0 \uc885\ub85c\uc57d\uad6d", "lat": "37.8571525273874", "lng": "126.783586651459", "url": "/info/%EB%AC%B8%EC%82%B0+%EC%A2%85%EB%A1%9C%EC%95%BD%EA%B5%AD-%EA%B2%BD%EA%B8%B0%EB%8F%84-%ED%8C%8C%EC%A3%BC%EC%8B%9C-%EB%AC%B8%EC%82%B0%EC%9D%8D/", "workingTime": ["-", "09:00~18:00", "09:00~18:00", "09:00~18:00", "09:00~18:00", "09:00~18:00", "09:00~13:00", "-"]}, {"name": "\uc624\ub298\uc57d\uad6d", "lat": "37.8670661755", "lng": "126.784845748", "url": "/info/%EC%98%A4%EB%8A%98%EC%95%BD%EA%B5%AD-%EA%B2%BD%EA%B8%B0%EB%8F%84-%ED%8C%8C%EC%A3%BC%EC%8B%9C-%EB%AC%B8%EC%82%B0%EC%9D%8D/", "workingTime": ["09:00~13:00(\uc5f0\ub77d\ud6c4\ubc29\ubb38\uc694\ub9dd)", "09:00~17:30", "09:00~17:30", "09:00~17:30", "09:00~17:30", "09:00~17:30", "09:00~15:30", "-"]}, {"name": "\ubb38\uc0b0\ubcf4\ub8e1\uc57d\uad6d", "lat": "37.8571492648809", "lng": "126.78365263207262", "url": "/info/%EB%AC%B8%EC%82%B0%EB%B3%B4%EB%A3%A1%EC%95%BD%EA%B5%AD-%EA%B2%BD%EA%B8%B0%EB%8F%84-%ED%8C%8C%EC%A3%BC%EC%8B%9C-%EB%AC%B8%EC%82%B0%EC%9D%8D/", "workingTime": ["1,2,3,4,5\uc9f8\uc8fc08:30~18:00", "08:30~22:00", "08:30~22:00", "08:30~22:00", "08:30~22:00", "08:30~22:00", "08:30~19:00", "08:30~19:00"]}, {"name": "\uac10\uc0ac\uc57d\uad6d", "lat": "37.85808360052075", "lng": "126.7857718438638", "url": "/info/%EA%B0%90%EC%82%AC%EC%95%BD%EA%B5%AD-%EA%B2%BD%EA%B8%B0%EB%8F%84-%ED%8C%8C%EC%A3%BC%EC%8B%9C-%EB%AC%B8%EC%82%B0%EC%9D%8D/", "workingTime": ["1,2,3,4,5\uc9f8\uc8fc08:30~13:00", "08:30~20:30", "08:30~20:30", "08:30~20:30", "08:30~20:30", "08:30~20:30", "08:30~20:30", "08:30~13:00"]}, {"name": "\ubb38\uc0b0\uc815\ubb38\uc57d\uad6d", "lat": "37.85414592583478", "lng": "126.78289789543878", "url": "/info/%EB%AC%B8%EC%82%B0%EC%A0%95%EB%AC%B8%EC%95%BD%EA%B5%AD-%EA%B2%BD%EA%B8%B0%EB%8F%84-%ED%8C%8C%EC%A3%BC%EC%8B%9C-%EB%AC%B8%EC%82%B0%EC%9D%8D/", "workingTime": ["1,2,3,4,5\uc9f8\uc8fc09:00~22:00", "09:00~22:00", "09:00~22:00", "09:00~22:00", "09:00~22:00", "09:00~22:00", "09:00~22:00", "09:00~21:30"]}, {"name": "\uc0b0\uc57d\uad6d", "lat": "37.85806700677957", "lng": "126.7849453505794", "url": "/info/%EC%82%B0%EC%95%BD%EA%B5%AD-%EA%B2%BD%EA%B8%B0%EB%8F%84-%ED%8C%8C%EC%A3%BC%EC%8B%9C-%EB%AC%B8%EC%82%B0%EC%9D%8D/", "workingTime": ["-", "09:00~20:00", "09:00~20:00", "09:00~20:00", "09:00~20:00", "09:00~20:00", "09:00~19:00", "-"]}, {"name": "\ud55c\uc9c4\uc57d\uad6d", "lat": "37.85764568566518", "lng": "126.78511930491143", "url": "/info/%ED%95%9C%EC%A7%84%EC%95%BD%EA%B5%AD-%EA%B2%BD%EA%B8%B0%EB%8F%84-%ED%8C%8C%EC%A3%BC%EC%8B%9C-%EB%AC%B8%EC%82%B0%EC%9D%8D/", "workingTime": ["-", "09:00~19:00", "09:00~19:00", "09:00~19:00", "09:00~19:00", "09:00~19:00", "09:00~19:00", "09:00~22:00"]}, {"name": "\uc2dc\ubbfc\uc628\ub204\ub9ac\uc57d\uad6d", "lat": "37.8563880410285", "lng": "126.783962621079", "url": "/info/%EC%8B%9C%EB%AF%BC%EC%98%A8%EB%88%84%EB%A6%AC%EC%95%BD%EA%B5%AD-%EA%B2%BD%EA%B8%B0%EB%8F%84-%ED%8C%8C%EC%A3%BC%EC%8B%9C-%EB%AC%B8%EC%82%B0%EC%9D%8D/", "workingTime": ["-", "08:30~21:00", "08:30~21:00", "08:30~21:00", "08:30~21:00", "08:30~21:00", "-", "-"]}, {"name": "\ubb38\uc0b0\uc740\uc57d\uad6d", "lat": "37.86988844412767", "lng": "126.7855381091297", "url": "/info/%EB%AC%B8%EC%82%B0%EC%9D%80%EC%95%BD%EA%B5%AD-%EA%B2%BD%EA%B8%B0%EB%8F%84-%ED%8C%8C%EC%A3%BC%EC%8B%9C-%EB%AC%B8%EC%82%B0%EC%9D%8D/", "workingTime": ["10:00~21:30(\uc5f0\ub77d\ud6c4\ubc29\ubb38\uc694\ub9dd)", "10:00~21:30", "10:00~21:30", "10:00~21:30", "10:00~21:30", "10:00~21:30", "09:30~21:30", "10:00~21:30"]}, {"name": "\ub3d9\uc77c\uc57d\uad6d", "lat": "37.85746420139034", "lng": "126.78441531472085", "url": "/info/%EB%8F%99%EC%9D%BC%EC%95%BD%EA%B5%AD-%EA%B2%BD%EA%B8%B0%EB%8F%84-%ED%8C%8C%EC%A3%BC%EC%8B%9C-%EB%AC%B8%EC%82%B0%EC%9D%8D/", "workingTime": ["-", "09:00~19:00", "09:00~19:00", "09:00~19:00", "09:00~19:00", "09:00~19:00", "09:00~15:00", "-"]}, {"name": "\uc5d0\ub108\uc9c0\uc57d\uad6d", "lat": "37.85672386845345", "lng": "126.78552652692937", "url": "/info/%EC%97%90%EB%84%88%EC%A7%80%EC%95%BD%EA%B5%AD-%EA%B2%BD%EA%B8%B0%EB%8F%84-%ED%8C%8C%EC%A3%BC%EC%8B%9C-%EB%AC%B8%EC%82%B0%EC%9D%8D/", "workingTime": ["-", "09:00~20:00", "09:00~20:00", "09:00~19:00", "09:00~20:00", "09:00~19:00", "09:00~14:00", "-"]}, {"name": "\uc5d4\uc824\uc57d\uad6d", "lat": "37.86777212896348", "lng": "126.78504423434151", "url": "/info/%EC%97%94%EC%A0%A4%EC%95%BD%EA%B5%AD-%EA%B2%BD%EA%B8%B0%EB%8F%84-%ED%8C%8C%EC%A3%BC%EC%8B%9C-%EB%AC%B8%EC%82%B0%EC%9D%8D/", "workingTime": ["-", "09:00~12:00", "09:00~12:00", "09:00~12:00", "09:00~12:00", "09:00~12:00", "09:00~14:00", "-"]}, {"name": "\uc740\uad11\uc57d\uad6d", "lat": "37.8658570593", "lng": "126.8044509673", "url": "/info/%EC%9D%80%EA%B4%91%EC%95%BD%EA%B5%AD-%EA%B2%BD%EA%B8%B0%EB%8F%84-%ED%8C%8C%EC%A3%BC%EC%8B%9C-%EB%AC%B8%EC%82%B0%EC%9D%8D/", "workingTime": ["-", "09:00~20:30", "09:00~20:30", "09:00~20:30", "09:00~20:30", "09:00~20:30", "09:00~14:30", "-"]}, {"name": "\uc815\uc131\uc57d\uad6d", "lat": "37.86986757641013", "lng": "126.78553315457663", "url": "/info/%EC%A0%95%EC%84%B1%EC%95%BD%EA%B5%AD-%EA%B2%BD%EA%B8%B0%EB%8F%84-%ED%8C%8C%EC%A3%BC%EC%8B%9C-%EB%AC%B8%EC%82%B0%EC%9D%8D/", "workingTime": ["1,2,3,4,5\uc9f8\uc8fc10:00~22:00", "10:00~22:00", "10:00~22:00", "10:00~22:00", "10:00~22:00", "10:00~22:00", "10:00~22:00", "10:00~22:00"]}, {"name": "\ubb38\uc0b0\uc57d\uad6d", "lat": "37.856388486720085", "lng": "126.78344579060277", "url": "/info/%EB%AC%B8%EC%82%B0%EC%95%BD%EA%B5%AD-%EA%B2%BD%EA%B8%B0%EB%8F%84-%ED%8C%8C%EC%A3%BC%EC%8B%9C-%EB%AC%B8%EC%82%B0%EC%9D%8D/", "workingTime": ["1,2,3,4,5\uc9f8\uc8fc09:00~15:00", "09:00~20:00", "09:00~20:00", "09:00~20:00", "09:00~20:00", "09:00~20:00", "09:00~18:00", "09:00~15:00"]}, {"name": "\ud3ec\ub3c4\ub098\ubb34\uc57d\uad6d", "lat": "37.86410615715178", "lng": "126.78065471781777", "url": "/info/%ED%8F%AC%EB%8F%84%EB%82%98%EB%AC%B4%EC%95%BD%EA%B5%AD-%EA%B2%BD%EA%B8%B0%EB%8F%84-%ED%8C%8C%EC%A3%BC%EC%8B%9C-%EB%AC%B8%EC%82%B0%EC%9D%8D/", "workingTime": ["1,2,3,4,5\uc9f8\uc8fc09:00~18:00", "09:00~21:00", "09:00~21:00", "09:00~21:00", "09:00~21:00", "09:00~21:00", "09:00~19:00", "09:00~18:00"]}, {"name": "\ubbfc\uacbd\uc57d\uad6d", "lat": "37.85787586593749", "lng": "126.78486863937215", "url": "/info/%EB%AF%BC%EA%B2%BD%EC%95%BD%EA%B5%AD-%EA%B2%BD%EA%B8%B0%EB%8F%84-%ED%8C%8C%EC%A3%BC%EC%8B%9C-%EB%AC%B8%EC%82%B0%EC%9D%8D/", "workingTime": ["-", "09:00~19:00", "09:00~19:00", "09:00~19:00", "09:00~19:00", "09:00~19:00", "09:00~14:00", "-"]}, {"name": "\ud638\uc120\uc57d\uad6d", "lat": "37.861004039905396", "lng": "126.78751117669367", "url": "/info/%ED%98%B8%EC%84%A0%EC%95%BD%EA%B5%AD-%EA%B2%BD%EA%B8%B0%EB%8F%84-%ED%8C%8C%EC%A3%BC%EC%8B%9C-%EB%AC%B8%EC%82%B0%EC%9D%8D/", "workingTime": ["-", "09:00~19:00", "09:00~19:00", "09:00~19:00", "09:00~19:00", "09:00~19:00", "09:00~17:00", "09:00~17:00"]}, {"name": "\ub298\ud478\ub978\uc57d\uad6d", "lat": "37.86001498100971", "lng": "126.78661628187258", "url": "/info/%EB%8A%98%ED%91%B8%EB%A5%B8%EC%95%BD%EA%B5%AD-%EA%B2%BD%EA%B8%B0%EB%8F%84-%ED%8C%8C%EC%A3%BC%EC%8B%9C-%EB%AC%B8%EC%82%B0%EC%9D%8D/", "workingTime": ["09:00~16:00(\uc5f0\ub77d\ud6c4\ubc29\ubb38\uc694\ub9dd)", "09:00~18:00", "09:00~18:00", "09:00~18:00", "09:00~18:00", "09:00~18:00", "09:00~16:00", "-"]}, {"name": "\uc2e0\uc601\uc57d\uad6d", "lat": "37.85861926255347", "lng": "126.78603849378072", "url": "/info/%EC%8B%A0%EC%98%81%EC%95%BD%EA%B5%AD-%EA%B2%BD%EA%B8%B0%EB%8F%84-%ED%8C%8C%EC%A3%BC%EC%8B%9C-%EB%AC%B8%EC%82%B0%EC%9D%8D/", "workingTime": ["1,2,3,4,5\uc9f8\uc8fc10:00~13:00", "09:30~21:00", "09:30~21:00", "09:30~21:00", "09:30~21:00", "09:30~21:00", "09:30~21:00", "10:00~17:00"]}, {"name": "\uc6b0\ub9ac\uc628\ub204\ub9ac\uc57d\uad6d", "lat": "37.8664530601", "lng": "126.7845884152", "url": "/info/%EC%9A%B0%EB%A6%AC%EC%98%A8%EB%88%84%EB%A6%AC%EC%95%BD%EA%B5%AD-%EA%B2%BD%EA%B8%B0%EB%8F%84-%ED%8C%8C%EC%A3%BC%EC%8B%9C-%EB%AC%B8%EC%82%B0%EC%9D%8D/", "workingTime": ["10:00~13:00(\uc5f0\ub77d\ud6c4\ubc29\ubb38\uc694\ub9dd)", "10:00~13:00", "10:00~13:00", "10:00~13:00", "10:00~13:00", "10:00~13:00", "09:00~14:00", "10:00~13:00"]}, {"name": "\uc870\uc57d\uad6d", "lat": "37.85722066868955", "lng": "126.78524326996553", "url": "/info/%EC%A1%B0%EC%95%BD%EA%B5%AD-%EA%B2%BD%EA%B8%B0%EB%8F%84-%ED%8C%8C%EC%A3%BC%EC%8B%9C-%EB%AC%B8%EC%82%B0%EC%9D%8D/", "workingTime": ["08:30~17:00(\uc5f0\ub77d\ud6c4\ubc29\ubb38\uc694\ub9dd)", "11:00~18:00", "11:00~18:00", "11:00~18:00", "11:00~18:00", "11:00~18:00", "08:30~17:00", "09:00~15:00"]}]