[{"name": "\uc5ec\ub984\uc57d\uad6d", "lat": "38.0261800921781", "lng": "127.067263634793", "url": "/info/%EC%97%AC%EB%A6%84%EC%95%BD%EA%B5%AD-%EA%B2%BD%EA%B8%B0%EB%8F%84-%EC%97%B0%EC%B2%9C%EA%B5%B0-%EC%A0%84%EA%B3%A1%EC%9D%8D/", "workingTime": ["-", "09:00~18:00", "09:00~18:00", "09:00~18:00", "09:00~18:00", "09:00~18:00", "09:00~13:00", "-"]}, {"name": "\uc6b0\ub9ac\uc57d\uad6d", "lat": "38.0242345956891", "lng": "127.06855246490156", "url": "/info/%EC%9A%B0%EB%A6%AC%EC%95%BD%EA%B5%AD-%EA%B2%BD%EA%B8%B0%EB%8F%84-%EC%97%B0%EC%B2%9C%EA%B5%B0-%EC%A0%84%EA%B3%A1%EC%9D%8D/", "workingTime": ["-", "09:00~18:30", "09:00~18:30", "09:00~18:30", "09:00~18:30", "09:00~18:30", "09:00~13:00", "-"]}, {"name": "\ud589\uc6b4\uc57d\uad6d", "lat": "38.03018011316", "lng": "127.065662785703", "url": "/info/%ED%96%89%EC%9A%B4%EC%95%BD%EA%B5%AD-%EA%B2%BD%EA%B8%B0%EB%8F%84-%EC%97%B0%EC%B2%9C%EA%B5%B0-%EC%A0%84%EA%B3%A1%EC%9D%8D/", "workingTime": ["-", "10:00~18:00", "10:00~18:00", "10:00~18:00", "10:00~18:00", "10:00~18:00", "-", "-"]}, {"name": "\ub7ed\ud0a4\uc57d\uad6d", "lat": "38.02652341340014", "lng": "127.0676935172792", "url": "/info/%EB%9F%AD%ED%82%A4%EC%95%BD%EA%B5%AD-%EA%B2%BD%EA%B8%B0%EB%8F%84-%EC%97%B0%EC%B2%9C%EA%B5%B0-%EC%A0%84%EA%B3%A1%EC%9D%8D/", "workingTime": ["11:00~21:00(\uc5f0\ub77d\ud6c4\ubc29\ubb38\uc694\ub9dd)", "08:30~20:30", "08:30~20:30", "08:30~20:30", "08:30~20:30", "08:30~20:30", "08:00~21:00", "-"]}, {"name": "\ub3d9\ub9bc\uc57d\uad6d", "lat": "38.02434659934859", "lng": "127.06133195334576", "url": "/info/%EB%8F%99%EB%A6%BC%EC%95%BD%EA%B5%AD-%EA%B2%BD%EA%B8%B0%EB%8F%84-%EC%97%B0%EC%B2%9C%EA%B5%B0-%EC%A0%84%EA%B3%A1%EC%9D%8D/", "workingTime": ["-", "08:00~17:30", "08:00~17:30", "08:00~17:30", "08:00~17:30", "08:00~17:30", "-", "-"]}, {"name": "\uad11\uc2e0\uc57d\uad6d", "lat": "38.02704519167358", "lng": "127.06788938900732", "url": "/info/%EA%B4%91%EC%8B%A0%EC%95%BD%EA%B5%AD-%EA%B2%BD%EA%B8%B0%EB%8F%84-%EC%97%B0%EC%B2%9C%EA%B5%B0-%EC%A0%84%EA%B3%A1%EC%9D%8D/", "workingTime": ["09:00~22:00(\uc5f0\ub77d\ud6c4\ubc29\ubb38\uc694\ub9dd)", "09:00~20:00", "09:00~20:00", "09:00~20:00", "09:00~20:00", "09:00~20:00", "09:00~20:00", "-"]}, {"name": "\ubcf4\uacbd\uc57d\uad6d", "lat": "38.02677547232019", "lng": "127.06804453610123", "url": "/info/%EB%B3%B4%EA%B2%BD%EC%95%BD%EA%B5%AD-%EA%B2%BD%EA%B8%B0%EB%8F%84-%EC%97%B0%EC%B2%9C%EA%B5%B0-%EC%A0%84%EA%B3%A1%EC%9D%8D/", "workingTime": ["-", "07:00~18:30", "07:00~18:30", "07:00~18:30", "07:00~18:30", "07:00~18:30", "-", "-"]}, {"name": "\uc131\uc2ec\ubbf8\uc18c\uc57d\uad6d", "lat": "38.027572346562685", "lng": "127.06722065814596", "url": "/info/%EC%84%B1%EC%8B%AC%EB%AF%B8%EC%86%8C%EC%95%BD%EA%B5%AD-%EA%B2%BD%EA%B8%B0%EB%8F%84-%EC%97%B0%EC%B2%9C%EA%B5%B0-%EC%A0%84%EA%B3%A1%EC%9D%8D/", "workingTime": ["08:30~14:00(\uc5f0\ub77d\ud6c4\ubc29\ubb38\uc694\ub9dd)", "08:30~20:30", "08:30~20:30", "08:30~20:30", "08:30~20:30", "08:30~20:30", "08:30~16:00", "-"]}, {"name": "\ucf54\ub9ac\uc544\uc57d\uad6d", "lat": "38.02708208698637", "lng": "127.06750723342094", "url": "/info/%EC%BD%94%EB%A6%AC%EC%95%84%EC%95%BD%EA%B5%AD-%EA%B2%BD%EA%B8%B0%EB%8F%84-%EC%97%B0%EC%B2%9C%EA%B5%B0-%EC%A0%84%EA%B3%A1%EC%9D%8D/", "workingTime": ["-", "09:00~19:00", "09:00~19:00", "09:00~19:00", "09:00~19:00", "09:00~19:00", "-", "-"]}, {"name": "\uc804\uace1\uc885\ub85c\uc57d\uad6d", "lat": "38.02477898798271", "lng": "127.0681338438019", "url": "/info/%EC%A0%84%EA%B3%A1%EC%A2%85%EB%A1%9C%EC%95%BD%EA%B5%AD-%EA%B2%BD%EA%B8%B0%EB%8F%84-%EC%97%B0%EC%B2%9C%EA%B5%B0-%EC%A0%84%EA%B3%A1%EC%9D%8D/", "workingTime": ["10:00~20:00(\uc5f0\ub77d\ud6c4\ubc29\ubb38\uc694\ub9dd)", "09:00~20:00", "09:00~20:00", "09:00~20:00", "09:00~20:00", "09:00~20:00", "09:00~20:00", "-"]}, {"name": "\ud0dc\uc591\uc57d\uad6d", "lat": "38.02564077576608", "lng": "127.06766941896005", "url": "/info/%ED%83%9C%EC%96%91%EC%95%BD%EA%B5%AD-%EA%B2%BD%EA%B8%B0%EB%8F%84-%EC%97%B0%EC%B2%9C%EA%B5%B0-%EC%A0%84%EA%B3%A1%EC%9D%8D/", "workingTime": ["-", "08:30~20:00", "08:30~20:00", "08:30~20:00", "08:30~20:00", "08:30~20:00", "08:30~18:00", "-"]}, {"name": "\ud76c\ub9dd\uc57d\uad6d", "lat": "38.02521030349629", "lng": "127.06892753078418", "url": "/info/%ED%9D%AC%EB%A7%9D%EC%95%BD%EA%B5%AD-%EA%B2%BD%EA%B8%B0%EB%8F%84-%EC%97%B0%EC%B2%9C%EA%B5%B0-%EC%A0%84%EA%B3%A1%EC%9D%8D/", "workingTime": ["10:00~19:00(\uc5f0\ub77d\ud6c4\ubc29\ubb38\uc694\ub9dd)", "08:00~20:00", "08:00~20:00", "08:00~20:00", "08:00~20:00", "08:00~20:00", "08:00~18:00", "-"]}, {"name": "\uc804\uace1\uc57d\uad6d", "lat": "38.024544085760084", "lng": "127.06929531028607", "url": "/info/%EC%A0%84%EA%B3%A1%EC%95%BD%EA%B5%AD-%EA%B2%BD%EA%B8%B0%EB%8F%84-%EC%97%B0%EC%B2%9C%EA%B5%B0-%EC%A0%84%EA%B3%A1%EC%9D%8D/", "workingTime": ["-", "08:30~21:00", "08:30~21:00", "08:30~21:00", "08:30~21:00", "08:30~21:00", "08:30~20:30", "09:00~21:00"]}, {"name": "\ud61c\uc131\uc57d\uad6d", "lat": "38.0242564171067", "lng": "127.06820170461566", "url": "/info/%ED%98%9C%EC%84%B1%EC%95%BD%EA%B5%AD-%EA%B2%BD%EA%B8%B0%EB%8F%84-%EC%97%B0%EC%B2%9C%EA%B5%B0-%EC%A0%84%EA%B3%A1%EC%9D%8D/", "workingTime": ["-", "09:00~19:00", "09:00~19:00", "09:00~19:00", "09:00~19:00", "09:00~19:00", "09:00~13:00", "09:00~22:00"]}]