[{"name": "\ud587\uc0b4\uc57d\uad6d", "lat": "37.2332224680111", "lng": "127.187567567897", "url": "/info/%ED%96%87%EC%82%B4%EC%95%BD%EA%B5%AD-%EA%B2%BD%EA%B8%B0%EB%8F%84-%EC%9A%A9%EC%9D%B8%EC%8B%9C-%EC%97%AD%EB%B6%81%EB%8F%99/", "workingTime": ["-", "09:00~18:00", "09:00~18:00", "09:00~18:00", "09:00~18:00", "09:00~18:00", "09:00~13:00", "-"]}, {"name": "\uc6d0\uae30\uc57d\uad6d", "lat": "37.232710179345", "lng": "127.188106755306", "url": "/info/%EC%9B%90%EA%B8%B0%EC%95%BD%EA%B5%AD-%EA%B2%BD%EA%B8%B0%EB%8F%84-%EC%9A%A9%EC%9D%B8%EC%8B%9C-%EC%97%AD%EB%B6%81%EB%8F%99/", "workingTime": ["-", "09:00~18:00", "09:00~18:00", "09:00~18:00", "09:00~18:00", "09:00~18:00", "09:00~13:00", "-"]}, {"name": "\ub9c8\uc74c\uc18d\uc57d\uad6d", "lat": "37.230947649", "lng": "127.18776274", "url": "/info/%EB%A7%88%EC%9D%8C%EC%86%8D%EC%95%BD%EA%B5%AD-%EA%B2%BD%EA%B8%B0%EB%8F%84-%EC%9A%A9%EC%9D%B8%EC%8B%9C-%EC%97%AD%EB%B6%81%EB%8F%99/", "workingTime": ["1,2,3,4,5\uc9f8\uc8fc09:00~21:00", "09:00~21:00", "09:00~21:00", "09:00~21:00", "09:00~21:00", "09:00~21:00", "09:00~21:00", "09:00~21:00"]}, {"name": "\uc6b0\ub9ac\uc57d\uad6d", "lat": "37.2385067605119", "lng": "127.192660731296", "url": "/info/%EC%9A%B0%EB%A6%AC%EC%95%BD%EA%B5%AD-%EA%B2%BD%EA%B8%B0%EB%8F%84-%EC%9A%A9%EC%9D%B8%EC%8B%9C-%EC%97%AD%EB%B6%81%EB%8F%99/", "workingTime": ["-", "10:00~18:00", "10:00~18:00", "10:00~18:00", "10:00~18:00", "10:00~18:00", "-", "-"]}, {"name": "\ud568\ubc15\uc57d\uad6d", "lat": "37.2312919695892", "lng": "127.186717295977", "url": "/info/%ED%95%A8%EB%B0%95%EC%95%BD%EA%B5%AD-%EA%B2%BD%EA%B8%B0%EB%8F%84-%EC%9A%A9%EC%9D%B8%EC%8B%9C-%EC%97%AD%EB%B6%81%EB%8F%99/", "workingTime": ["-", "08:00~21:00", "08:00~21:00", "08:00~21:00", "08:00~21:00", "08:00~21:00", "-", "-"]}, {"name": "\uba85\uc9c0\uc57d\uad6d", "lat": "37.23619060510872", "lng": "127.18994947813025", "url": "/info/%EB%AA%85%EC%A7%80%EC%95%BD%EA%B5%AD-%EA%B2%BD%EA%B8%B0%EB%8F%84-%EC%9A%A9%EC%9D%B8%EC%8B%9C-%EC%97%AD%EB%B6%81%EB%8F%99/", "workingTime": ["-", "09:00~20:00", "09:00~20:00", "09:00~20:00", "09:00~20:00", "09:00~20:00", "09:00~14:00", "-"]}, {"name": "\uad11\uc7a5\uc57d\uad6d", "lat": "37.23160341480063", "lng": "127.18788606844562", "url": "/info/%EA%B4%91%EC%9E%A5%EC%95%BD%EA%B5%AD-%EA%B2%BD%EA%B8%B0%EB%8F%84-%EC%9A%A9%EC%9D%B8%EC%8B%9C-%EC%97%AD%EB%B6%81%EB%8F%99/", "workingTime": ["-", "09:00~20:00", "09:00~20:00", "09:00~20:00", "09:00~20:00", "09:00~20:00", "-", "-"]}, {"name": "\uc6a9\uc778\ud30c\ub780\ubb38\uc57d\uad6d", "lat": "37.2318484196181", "lng": "127.18793625898553", "url": "/info/%EC%9A%A9%EC%9D%B8%ED%8C%8C%EB%9E%80%EB%AC%B8%EC%95%BD%EA%B5%AD-%EA%B2%BD%EA%B8%B0%EB%8F%84-%EC%9A%A9%EC%9D%B8%EC%8B%9C-%EC%97%AD%EB%B6%81%EB%8F%99/", "workingTime": ["-", "09:00~20:00", "09:00~20:00", "09:00~20:00", "09:00~20:00", "09:00~20:00", "09:00~16:00", "-"]}, {"name": "\uafc8\ube5b\uc628\ub204\ub9ac\uc57d\uad6d", "lat": "37.2323510468", "lng": "127.1868962651", "url": "/info/%EA%BF%88%EB%B9%9B%EC%98%A8%EB%88%84%EB%A6%AC%EC%95%BD%EA%B5%AD-%EA%B2%BD%EA%B8%B0%EB%8F%84-%EC%9A%A9%EC%9D%B8%EC%8B%9C-%EC%97%AD%EB%B6%81%EB%8F%99/", "workingTime": ["-", "09:00~21:00", "09:00~21:00", "09:00~21:00", "09:00~21:00", "09:00~21:00", "09:00~18:00", "-"]}]