[{"name": "\uc138\ube10\uc57d\uad6d", "lat": "37.50522119833573", "lng": "126.75244337314142", "url": "/info/%EC%84%B8%EB%B8%90%EC%95%BD%EA%B5%AD-%EA%B2%BD%EA%B8%B0%EB%8F%84-%EB%B6%80%EC%B2%9C%EC%8B%9C-%EC%83%81%EB%8F%99/", "workingTime": ["-", "09:00~21:00", "09:00~21:00", "09:00~21:00", "09:00~21:00", "09:00~21:00", "09:00~16:00", "-"]}, {"name": "\uc2b9\uc778\uc57d\uad6d", "lat": "37.4939125916", "lng": "126.7528199239", "url": "/info/%EC%8A%B9%EC%9D%B8%EC%95%BD%EA%B5%AD-%EA%B2%BD%EA%B8%B0%EB%8F%84-%EB%B6%80%EC%B2%9C%EC%8B%9C-%EC%83%81%EB%8F%99/", "workingTime": ["-", "09:00~21:00", "09:00~21:00", "09:00~21:00", "09:00~21:00", "09:00~21:00", "09:00~15:00", "09:00~13:00"]}, {"name": "\uc0c1\ub3d9\uc628\ub204\ub9ac\uc57d\uad6d", "lat": "37.506781077313676", "lng": "126.75384968440417", "url": "/info/%EC%83%81%EB%8F%99%EC%98%A8%EB%88%84%EB%A6%AC%EC%95%BD%EA%B5%AD-%EA%B2%BD%EA%B8%B0%EB%8F%84-%EB%B6%80%EC%B2%9C%EC%8B%9C-%EC%83%81%EB%8F%99/", "workingTime": ["1,2,3,4,5\uc9f8\uc8fc12:00~18:00", "09:00~21:00", "09:00~21:00", "09:00~21:00", "09:00~21:00", "09:00~21:00", "09:00~21:00", "12:00~18:00"]}, {"name": "\uc0c1\ub3d9\ud504\ub77c\uc790\uc57d\uad6d", "lat": "37.50349347868589", "lng": "126.75349859588331", "url": "/info/%EC%83%81%EB%8F%99%ED%94%84%EB%9D%BC%EC%9E%90%EC%95%BD%EA%B5%AD-%EA%B2%BD%EA%B8%B0%EB%8F%84-%EB%B6%80%EC%B2%9C%EC%8B%9C-%EC%83%81%EB%8F%99/", "workingTime": ["-", "09:00~21:00", "09:00~21:00", "09:00~21:00", "09:00~21:00", "09:00~21:00", "09:00~18:00", "-"]}, {"name": "\uc2dc\uc6d0\uc57d\uad6d", "lat": "37.5052229479291", "lng": "126.752415072561", "url": "/info/%EC%8B%9C%EC%9B%90%EC%95%BD%EA%B5%AD-%EA%B2%BD%EA%B8%B0%EB%8F%84-%EB%B6%80%EC%B2%9C%EC%8B%9C-%EC%83%81%EB%8F%99/", "workingTime": ["-", "09:00~18:00", "09:00~18:00", "09:00~18:00", "09:00~18:00", "09:00~18:00", "-", "-"]}, {"name": "\uac74\uac15\ub3cc\ubd04\uc57d\uad6d", "lat": "37.5046029892587", "lng": "126.752382399315", "url": "/info/%EA%B1%B4%EA%B0%95%EB%8F%8C%EB%B4%84%EC%95%BD%EA%B5%AD-%EA%B2%BD%EA%B8%B0%EB%8F%84-%EB%B6%80%EC%B2%9C%EC%8B%9C-%EC%83%81%EB%8F%99/", "workingTime": ["-", "09:00~18:00", "09:00~18:00", "09:00~18:00", "09:00~18:00", "09:00~18:00", "09:00~13:00", "-"]}, {"name": "\uba54\ub514\ud31c\ud558\ub098\ub85c\uc57d\uad6d", "lat": "37.49131064146065", "lng": "126.75289636461144", "url": "/info/%EB%A9%94%EB%94%94%ED%8C%9C%ED%95%98%EB%82%98%EB%A1%9C%EC%95%BD%EA%B5%AD-%EA%B2%BD%EA%B8%B0%EB%8F%84-%EB%B6%80%EC%B2%9C%EC%8B%9C-%EC%83%81%EB%8F%99/", "workingTime": ["1,2,3,4,5\uc9f8\uc8fc11:00~21:00", "08:30~22:00", "08:30~22:00", "08:30~22:00", "08:30~22:00", "08:30~22:00", "09:00~22:00", "11:00~21:00"]}, {"name": "\ubc15\uc57d\uad6d", "lat": "37.4885936343074", "lng": "126.762681060809", "url": "/info/%EB%B0%95%EC%95%BD%EA%B5%AD-%EA%B2%BD%EA%B8%B0%EB%8F%84-%EB%B6%80%EC%B2%9C%EC%8B%9C-%EC%83%81%EB%8F%99/", "workingTime": ["-", "09:00~20:00", "09:00~20:00", "09:00~20:00", "09:00~20:00", "09:00~20:00", "09:00~16:00", "-"]}, {"name": "\ubcc4\ub2d8\uc57d\uad6d", "lat": "37.5051341587108", "lng": "126.753731929013", "url": "/info/%EB%B3%84%EB%8B%98%EC%95%BD%EA%B5%AD-%EA%B2%BD%EA%B8%B0%EB%8F%84-%EB%B6%80%EC%B2%9C%EC%8B%9C-%EC%83%81%EB%8F%99/", "workingTime": ["-", "-", "-", "-", "-", "-", "-", "-"]}, {"name": "\ubbf8\uc18c\ub2f4\uc57d\uad6d", "lat": "37.492674682382074", "lng": "126.76432182677374", "url": "/info/%EB%AF%B8%EC%86%8C%EB%8B%B4%EC%95%BD%EA%B5%AD-%EA%B2%BD%EA%B8%B0%EB%8F%84-%EB%B6%80%EC%B2%9C%EC%8B%9C-%EC%83%81%EB%8F%99/", "workingTime": ["-", "09:00~21:00", "09:00~21:00", "09:00~21:00", "09:00~21:00", "09:00~21:00", "09:00~21:00", "-"]}, {"name": "\ubbf8\ub798\uc57d\uad6d", "lat": "37.49276957430917", "lng": "126.76386841763173", "url": "/info/%EB%AF%B8%EB%9E%98%EC%95%BD%EA%B5%AD-%EA%B2%BD%EA%B8%B0%EB%8F%84-%EB%B6%80%EC%B2%9C%EC%8B%9C-%EC%83%81%EB%8F%99/", "workingTime": ["-", "09:00~20:00", "09:00~20:00", "09:00~20:00", "09:00~20:00", "09:00~19:00", "09:00~18:00", "-"]}, {"name": "\uc740\ud558\uc218\uc57d\uad6d", "lat": "37.50648667307403", "lng": "126.75788150431856", "url": "/info/%EC%9D%80%ED%95%98%EC%88%98%EC%95%BD%EA%B5%AD-%EA%B2%BD%EA%B8%B0%EB%8F%84-%EB%B6%80%EC%B2%9C%EC%8B%9C-%EC%83%81%EB%8F%99/", "workingTime": ["1,2,3,4,5\uc9f8\uc8fc09:00~18:00", "09:00~21:00", "09:00~21:00", "09:00~21:00", "09:00~21:00", "09:00~21:00", "09:00~18:00", "09:00~18:00"]}, {"name": "\ubaa9\ub828\uc57d\uad6d", "lat": "37.493898144307636", "lng": "126.7476906563597", "url": "/info/%EB%AA%A9%EB%A0%A8%EC%95%BD%EA%B5%AD-%EA%B2%BD%EA%B8%B0%EB%8F%84-%EB%B6%80%EC%B2%9C%EC%8B%9C-%EC%83%81%EB%8F%99/", "workingTime": ["-", "09:00~20:00", "09:00~20:00", "09:00~20:00", "09:00~20:00", "09:00~20:00", "09:00~19:00", "-"]}, {"name": "\uc0c1\ub3d9\ubcf8\uc57d\uad6d", "lat": "37.4895977666448", "lng": "126.763245627074", "url": "/info/%EC%83%81%EB%8F%99%EB%B3%B8%EC%95%BD%EA%B5%AD-%EA%B2%BD%EA%B8%B0%EB%8F%84-%EB%B6%80%EC%B2%9C%EC%8B%9C-%EC%83%81%EB%8F%99/", "workingTime": ["-", "09:00~21:00", "09:00~21:00", "09:00~21:00", "09:00~21:00", "09:00~21:00", "-", "-"]}, {"name": "\ub298\ud514\uc628\ub204\ub9ac\uc57d\uad6d", "lat": "37.50349147986474", "lng": "126.7533710097535", "url": "/info/%EB%8A%98%ED%94%94%EC%98%A8%EB%88%84%EB%A6%AC%EC%95%BD%EA%B5%AD-%EA%B2%BD%EA%B8%B0%EB%8F%84-%EB%B6%80%EC%B2%9C%EC%8B%9C-%EC%83%81%EB%8F%99/", "workingTime": ["-", "09:00~19:30", "09:00~19:30", "09:00~19:30", "09:00~19:30", "09:00~19:30", "09:00~16:00", "-"]}, {"name": "\uacbd\uae30\ud504\ub77c\uc790\uc57d\uad6d", "lat": "37.50524538233203", "lng": "126.75194566535553", "url": "/info/%EA%B2%BD%EA%B8%B0%ED%94%84%EB%9D%BC%EC%9E%90%EC%95%BD%EA%B5%AD-%EA%B2%BD%EA%B8%B0%EB%8F%84-%EB%B6%80%EC%B2%9C%EC%8B%9C-%EC%83%81%EB%8F%99/", "workingTime": ["-", "09:00~21:00", "09:00~21:00", "09:00~21:00", "09:00~21:00", "09:00~21:00", "09:00~21:00", "09:00~14:00"]}, {"name": "\uc138\ube10\uc6f0\uc57d\uad6d", "lat": "37.50431300706194", "lng": "126.75500590554674", "url": "/info/%EC%84%B8%EB%B8%90%EC%9B%B0%EC%95%BD%EA%B5%AD-%EA%B2%BD%EA%B8%B0%EB%8F%84-%EB%B6%80%EC%B2%9C%EC%8B%9C-%EC%83%81%EB%8F%99/", "workingTime": ["09:00~23:00(\uc5f0\ub77d\ud6c4\ubc29\ubb38\uc694\ub9dd)", "09:00~23:00", "09:00~23:00", "09:00~23:00", "09:00~23:00", "09:00~23:00", "09:00~24:00", "-"]}, {"name": "\uc5c4\uc9c0\uc57d\uad6d", "lat": "37.5041457952342", "lng": "126.75670653635", "url": "/info/%EC%97%84%EC%A7%80%EC%95%BD%EA%B5%AD-%EA%B2%BD%EA%B8%B0%EB%8F%84-%EB%B6%80%EC%B2%9C%EC%8B%9C-%EC%83%81%EB%8F%99/", "workingTime": ["-", "09:00~18:00", "09:00~18:00", "09:00~18:00", "09:00~18:00", "09:00~18:00", "-", "-"]}, {"name": "5\uce35\uc57d\uad6d", "lat": "37.5051341587108", "lng": "126.753731929013", "url": "/info/5%EC%B8%B5%EC%95%BD%EA%B5%AD-%EA%B2%BD%EA%B8%B0%EB%8F%84-%EB%B6%80%EC%B2%9C%EC%8B%9C-%EC%83%81%EB%8F%99/", "workingTime": ["-", "09:00~18:00", "09:00~18:00", "09:00~18:00", "09:00~18:00", "09:00~18:00", "09:00~13:00", "-"]}, {"name": "\uad11\uc7a5\uc57d\uad6d", "lat": "37.488109600858174", "lng": "126.75257674044752", "url": "/info/%EA%B4%91%EC%9E%A5%EC%95%BD%EA%B5%AD-%EA%B2%BD%EA%B8%B0%EB%8F%84-%EB%B6%80%EC%B2%9C%EC%8B%9C-%EC%83%81%EB%8F%99/", "workingTime": ["-", "08:45~19:00", "08:45~19:00", "08:45~19:00", "08:45~19:00", "08:45~19:00", "08:45~19:00", "-"]}, {"name": "\ud0dc\uc6d0\uc628\ub204\ub9ac\uc57d\uad6d", "lat": "37.4882085608489", "lng": "126.76485598773489", "url": "/info/%ED%83%9C%EC%9B%90%EC%98%A8%EB%88%84%EB%A6%AC%EC%95%BD%EA%B5%AD-%EA%B2%BD%EA%B8%B0%EB%8F%84-%EB%B6%80%EC%B2%9C%EC%8B%9C-%EC%83%81%EB%8F%99/", "workingTime": ["-", "09:00~19:00", "09:00~19:00", "09:00~19:00", "09:00~19:00", "09:00~19:00", "09:00~17:00", "-"]}, {"name": "\uc740\ud589\uc57d\uad6d", "lat": "37.4885272058449", "lng": "126.762265618032", "url": "/info/%EC%9D%80%ED%96%89%EC%95%BD%EA%B5%AD-%EA%B2%BD%EA%B8%B0%EB%8F%84-%EB%B6%80%EC%B2%9C%EC%8B%9C-%EC%83%81%EB%8F%99/", "workingTime": ["-", "09:00~18:00", "09:00~18:00", "09:00~18:00", "09:00~18:00", "09:00~18:00", "-", "-"]}, {"name": "\ud55c\ubbf8\uc18c\uc57d\uad6d", "lat": "37.5125682944", "lng": "126.7534551601", "url": "/info/%ED%95%9C%EB%AF%B8%EC%86%8C%EC%95%BD%EA%B5%AD-%EA%B2%BD%EA%B8%B0%EB%8F%84-%EB%B6%80%EC%B2%9C%EC%8B%9C-%EC%83%81%EB%8F%99/", "workingTime": ["-", "09:00~21:00", "09:00~21:00", "09:00~21:00", "09:00~21:00", "09:00~21:00", "-", "-"]}, {"name": "\uc544\ub77c\uc57d\uad6d", "lat": "37.505261820268494", "lng": "126.75119010063707", "url": "/info/%EC%95%84%EB%9D%BC%EC%95%BD%EA%B5%AD-%EA%B2%BD%EA%B8%B0%EB%8F%84-%EB%B6%80%EC%B2%9C%EC%8B%9C-%EC%83%81%EB%8F%99/", "workingTime": ["-", "09:00~21:00", "09:00~21:00", "09:00~21:00", "09:00~21:00", "09:00~21:00", "-", "10:00~15:00"]}, {"name": "\uc57d\ucd08\ub2f9\ud55c\uc57d\uad6d", "lat": "37.491967176736104", "lng": "126.76375864305802", "url": "/info/%EC%95%BD%EC%B4%88%EB%8B%B9%ED%95%9C%EC%95%BD%EA%B5%AD-%EA%B2%BD%EA%B8%B0%EB%8F%84-%EB%B6%80%EC%B2%9C%EC%8B%9C-%EC%83%81%EB%8F%99/", "workingTime": ["1,2,3,4,5\uc9f8\uc8fc09:30~19:00", "09:30~19:00", "09:30~19:00", "09:30~19:00", "09:30~19:00", "09:30~19:00", "09:30~19:00", "09:30~19:00"]}, {"name": "\uc2a4\ub9c8\ud2b8\uc57d\uad6d", "lat": "37.50513380044101", "lng": "126.75373294806192", "url": "/info/%EC%8A%A4%EB%A7%88%ED%8A%B8%EC%95%BD%EA%B5%AD-%EA%B2%BD%EA%B8%B0%EB%8F%84-%EB%B6%80%EC%B2%9C%EC%8B%9C-%EC%83%81%EB%8F%99/", "workingTime": ["1,2,3,4,5\uc9f8\uc8fc13:00~20:00", "08:00~21:00", "08:00~21:00", "08:00~21:00", "08:00~21:00", "08:00~21:00", "08:00~20:00", "13:00~20:00"]}, {"name": "\uba85\ubb38\uc57d\uad6d", "lat": "37.488240750989156", "lng": "126.76382919632965", "url": "/info/%EB%AA%85%EB%AC%B8%EC%95%BD%EA%B5%AD-%EA%B2%BD%EA%B8%B0%EB%8F%84-%EB%B6%80%EC%B2%9C%EC%8B%9C-%EC%83%81%EB%8F%99/", "workingTime": ["-", "08:30~19:00", "08:30~19:00", "08:30~19:00", "08:30~19:00", "08:30~19:00", "08:30~16:30", "-"]}, {"name": "\uba54\uac00\ud31c\uc57d\uad6d", "lat": "37.50514289056063", "lng": "126.75374554745349", "url": "/info/%EB%A9%94%EA%B0%80%ED%8C%9C%EC%95%BD%EA%B5%AD-%EA%B2%BD%EA%B8%B0%EB%8F%84-%EB%B6%80%EC%B2%9C%EC%8B%9C-%EC%83%81%EB%8F%99/", "workingTime": ["-", "09:00~18:30", "09:00~18:30", "09:00~18:30", "09:00~18:30", "09:00~18:30", "09:00~14:00", "-"]}, {"name": "\ubb34\uc9c0\uac1c\uc57d\uad6d", "lat": "37.506354884763425", "lng": "126.7525336553465", "url": "/info/%EB%AC%B4%EC%A7%80%EA%B0%9C%EC%95%BD%EA%B5%AD-%EA%B2%BD%EA%B8%B0%EB%8F%84-%EB%B6%80%EC%B2%9C%EC%8B%9C-%EC%83%81%EB%8F%99/", "workingTime": ["-", "09:00~20:00", "09:00~20:00", "09:00~20:00", "09:00~20:00", "09:00~20:00", "09:00~18:00", "-"]}, {"name": "\uc6a9\ubb38\uc57d\uad6d", "lat": "37.49225531568294", "lng": "126.75009797260715", "url": "/info/%EC%9A%A9%EB%AC%B8%EC%95%BD%EA%B5%AD-%EA%B2%BD%EA%B8%B0%EB%8F%84-%EB%B6%80%EC%B2%9C%EC%8B%9C-%EC%83%81%EB%8F%99/", "workingTime": ["-", "09:00~19:00", "09:00~19:00", "09:00~19:00", "09:00~19:00", "09:00~19:00", "09:00~13:00", "-"]}, {"name": "\uba54\ub514\uce7c\uc57d\uad6d", "lat": "37.51269616747623", "lng": "126.7525634650051", "url": "/info/%EB%A9%94%EB%94%94%EC%B9%BC%EC%95%BD%EA%B5%AD-%EA%B2%BD%EA%B8%B0%EB%8F%84-%EB%B6%80%EC%B2%9C%EC%8B%9C-%EC%83%81%EB%8F%99/", "workingTime": ["-", "09:00~21:00", "09:00~21:00", "09:00~21:00", "09:00~21:00", "09:00~21:00", "09:00~19:00", "-"]}, {"name": "\uc0c1\ub3d9\uc2dc\uc7a5\uc57d\uad6d", "lat": "37.488646916905246", "lng": "126.76328517081418", "url": "/info/%EC%83%81%EB%8F%99%EC%8B%9C%EC%9E%A5%EC%95%BD%EA%B5%AD-%EA%B2%BD%EA%B8%B0%EB%8F%84-%EB%B6%80%EC%B2%9C%EC%8B%9C-%EC%83%81%EB%8F%99/", "workingTime": ["-", "09:00~19:30", "10:00~17:00", "10:00~17:00", "10:00~17:00", "10:00~17:00", "09:00~19:00", "10:00~17:00"]}, {"name": "\ub298\ud478\ub978\ud558\ub298\uc57d\uad6d", "lat": "37.50749294127354", "lng": "126.75302399476925", "url": "/info/%EB%8A%98%ED%91%B8%EB%A5%B8%ED%95%98%EB%8A%98%EC%95%BD%EA%B5%AD-%EA%B2%BD%EA%B8%B0%EB%8F%84-%EB%B6%80%EC%B2%9C%EC%8B%9C-%EC%83%81%EB%8F%99/", "workingTime": ["09:00~12:30(\uc5f0\ub77d\ud6c4\ubc29\ubb38\uc694\ub9dd)", "09:00~12:00", "09:00~12:00", "09:00~12:00", "09:00~12:00", "09:00~12:00", "09:00~17:00", "-"]}, {"name": "\ub298\ud478\ub978\uc57d\uad6d", "lat": "37.48823285276686", "lng": "126.75464780576516", "url": "/info/%EB%8A%98%ED%91%B8%EB%A5%B8%EC%95%BD%EA%B5%AD-%EA%B2%BD%EA%B8%B0%EB%8F%84-%EB%B6%80%EC%B2%9C%EC%8B%9C-%EC%83%81%EB%8F%99/", "workingTime": ["-", "09:00~19:00", "09:00~19:00", "09:00~19:00", "09:00~19:00", "09:00~19:00", "09:00~18:00", "-"]}, {"name": "\ud478\ub978\uc194\uc57d\uad6d", "lat": "37.50747314969807", "lng": "126.75302305621362", "url": "/info/%ED%91%B8%EB%A5%B8%EC%86%94%EC%95%BD%EA%B5%AD-%EA%B2%BD%EA%B8%B0%EB%8F%84-%EB%B6%80%EC%B2%9C%EC%8B%9C-%EC%83%81%EB%8F%99/", "workingTime": ["-", "09:00~21:30", "09:00~21:30", "09:00~21:30", "09:00~21:30", "09:00~21:30", "09:00~21:00", "09:00~21:00"]}, {"name": "\uc0c1\ub3d9\uc138\uc885\uc57d\uad6d", "lat": "37.49264269551554", "lng": "126.74376430057344", "url": "/info/%EC%83%81%EB%8F%99%EC%84%B8%EC%A2%85%EC%95%BD%EA%B5%AD-%EA%B2%BD%EA%B8%B0%EB%8F%84-%EB%B6%80%EC%B2%9C%EC%8B%9C-%EC%83%81%EB%8F%99/", "workingTime": ["-", "09:00~19:30", "09:00~19:30", "09:00~19:30", "09:00~19:30", "09:00~19:30", "09:00~16:30", "-"]}, {"name": "\uc11c\uc6b8\uba54\ub514\uce7c\uc57d\uad6d", "lat": "37.507368642923005", "lng": "126.75390658788427", "url": "/info/%EC%84%9C%EC%9A%B8%EB%A9%94%EB%94%94%EC%B9%BC%EC%95%BD%EA%B5%AD-%EA%B2%BD%EA%B8%B0%EB%8F%84-%EB%B6%80%EC%B2%9C%EC%8B%9C-%EC%83%81%EB%8F%99/", "workingTime": ["18:00~21:00(\uc5f0\ub77d\ud6c4\ubc29\ubb38\uc694\ub9dd)", "08:30~22:00", "08:30~22:00", "08:30~22:00", "08:30~22:00", "08:30~22:00", "08:30~22:00", "09:00~19:00"]}, {"name": "\ud587\uc0b4\uc57d\uad6d", "lat": "37.496303224446116", "lng": "126.76473474443716", "url": "/info/%ED%96%87%EC%82%B4%EC%95%BD%EA%B5%AD-%EA%B2%BD%EA%B8%B0%EB%8F%84-%EB%B6%80%EC%B2%9C%EC%8B%9C-%EC%83%81%EB%8F%99/", "workingTime": ["-", "09:00~21:00", "09:00~21:00", "09:00~21:00", "09:00~21:00", "09:00~21:00", "-", "09:00~21:00"]}, {"name": "\uc6b0\ub9ac\ub4e4\uc57d\uad6d", "lat": "37.50442135827673", "lng": "126.75339507512194", "url": "/info/%EC%9A%B0%EB%A6%AC%EB%93%A4%EC%95%BD%EA%B5%AD-%EA%B2%BD%EA%B8%B0%EB%8F%84-%EB%B6%80%EC%B2%9C%EC%8B%9C-%EC%83%81%EB%8F%99/", "workingTime": ["-", "09:00~20:00", "09:00~20:00", "09:00~20:00", "09:00~20:00", "09:00~20:00", "09:00~18:00", "-"]}, {"name": "\uadf8\ub9b0\uc57d\uad6d", "lat": "37.50515183237783", "lng": "126.75374195709928", "url": "/info/%EA%B7%B8%EB%A6%B0%EC%95%BD%EA%B5%AD-%EA%B2%BD%EA%B8%B0%EB%8F%84-%EB%B6%80%EC%B2%9C%EC%8B%9C-%EC%83%81%EB%8F%99/", "workingTime": ["-", "09:00~19:00", "09:00~19:00", "09:00~19:00", "09:00~19:00", "09:00~19:00", "-", "-"]}, {"name": "\ube44\ud0c0\ubbfc\uc57d\uad6d", "lat": "37.4913005385071", "lng": "126.75323562658163", "url": "/info/%EB%B9%84%ED%83%80%EB%AF%BC%EC%95%BD%EA%B5%AD-%EA%B2%BD%EA%B8%B0%EB%8F%84-%EB%B6%80%EC%B2%9C%EC%8B%9C-%EC%83%81%EB%8F%99/", "workingTime": ["-", "09:00~20:00", "09:00~20:00", "09:00~20:00", "09:00~20:00", "09:00~20:00", "-", "-"]}, {"name": "\uc0c1\ub3d9\uc81c\uc77c\uc57d\uad6d", "lat": "37.50045170950729", "lng": "126.75524113492285", "url": "/info/%EC%83%81%EB%8F%99%EC%A0%9C%EC%9D%BC%EC%95%BD%EA%B5%AD-%EA%B2%BD%EA%B8%B0%EB%8F%84-%EB%B6%80%EC%B2%9C%EC%8B%9C-%EC%83%81%EB%8F%99/", "workingTime": ["-", "09:00~19:00", "09:00~19:00", "09:00~19:00", "09:00~19:00", "09:00~19:00", "09:00~18:00", "-"]}, {"name": "\uc1a1\ub0b4\uba54\ub514\uce7c\uc57d\uad6d", "lat": "37.48841768349377", "lng": "126.75254745635504", "url": "/info/%EC%86%A1%EB%82%B4%EB%A9%94%EB%94%94%EC%B9%BC%EC%95%BD%EA%B5%AD-%EA%B2%BD%EA%B8%B0%EB%8F%84-%EB%B6%80%EC%B2%9C%EC%8B%9C-%EC%83%81%EB%8F%99/", "workingTime": ["-", "09:00~19:00", "09:00~19:00", "09:00~19:00", "09:00~19:00", "09:00~19:00", "09:00~15:00", "-"]}, {"name": "\uc628\ub204\ub9ac\uc131\uc9c4\uc57d\uad6d", "lat": "37.49131696889604", "lng": "126.75247570010495", "url": "/info/%EC%98%A8%EB%88%84%EB%A6%AC%EC%84%B1%EC%A7%84%EC%95%BD%EA%B5%AD-%EA%B2%BD%EA%B8%B0%EB%8F%84-%EB%B6%80%EC%B2%9C%EC%8B%9C-%EC%83%81%EB%8F%99/", "workingTime": ["-", "09:00~19:30", "09:00~19:30", "09:00~19:30", "09:00~19:30", "09:00~19:30", "09:30~16:30", "-"]}, {"name": "\ud50c\ub7ec\uc2a4\uc57d\uad6d", "lat": "37.50515183237783", "lng": "126.75374195709928", "url": "/info/%ED%94%8C%EB%9F%AC%EC%8A%A4%EC%95%BD%EA%B5%AD-%EA%B2%BD%EA%B8%B0%EB%8F%84-%EB%B6%80%EC%B2%9C%EC%8B%9C-%EC%83%81%EB%8F%99/", "workingTime": ["-", "08:00~20:00", "08:00~20:00", "08:00~20:00", "08:00~20:00", "08:00~20:00", "08:00~17:00", "-"]}, {"name": "\ud55c\uc0ac\ub791\uc628\ub204\ub9ac\uc57d\uad6d", "lat": "37.50633743795982", "lng": "126.75196467180421", "url": "/info/%ED%95%9C%EC%82%AC%EB%9E%91%EC%98%A8%EB%88%84%EB%A6%AC%EC%95%BD%EA%B5%AD-%EA%B2%BD%EA%B8%B0%EB%8F%84-%EB%B6%80%EC%B2%9C%EC%8B%9C-%EC%83%81%EB%8F%99/", "workingTime": ["-", "09:30~19:00", "09:30~19:00", "09:30~19:00", "09:30~19:00", "09:30~19:00", "-", "-"]}]