[{"name": "\ud0dc\uc601\uc57d\uad6d", "lat": "37.27397196971081", "lng": "126.94199656249957", "url": "/info/%ED%83%9C%EC%98%81%EC%95%BD%EA%B5%AD-%EA%B2%BD%EA%B8%B0%EB%8F%84-%EC%88%98%EC%9B%90%EC%8B%9C-%EA%B8%88%EA%B3%A1%EB%8F%99/", "workingTime": ["-", "09:00~19:30", "09:00~19:30", "09:00~19:30", "09:00~19:30", "09:00~19:30", "08:30~16:00", "-"]}, {"name": "\ub77c\ub77c\uc57d\uad6d", "lat": "37.2753399169713", "lng": "126.953617832615", "url": "/info/%EB%9D%BC%EB%9D%BC%EC%95%BD%EA%B5%AD-%EA%B2%BD%EA%B8%B0%EB%8F%84-%EC%88%98%EC%9B%90%EC%8B%9C-%EA%B8%88%EA%B3%A1%EB%8F%99/", "workingTime": ["-", "09:00~18:00", "09:00~18:00", "09:00~18:00", "09:00~18:00", "09:00~18:00", "09:00~13:00", "-"]}, {"name": "\ud558\uc774\ud31c\uc57d\uad6d", "lat": "37.2735010149489", "lng": "126.941851927412", "url": "/info/%ED%95%98%EC%9D%B4%ED%8C%9C%EC%95%BD%EA%B5%AD-%EA%B2%BD%EA%B8%B0%EB%8F%84-%EC%88%98%EC%9B%90%EC%8B%9C-%EA%B8%88%EA%B3%A1%EB%8F%99/", "workingTime": ["-", "09:00~18:00", "09:00~18:00", "09:00~18:00", "09:00~18:00", "09:00~18:00", "09:00~13:00", "-"]}, {"name": "\uc218\uc57d\uad6d", "lat": "37.273482954100004", "lng": "126.9526856282", "url": "/info/%EC%88%98%EC%95%BD%EA%B5%AD-%EA%B2%BD%EA%B8%B0%EB%8F%84-%EC%88%98%EC%9B%90%EC%8B%9C-%EA%B8%88%EA%B3%A1%EB%8F%99/", "workingTime": ["09:00~22:00(\uc5f0\ub77d\ud6c4\ubc29\ubb38\uc694\ub9dd)", "09:00~22:00", "09:00~22:00", "09:00~22:00", "09:00~22:00", "09:00~22:00", "09:00~22:00", "09:00~22:00"]}, {"name": "\ud638\ub9e4\uc2e4\uc5ed\uc57d\uad6d", "lat": "37.274326437527606", "lng": "126.95296021311677", "url": "/info/%ED%98%B8%EB%A7%A4%EC%8B%A4%EC%97%AD%EC%95%BD%EA%B5%AD-%EA%B2%BD%EA%B8%B0%EB%8F%84-%EC%88%98%EC%9B%90%EC%8B%9C-%EA%B8%88%EA%B3%A1%EB%8F%99/", "workingTime": ["1,2,3,4,5\uc9f8\uc8fc09:00~15:00", "09:00~20:30", "09:00~20:30", "09:00~20:30", "09:00~20:30", "09:00~20:30", "09:00~17:00", "09:00~17:00"]}, {"name": "\ud589\ubcf5\ud50c\ub7ec\uc2a4\uc57d\uad6d", "lat": "37.2744053347516", "lng": "126.955915600539", "url": "/info/%ED%96%89%EB%B3%B5%ED%94%8C%EB%9F%AC%EC%8A%A4%EC%95%BD%EA%B5%AD-%EA%B2%BD%EA%B8%B0%EB%8F%84-%EC%88%98%EC%9B%90%EC%8B%9C-%EA%B8%88%EA%B3%A1%EB%8F%99/", "workingTime": ["-", "10:00~18:00", "10:00~18:00", "10:00~18:00", "10:00~18:00", "10:00~18:00", "-", "-"]}, {"name": "\uae08\uace1\uc628\ub204\ub9ac\uc57d\uad6d", "lat": "37.27286146740305", "lng": "126.94114503224574", "url": "/info/%EA%B8%88%EA%B3%A1%EC%98%A8%EB%88%84%EB%A6%AC%EC%95%BD%EA%B5%AD-%EA%B2%BD%EA%B8%B0%EB%8F%84-%EC%88%98%EC%9B%90%EC%8B%9C-%EA%B8%88%EA%B3%A1%EB%8F%99/", "workingTime": ["1,2,3,4,5\uc9f8\uc8fc09:00~13:00", "09:00~19:00", "09:00~19:00", "09:00~19:00", "09:00~19:00", "09:00~19:00", "09:00~16:00", "09:00~13:00"]}, {"name": "\uac74\uac15\uc628\ub204\ub9ac\uc57d\uad6d", "lat": "37.2735435209122", "lng": "126.955517982831", "url": "/info/%EA%B1%B4%EA%B0%95%EC%98%A8%EB%88%84%EB%A6%AC%EC%95%BD%EA%B5%AD-%EA%B2%BD%EA%B8%B0%EB%8F%84-%EC%88%98%EC%9B%90%EC%8B%9C-%EA%B8%88%EA%B3%A1%EB%8F%99/", "workingTime": ["-", "09:00~20:30", "09:00~20:30", "09:00~20:30", "09:00~20:30", "09:00~20:30", "-", "-"]}, {"name": "\ud478\ub978\uc628\ub204\ub9ac\uc57d\uad6d", "lat": "37.2721160996955", "lng": "126.959823085152", "url": "/info/%ED%91%B8%EB%A5%B8%EC%98%A8%EB%88%84%EB%A6%AC%EC%95%BD%EA%B5%AD-%EA%B2%BD%EA%B8%B0%EB%8F%84-%EC%88%98%EC%9B%90%EC%8B%9C-%EA%B8%88%EA%B3%A1%EB%8F%99/", "workingTime": ["-", "09:00~18:00", "09:00~18:00", "09:00~18:00", "09:00~18:00", "09:00~18:00", "-", "-"]}, {"name": "\uae08\uace1\uc5d8\uc9c0\uc57d\uad6d", "lat": "37.273662164753496", "lng": "126.93749351375553", "url": "/info/%EA%B8%88%EA%B3%A1%EC%97%98%EC%A7%80%EC%95%BD%EA%B5%AD-%EA%B2%BD%EA%B8%B0%EB%8F%84-%EC%88%98%EC%9B%90%EC%8B%9C-%EA%B8%88%EA%B3%A1%EB%8F%99/", "workingTime": ["-", "09:00~20:00", "09:00~20:00", "09:00~20:00", "09:00~20:00", "09:00~20:00", "09:00~16:00", "-"]}, {"name": "\ud574\ubc14\ub77c\uae30\uc57d\uad6d", "lat": "37.2739362292", "lng": "126.9426144631", "url": "/info/%ED%95%B4%EB%B0%94%EB%9D%BC%EA%B8%B0%EC%95%BD%EA%B5%AD-%EA%B2%BD%EA%B8%B0%EB%8F%84-%EC%88%98%EC%9B%90%EC%8B%9C-%EA%B8%88%EA%B3%A1%EB%8F%99/", "workingTime": ["-", "09:00~19:00", "09:00~19:00", "09:00~19:00", "09:00~19:00", "09:00~19:00", "09:00~14:00", "09:00~14:00"]}, {"name": "\ud638\ub9e4\uc2e4\uc57d\uad6d", "lat": "37.27390291813816", "lng": "126.94306314196153", "url": "/info/%ED%98%B8%EB%A7%A4%EC%8B%A4%EC%95%BD%EA%B5%AD-%EA%B2%BD%EA%B8%B0%EB%8F%84-%EC%88%98%EC%9B%90%EC%8B%9C-%EA%B8%88%EA%B3%A1%EB%8F%99/", "workingTime": ["-", "09:00~18:00", "09:00~18:00", "09:00~18:00", "09:00~18:00", "09:00~18:00", "09:00~14:00", "-"]}, {"name": "\uc0c8\ubd04\uc57d\uad6d", "lat": "37.27544411047904", "lng": "126.9539337021123", "url": "/info/%EC%83%88%EB%B4%84%EC%95%BD%EA%B5%AD-%EA%B2%BD%EA%B8%B0%EB%8F%84-%EC%88%98%EC%9B%90%EC%8B%9C-%EA%B8%88%EA%B3%A1%EB%8F%99/", "workingTime": ["-", "09:00~19:00", "09:00~19:00", "09:00~19:00", "09:00~19:00", "09:00~19:00", "09:00~16:00", "-"]}, {"name": "\uc138\ubbfc\uc57d\uad6d", "lat": "37.2732604828291", "lng": "126.94126867957972", "url": "/info/%EC%84%B8%EB%AF%BC%EC%95%BD%EA%B5%AD-%EA%B2%BD%EA%B8%B0%EB%8F%84-%EC%88%98%EC%9B%90%EC%8B%9C-%EA%B8%88%EA%B3%A1%EB%8F%99/", "workingTime": ["-", "09:00~20:00", "09:00~20:00", "09:00~20:00", "09:00~20:00", "09:00~20:00", "-", "09:00~13:00"]}, {"name": "\ud587\uc0b4\uc57d\uad6d", "lat": "37.2716352082", "lng": "126.9557625266", "url": "/info/%ED%96%87%EC%82%B4%EC%95%BD%EA%B5%AD-%EA%B2%BD%EA%B8%B0%EB%8F%84-%EC%88%98%EC%9B%90%EC%8B%9C-%EA%B8%88%EA%B3%A1%EB%8F%99/", "workingTime": ["-", "09:00~19:30", "09:00~19:30", "09:00~19:30", "09:00~19:30", "09:00~19:30", "09:00~15:00", "09:00~13:00"]}, {"name": "\uccad\uc544\uc57d\uad6d", "lat": "37.2700177214", "lng": "126.9579101327", "url": "/info/%EC%B2%AD%EC%95%84%EC%95%BD%EA%B5%AD-%EA%B2%BD%EA%B8%B0%EB%8F%84-%EC%88%98%EC%9B%90%EC%8B%9C-%EA%B8%88%EA%B3%A1%EB%8F%99/", "workingTime": ["-", "09:00~18:00", "09:00~18:00", "09:00~18:00", "09:00~18:00", "09:00~18:00", "-", "-"]}, {"name": "\uc9c0\uc74c\ud55c\uc57d\uad6d", "lat": "37.2761983059", "lng": "126.9399201817", "url": "/info/%EC%A7%80%EC%9D%8C%ED%95%9C%EC%95%BD%EA%B5%AD-%EA%B2%BD%EA%B8%B0%EB%8F%84-%EC%88%98%EC%9B%90%EC%8B%9C-%EA%B8%88%EA%B3%A1%EB%8F%99/", "workingTime": ["-", "10:00~19:00", "10:00~19:00", "10:00~19:00", "10:00~19:00", "10:00~19:00", "10:00~16:00", "-"]}, {"name": "\ubbf8\uc131\uc57d\uad6d", "lat": "37.2734997538", "lng": "126.9418526049", "url": "/info/%EB%AF%B8%EC%84%B1%EC%95%BD%EA%B5%AD-%EA%B2%BD%EA%B8%B0%EB%8F%84-%EC%88%98%EC%9B%90%EC%8B%9C-%EA%B8%88%EA%B3%A1%EB%8F%99/", "workingTime": ["-", "09:00~18:00", "09:00~18:00", "09:00~18:00", "09:00~18:00", "09:00~18:00", "-", "-"]}, {"name": "\ud3b8\uc548\ud55c\uc57d\uad6d", "lat": "37.27244387556732", "lng": "126.95949176905724", "url": "/info/%ED%8E%B8%EC%95%88%ED%95%9C%EC%95%BD%EA%B5%AD-%EA%B2%BD%EA%B8%B0%EB%8F%84-%EC%88%98%EC%9B%90%EC%8B%9C-%EA%B8%88%EA%B3%A1%EB%8F%99/", "workingTime": ["-", "09:00~21:00", "09:00~21:00", "09:00~21:00", "09:00~21:00", "09:00~21:00", "09:00~14:00", "-"]}, {"name": "\uac74\uac15\ud50c\ub7ec\uc2a4\uc57d\uad6d", "lat": "37.27440686602668", "lng": "126.95591424663084", "url": "/info/%EA%B1%B4%EA%B0%95%ED%94%8C%EB%9F%AC%EC%8A%A4%EC%95%BD%EA%B5%AD-%EA%B2%BD%EA%B8%B0%EB%8F%84-%EC%88%98%EC%9B%90%EC%8B%9C-%EA%B8%88%EA%B3%A1%EB%8F%99/", "workingTime": ["-", "09:00~19:00", "09:00~19:00", "09:00~19:00", "09:00~19:00", "09:00~19:00", "-", "-"]}, {"name": "\uc2a4\ub9c8\ud2b8\uc57d\uad6d", "lat": "37.273874308324665", "lng": "126.94128856440864", "url": "/info/%EC%8A%A4%EB%A7%88%ED%8A%B8%EC%95%BD%EA%B5%AD-%EA%B2%BD%EA%B8%B0%EB%8F%84-%EC%88%98%EC%9B%90%EC%8B%9C-%EA%B8%88%EA%B3%A1%EB%8F%99/", "workingTime": ["-", "09:00~20:30", "09:00~20:30", "09:00~20:30", "09:00~20:30", "09:00~20:30", "09:00~14:00", "-"]}, {"name": "\ubd04\ube5b\uc57d\uad6d", "lat": "37.27203263104938", "lng": "126.94138921253361", "url": "/info/%EB%B4%84%EB%B9%9B%EC%95%BD%EA%B5%AD-%EA%B2%BD%EA%B8%B0%EB%8F%84-%EC%88%98%EC%9B%90%EC%8B%9C-%EA%B8%88%EA%B3%A1%EB%8F%99/", "workingTime": ["-", "09:00~20:00", "09:00~20:00", "09:00~20:00", "09:00~20:00", "09:00~20:00", "-", "-"]}]