[{"name": "\uc7a5\ud604\ub300\ud559\uc57d\uad6d", "lat": "37.715502777777779", "lng": "127.180308333333329", "url": "/info/%EC%9E%A5%ED%98%84%EB%8C%80%ED%95%99%EC%95%BD%EA%B5%AD-%EA%B2%BD%EA%B8%B0%EB%8F%84-%EB%82%A8%EC%96%91%EC%A3%BC%EC%8B%9C-%EC%A7%84%EC%A0%91%EC%9D%8D/", "workingTime": ["-", "09:00~21:30", "09:00~21:30", "09:00~21:30", "09:00~21:30", "09:00~21:30", "09:00~21:30", "10:00~21:00"]}, {"name": "\uc7a5\ud604\uc720\uba85\uc57d\uad6d", "lat": "37.717590496742005", "lng": "127.18164392166331", "url": "/info/%EC%9E%A5%ED%98%84%EC%9C%A0%EB%AA%85%EC%95%BD%EA%B5%AD-%EA%B2%BD%EA%B8%B0%EB%8F%84-%EB%82%A8%EC%96%91%EC%A3%BC%EC%8B%9C-%EC%A7%84%EC%A0%91%EC%9D%8D/", "workingTime": ["-", "10:00~20:00", "10:00~20:00", "10:00~20:00", "10:00~20:00", "10:00~20:00", "-", "-"]}, {"name": "\uc815\ubb38\uc57d\uad6d", "lat": "37.7158982488986", "lng": "127.180411174041", "url": "/info/%EC%A0%95%EB%AC%B8%EC%95%BD%EA%B5%AD-%EA%B2%BD%EA%B8%B0%EB%8F%84-%EB%82%A8%EC%96%91%EC%A3%BC%EC%8B%9C-%EC%A7%84%EC%A0%91%EC%9D%8D/", "workingTime": ["-", "09:00~18:00", "09:00~18:00", "09:00~18:00", "09:00~18:00", "09:00~18:00", "09:00~13:00", "-"]}, {"name": "\ubc94\uc57d\uad6d", "lat": "37.7122987492447", "lng": "127.186905679814", "url": "/info/%EB%B2%94%EC%95%BD%EA%B5%AD-%EA%B2%BD%EA%B8%B0%EB%8F%84-%EB%82%A8%EC%96%91%EC%A3%BC%EC%8B%9C-%EC%A7%84%EC%A0%91%EC%9D%8D/", "workingTime": ["-", "09:00~19:00", "09:00~19:00", "09:00~19:00", "09:00~20:00", "09:00~19:00", "08:45~14:00", "-"]}, {"name": "365\ud31c\ud504\ub77c\uc790\uc57d\uad6d", "lat": "37.7424246864682", "lng": "127.198360830786", "url": "/info/365%ED%8C%9C%ED%94%84%EB%9D%BC%EC%9E%90%EC%95%BD%EA%B5%AD-%EA%B2%BD%EA%B8%B0%EB%8F%84-%EB%82%A8%EC%96%91%EC%A3%BC%EC%8B%9C-%EC%A7%84%EC%A0%91%EC%9D%8D/", "workingTime": ["-", "09:00~18:00", "09:00~18:00", "09:00~18:00", "09:00~18:00", "09:00~18:00", "-", "-"]}, {"name": "\ub354\ud558\uae30\uc57d\uad6d", "lat": "37.7217474135421", "lng": "127.188606644806", "url": "/info/%EB%8D%94%ED%95%98%EA%B8%B0%EC%95%BD%EA%B5%AD-%EA%B2%BD%EA%B8%B0%EB%8F%84-%EB%82%A8%EC%96%91%EC%A3%BC%EC%8B%9C-%EC%A7%84%EC%A0%91%EC%9D%8D/", "workingTime": ["1,3,5\uc9f8\uc8fc10:00~22:00", "10:00~22:00", "10:00~22:00", "10:00~22:00", "10:00~22:00", "10:00~22:00", "10:00~22:00", "-"]}, {"name": "\uc0c8\ub86c\uc57d\uad6d", "lat": "37.7247883962", "lng": "127.2081857433", "url": "/info/%EC%83%88%EB%A1%AC%EC%95%BD%EA%B5%AD-%EA%B2%BD%EA%B8%B0%EB%8F%84-%EB%82%A8%EC%96%91%EC%A3%BC%EC%8B%9C-%EC%A7%84%EC%A0%91%EC%9D%8D/", "workingTime": ["-", "09:00~16:00", "09:00~16:00", "09:00~16:00", "09:00~16:00", "09:00~16:00", "-", "-"]}, {"name": "\ucc38\uc57d\uc0ac\uc9c4\uc811\uc6b0\ub9ac\uc57d\uad6d", "lat": "37.7112459531024", "lng": "127.186171542711", "url": "/info/%EC%B0%B8%EC%95%BD%EC%82%AC%EC%A7%84%EC%A0%91%EC%9A%B0%EB%A6%AC%EC%95%BD%EA%B5%AD-%EA%B2%BD%EA%B8%B0%EB%8F%84-%EB%82%A8%EC%96%91%EC%A3%BC%EC%8B%9C-%EC%A7%84%EC%A0%91%EC%9D%8D/", "workingTime": ["-", "09:00~18:00", "09:00~18:00", "09:00~18:00", "09:00~18:00", "09:00~18:00", "-", "-"]}, {"name": "\ud558\ub098\ub85c\uc628\ub204\ub9ac\uc57d\uad6d", "lat": "37.7112459531024", "lng": "127.186171542711", "url": "/info/%ED%95%98%EB%82%98%EB%A1%9C%EC%98%A8%EB%88%84%EB%A6%AC%EC%95%BD%EA%B5%AD-%EA%B2%BD%EA%B8%B0%EB%8F%84-%EB%82%A8%EC%96%91%EC%A3%BC%EC%8B%9C-%EC%A7%84%EC%A0%91%EC%9D%8D/", "workingTime": ["-", "09:00~18:00", "09:00~18:00", "09:00~18:00", "09:00~18:00", "09:00~18:00", "-", "-"]}, {"name": "\uc815\uc81c\ub2f9\uc57d\uad6d", "lat": "37.74460489269361", "lng": "127.2026771306035", "url": "/info/%EC%A0%95%EC%A0%9C%EB%8B%B9%EC%95%BD%EA%B5%AD-%EA%B2%BD%EA%B8%B0%EB%8F%84-%EB%82%A8%EC%96%91%EC%A3%BC%EC%8B%9C-%EC%A7%84%EC%A0%91%EC%9D%8D/", "workingTime": ["-", "09:00~18:00", "09:00~18:00", "09:00~18:00", "09:00~18:00", "09:00~18:00", "09:00~18:00", "-"]}, {"name": "\uc218\ud504\ub77c\uc790\uc57d\uad6d", "lat": "37.715056659812454", "lng": "127.19846377350014", "url": "/info/%EC%88%98%ED%94%84%EB%9D%BC%EC%9E%90%EC%95%BD%EA%B5%AD-%EA%B2%BD%EA%B8%B0%EB%8F%84-%EB%82%A8%EC%96%91%EC%A3%BC%EC%8B%9C-%EC%A7%84%EC%A0%91%EC%9D%8D/", "workingTime": ["-", "09:00~21:00", "09:00~21:00", "09:00~21:00", "09:00~21:00", "09:00~21:00", "09:00~21:00", "09:00~14:00"]}, {"name": "\uc73c\ub738\uc57d\uad6d", "lat": "37.715698816409066", "lng": "127.18009087685414", "url": "/info/%EC%9C%BC%EB%9C%B8%EC%95%BD%EA%B5%AD-%EA%B2%BD%EA%B8%B0%EB%8F%84-%EB%82%A8%EC%96%91%EC%A3%BC%EC%8B%9C-%EC%A7%84%EC%A0%91%EC%9D%8D/", "workingTime": ["-", "09:00~19:00", "09:00~19:00", "09:00~19:00", "09:00~19:00", "09:00~19:00", "09:00~14:00", "-"]}, {"name": "\uc774\ud654\uc57d\uad6d", "lat": "37.7176148567", "lng": "127.1808905642", "url": "/info/%EC%9D%B4%ED%99%94%EC%95%BD%EA%B5%AD-%EA%B2%BD%EA%B8%B0%EB%8F%84-%EB%82%A8%EC%96%91%EC%A3%BC%EC%8B%9C-%EC%A7%84%EC%A0%91%EC%9D%8D/", "workingTime": ["-", "09:00~18:30", "09:00~18:30", "09:00~18:30", "09:00~18:30", "09:00~18:30", "09:00~14:00", "-"]}, {"name": "365\uc885\ub85c\uc628\ub204\ub9ac\uc57d\uad6d", "lat": "37.7206501139138", "lng": "127.202725384062", "url": "/info/365%EC%A2%85%EB%A1%9C%EC%98%A8%EB%88%84%EB%A6%AC%EC%95%BD%EA%B5%AD-%EA%B2%BD%EA%B8%B0%EB%8F%84-%EB%82%A8%EC%96%91%EC%A3%BC%EC%8B%9C-%EC%A7%84%EC%A0%91%EC%9D%8D/", "workingTime": ["1,2,3,4,5\uc9f8\uc8fc09:00~17:00", "09:00~21:00", "09:00~21:00", "09:00~21:00", "09:00~21:00", "09:00~21:00", "09:00~17:00", "09:00~17:00"]}, {"name": "\uc7a5\ud604\uc774\uce35\uc57d\uad6d", "lat": "37.71736455151896", "lng": "127.18137200764286", "url": "/info/%EC%9E%A5%ED%98%84%EC%9D%B4%EC%B8%B5%EC%95%BD%EA%B5%AD-%EA%B2%BD%EA%B8%B0%EB%8F%84-%EB%82%A8%EC%96%91%EC%A3%BC%EC%8B%9C-%EC%A7%84%EC%A0%91%EC%9D%8D/", "workingTime": ["-", "08:30~13:00", "08:30~13:00", "08:30~13:00", "08:30~13:00", "08:30~13:00", "09:00~16:00", "09:00~13:00"]}, {"name": "\uc720\ub85c\ud31c\uc2a4\uc57d\uad6d", "lat": "37.7094861021029", "lng": "127.162189936956", "url": "/info/%EC%9C%A0%EB%A1%9C%ED%8C%9C%EC%8A%A4%EC%95%BD%EA%B5%AD-%EA%B2%BD%EA%B8%B0%EB%8F%84-%EB%82%A8%EC%96%91%EC%A3%BC%EC%8B%9C-%EC%A7%84%EC%A0%91%EC%9D%8D/", "workingTime": ["-", "10:00~18:00", "10:00~18:00", "10:00~18:00", "10:00~18:00", "10:00~18:00", "-", "-"]}, {"name": "\ub2e4\uc0b0\uc57d\uad6d", "lat": "37.71841652946655", "lng": "127.18218550906806", "url": "/info/%EB%8B%A4%EC%82%B0%EC%95%BD%EA%B5%AD-%EA%B2%BD%EA%B8%B0%EB%8F%84-%EB%82%A8%EC%96%91%EC%A3%BC%EC%8B%9C-%EC%A7%84%EC%A0%91%EC%9D%8D/", "workingTime": ["09:00~16:00(\uc5f0\ub77d\ud6c4\ubc29\ubb38\uc694\ub9dd)", "09:00~16:00", "09:00~16:00", "09:00~16:00", "09:00~16:00", "09:00~16:00", "08:30~17:00", "-"]}, {"name": "\ubc84\ub4e4\uc57d\uad6d", "lat": "37.70448013066133", "lng": "127.16653926204194", "url": "/info/%EB%B2%84%EB%93%A4%EC%95%BD%EA%B5%AD-%EA%B2%BD%EA%B8%B0%EB%8F%84-%EB%82%A8%EC%96%91%EC%A3%BC%EC%8B%9C-%EC%A7%84%EC%A0%91%EC%9D%8D/", "workingTime": ["-", "08:30~19:30", "08:30~19:30", "08:30~19:30", "08:30~19:30", "08:30~19:30", "08:30~15:30", "10:00~19:00"]}, {"name": "\ubc1d\uc740\uc57d\uad6d", "lat": "37.72013336194716", "lng": "127.18491414089187", "url": "/info/%EB%B0%9D%EC%9D%80%EC%95%BD%EA%B5%AD-%EA%B2%BD%EA%B8%B0%EB%8F%84-%EB%82%A8%EC%96%91%EC%A3%BC%EC%8B%9C-%EC%A7%84%EC%A0%91%EC%9D%8D/", "workingTime": ["1,2,3,4,5\uc9f8\uc8fc08:00~14:00", "08:00~20:00", "08:00~20:00", "08:00~20:00", "08:00~20:00", "08:00~20:00", "08:00~17:00", "-"]}, {"name": "\ubbf8\uc18c\uc57d\uad6d", "lat": "37.716333333333331", "lng": "127.180199999999999", "url": "/info/%EB%AF%B8%EC%86%8C%EC%95%BD%EA%B5%AD-%EA%B2%BD%EA%B8%B0%EB%8F%84-%EB%82%A8%EC%96%91%EC%A3%BC%EC%8B%9C-%EC%A7%84%EC%A0%91%EC%9D%8D/", "workingTime": ["1,2,3,4,5\uc9f8\uc8fc10:00~16:00", "09:00~21:00", "09:00~21:00", "09:00~21:00", "09:00~21:00", "09:00~21:00", "09:00~20:00", "-"]}, {"name": "\ud574\ubc00\uc57d\uad6d", "lat": "37.7147945117", "lng": "127.1979050509", "url": "/info/%ED%95%B4%EB%B0%80%EC%95%BD%EA%B5%AD-%EA%B2%BD%EA%B8%B0%EB%8F%84-%EB%82%A8%EC%96%91%EC%A3%BC%EC%8B%9C-%EC%A7%84%EC%A0%91%EC%9D%8D/", "workingTime": ["1,2,3,4,5\uc9f8\uc8fc09:00~21:00", "09:00~22:00", "09:00~22:00", "09:00~22:00", "09:00~22:00", "09:00~22:00", "09:00~21:00", "09:00~21:00"]}, {"name": "\uc11c\uc6b8\ud55c\uc57d\uad6d", "lat": "37.712585795277015", "lng": "127.18791930497767", "url": "/info/%EC%84%9C%EC%9A%B8%ED%95%9C%EC%95%BD%EA%B5%AD-%EA%B2%BD%EA%B8%B0%EB%8F%84-%EB%82%A8%EC%96%91%EC%A3%BC%EC%8B%9C-%EC%A7%84%EC%A0%91%EC%9D%8D/", "workingTime": ["-", "10:00~19:00", "10:00~19:00", "10:00~19:00", "10:00~19:00", "10:00~19:00", "10:00~16:00", "-"]}, {"name": "\uc2e0\ud1b5\ud55c\uc57d\uad6d", "lat": "37.70445374951054", "lng": "127.16477925898744", "url": "/info/%EC%8B%A0%ED%86%B5%ED%95%9C%EC%95%BD%EA%B5%AD-%EA%B2%BD%EA%B8%B0%EB%8F%84-%EB%82%A8%EC%96%91%EC%A3%BC%EC%8B%9C-%EC%A7%84%EC%A0%91%EC%9D%8D/", "workingTime": ["-", "09:00~21:00", "09:00~21:00", "09:00~21:00", "09:00~21:00", "09:00~21:00", "09:00~18:00", "10:00~18:00"]}, {"name": "\uc608\ub2f4\ud55c\uc57d\uad6d", "lat": "37.720876179898354", "lng": "127.18792627128553", "url": "/info/%EC%98%88%EB%8B%B4%ED%95%9C%EC%95%BD%EA%B5%AD-%EA%B2%BD%EA%B8%B0%EB%8F%84-%EB%82%A8%EC%96%91%EC%A3%BC%EC%8B%9C-%EC%A7%84%EC%A0%91%EC%9D%8D/", "workingTime": ["-", "10:00~19:00", "10:00~19:00", "10:00~19:00", "-", "10:00~19:00", "10:00~15:00", "-"]}, {"name": "\ud1a0\ub2e5\ud1a0\ub2e5\uc57d\uad6d", "lat": "37.71593415668286", "lng": "127.18861243580622", "url": "/info/%ED%86%A0%EB%8B%A5%ED%86%A0%EB%8B%A5%EC%95%BD%EA%B5%AD-%EA%B2%BD%EA%B8%B0%EB%8F%84-%EB%82%A8%EC%96%91%EC%A3%BC%EC%8B%9C-%EC%A7%84%EC%A0%91%EC%9D%8D/", "workingTime": ["-", "09:00~18:30", "09:00~18:30", "09:00~19:00", "09:00~18:30", "09:00~18:30", "09:00~14:00", "-"]}, {"name": "\ud574\uc6b8\ud55c\uc57d\uad6d", "lat": "37.71260164554868", "lng": "127.18793259057101", "url": "/info/%ED%95%B4%EC%9A%B8%ED%95%9C%EC%95%BD%EA%B5%AD-%EA%B2%BD%EA%B8%B0%EB%8F%84-%EB%82%A8%EC%96%91%EC%A3%BC%EC%8B%9C-%EC%A7%84%EC%A0%91%EC%9D%8D/", "workingTime": ["-", "10:00~19:00", "10:00~19:00", "10:00~19:00", "10:00~19:00", "10:00~19:00", "10:00~16:00", "-"]}, {"name": "\uc544\uce68\uc57d\uad6d", "lat": "37.73219365801208", "lng": "127.193808481557", "url": "/info/%EC%95%84%EC%B9%A8%EC%95%BD%EA%B5%AD-%EA%B2%BD%EA%B8%B0%EB%8F%84-%EB%82%A8%EC%96%91%EC%A3%BC%EC%8B%9C-%EC%A7%84%EC%A0%91%EC%9D%8D/", "workingTime": ["-", "09:00~19:00", "09:00~19:00", "09:00~19:00", "09:00~19:00", "09:00~19:00", "09:00~13:00", "-"]}, {"name": "\uc18c\ub9ac\uc57d\uad6d", "lat": "37.720910805", "lng": "127.1888110696", "url": "/info/%EC%86%8C%EB%A6%AC%EC%95%BD%EA%B5%AD-%EA%B2%BD%EA%B8%B0%EB%8F%84-%EB%82%A8%EC%96%91%EC%A3%BC%EC%8B%9C-%EC%A7%84%EC%A0%91%EC%9D%8D/", "workingTime": ["-", "09:30~20:30", "09:30~20:30", "09:30~15:30", "09:30~20:30", "09:30~20:30", "09:30~19:00", "-"]}, {"name": "\ud55c\uc0ac\ub791\uc57d\uad6d", "lat": "37.71585422095558", "lng": "127.17980201924539", "url": "/info/%ED%95%9C%EC%82%AC%EB%9E%91%EC%95%BD%EA%B5%AD-%EA%B2%BD%EA%B8%B0%EB%8F%84-%EB%82%A8%EC%96%91%EC%A3%BC%EC%8B%9C-%EC%A7%84%EC%A0%91%EC%9D%8D/", "workingTime": ["-", "08:30~21:00", "08:30~21:00", "08:30~21:00", "08:30~21:00", "08:30~21:00", "09:30~21:00", "-"]}, {"name": "\uc5d0\uc2a4\uc628\ub204\ub9ac\uc57d\uad6d", "lat": "37.7265370911", "lng": "127.1928771802", "url": "/info/%EC%97%90%EC%8A%A4%EC%98%A8%EB%88%84%EB%A6%AC%EC%95%BD%EA%B5%AD-%EA%B2%BD%EA%B8%B0%EB%8F%84-%EB%82%A8%EC%96%91%EC%A3%BC%EC%8B%9C-%EC%A7%84%EC%A0%91%EC%9D%8D/", "workingTime": ["-", "09:00~14:00", "09:00~14:00", "09:00~14:00", "09:00~14:00", "09:00~14:00", "-", "-"]}, {"name": "\ub300\ud559\uc57d\uad6d", "lat": "37.7464047976", "lng": "127.2059270903", "url": "/info/%EB%8C%80%ED%95%99%EC%95%BD%EA%B5%AD-%EA%B2%BD%EA%B8%B0%EB%8F%84-%EB%82%A8%EC%96%91%EC%A3%BC%EC%8B%9C-%EC%A7%84%EC%A0%91%EC%9D%8D/", "workingTime": ["09:00~13:00(\uc5f0\ub77d\ud6c4\ubc29\ubb38\uc694\ub9dd)", "09:00~19:30", "09:00~19:30", "09:00~19:30", "09:00~19:30", "09:00~19:30", "09:00~16:30", "-"]}, {"name": "\uae08\uac15\uc57d\uad6d", "lat": "37.71509229392016", "lng": "127.19790153710612", "url": "/info/%EA%B8%88%EA%B0%95%EC%95%BD%EA%B5%AD-%EA%B2%BD%EA%B8%B0%EB%8F%84-%EB%82%A8%EC%96%91%EC%A3%BC%EC%8B%9C-%EC%A7%84%EC%A0%91%EC%9D%8D/", "workingTime": ["-", "08:30~21:00", "08:30~21:00", "08:30~21:00", "08:30~21:00", "08:30~21:00", "08:30~17:00", "-"]}, {"name": "\uc7a5\ud604\ud504\ub77c\uc790\uc57d\uad6d", "lat": "37.7176148567", "lng": "127.1808905642", "url": "/info/%EC%9E%A5%ED%98%84%ED%94%84%EB%9D%BC%EC%9E%90%EC%95%BD%EA%B5%AD-%EA%B2%BD%EA%B8%B0%EB%8F%84-%EB%82%A8%EC%96%91%EC%A3%BC%EC%8B%9C-%EC%A7%84%EC%A0%91%EC%9D%8D/", "workingTime": ["-", "09:00~18:30", "09:00~18:30", "09:00~18:30", "09:00~18:30", "09:00~18:30", "09:00~15:00", "-"]}, {"name": "\uc885\ub85c\uba54\ub514\uce7c\uc57d\uad6d", "lat": "37.71128310401962", "lng": "127.18762985871538", "url": "/info/%EC%A2%85%EB%A1%9C%EB%A9%94%EB%94%94%EC%B9%BC%EC%95%BD%EA%B5%AD-%EA%B2%BD%EA%B8%B0%EB%8F%84-%EB%82%A8%EC%96%91%EC%A3%BC%EC%8B%9C-%EC%A7%84%EC%A0%91%EC%9D%8D/", "workingTime": ["-", "09:00~14:00", "09:00~14:00", "09:00~14:00", "09:00~14:00", "09:00~14:00", "08:30~17:30", "-"]}, {"name": "\uad11\ub989\ub0b4\uc5f4\ub9b0\uc57d\uad6d", "lat": "37.74638984464539", "lng": "127.20537287128892", "url": "/info/%EA%B4%91%EB%A6%89%EB%82%B4%EC%97%B4%EB%A6%B0%EC%95%BD%EA%B5%AD-%EA%B2%BD%EA%B8%B0%EB%8F%84-%EB%82%A8%EC%96%91%EC%A3%BC%EC%8B%9C-%EC%A7%84%EC%A0%91%EC%9D%8D/", "workingTime": ["15:00~20:00(\uc5f0\ub77d\ud6c4\ubc29\ubb38\uc694\ub9dd)", "09:00~21:00", "09:00~21:00", "09:00~21:00", "09:00~21:00", "09:00~21:00", "09:00~20:00", "15:00~20:00"]}, {"name": "\uc6b0\uc815\uc57d\uad6d", "lat": "37.719201587468305", "lng": "127.18387994620966", "url": "/info/%EC%9A%B0%EC%A0%95%EC%95%BD%EA%B5%AD-%EA%B2%BD%EA%B8%B0%EB%8F%84-%EB%82%A8%EC%96%91%EC%A3%BC%EC%8B%9C-%EC%A7%84%EC%A0%91%EC%9D%8D/", "workingTime": ["-", "09:00~19:00", "09:00~19:00", "09:00~19:00", "09:00~19:00", "09:00~19:00", "09:00~19:00", "-"]}, {"name": "\uac74\uac15\ud50c\ub7ec\uc2a4\uc57d\uad6d", "lat": "37.712795856321875", "lng": "127.18726204636182", "url": "/info/%EA%B1%B4%EA%B0%95%ED%94%8C%EB%9F%AC%EC%8A%A4%EC%95%BD%EA%B5%AD-%EA%B2%BD%EA%B8%B0%EB%8F%84-%EB%82%A8%EC%96%91%EC%A3%BC%EC%8B%9C-%EC%A7%84%EC%A0%91%EC%9D%8D/", "workingTime": ["-", "09:00~16:00", "09:00~16:00", "09:00~16:00", "09:00~16:00", "09:00~16:00", "-", "-"]}, {"name": "\uc635\ud2f0\ub9c8\ud3c9\uc548\uc57d\uad6d", "lat": "37.71935551838679", "lng": "127.183815436758", "url": "/info/%EC%98%B5%ED%8B%B0%EB%A7%88%ED%8F%89%EC%95%88%EC%95%BD%EA%B5%AD-%EA%B2%BD%EA%B8%B0%EB%8F%84-%EB%82%A8%EC%96%91%EC%A3%BC%EC%8B%9C-%EC%A7%84%EC%A0%91%EC%9D%8D/", "workingTime": ["14:00~21:30(\uc5f0\ub77d\ud6c4\ubc29\ubb38\uc694\ub9dd)", "09:00~21:30", "09:00~21:30", "09:00~21:30", "09:00~21:30", "09:00~21:30", "-", "-"]}, {"name": "\uc628\ub204\ub9ac\uc815\ub2e4\uc6b4\uc57d\uad6d", "lat": "37.70881828328315", "lng": "127.18191754294571", "url": "/info/%EC%98%A8%EB%88%84%EB%A6%AC%EC%A0%95%EB%8B%A4%EC%9A%B4%EC%95%BD%EA%B5%AD-%EA%B2%BD%EA%B8%B0%EB%8F%84-%EB%82%A8%EC%96%91%EC%A3%BC%EC%8B%9C-%EC%A7%84%EC%A0%91%EC%9D%8D/", "workingTime": ["10:00~21:30(\uc5f0\ub77d\ud6c4\ubc29\ubb38\uc694\ub9dd)", "10:00~21:30", "10:00~21:30", "10:00~21:30", "10:00~21:30", "10:00~21:30", "10:00~21:30", "10:00~22:00"]}, {"name": "\uc544\uc774\ub4e4\uc57d\uad6d", "lat": "37.71162173755509", "lng": "127.18679186922787", "url": "/info/%EC%95%84%EC%9D%B4%EB%93%A4%EC%95%BD%EA%B5%AD-%EA%B2%BD%EA%B8%B0%EB%8F%84-%EB%82%A8%EC%96%91%EC%A3%BC%EC%8B%9C-%EC%A7%84%EC%A0%91%EC%9D%8D/", "workingTime": ["-", "09:00~16:00", "09:00~16:00", "09:00~16:00", "09:00~16:00", "09:00~16:00", "-", "-"]}, {"name": "\ubc31\uc57d\uad6d", "lat": "37.7267819237", "lng": "127.1930184726", "url": "/info/%EB%B0%B1%EC%95%BD%EA%B5%AD-%EA%B2%BD%EA%B8%B0%EB%8F%84-%EB%82%A8%EC%96%91%EC%A3%BC%EC%8B%9C-%EC%A7%84%EC%A0%91%EC%9D%8D/", "workingTime": ["-", "08:30~14:00", "08:30~14:00", "08:30~14:00", "08:30~14:00", "08:30~14:00", "-", "-"]}, {"name": "\uc5c4\ub9c8\ub9c8\uc74c\uc57d\uad6d", "lat": "37.711782309929454", "lng": "127.18645164773325", "url": "/info/%EC%97%84%EB%A7%88%EB%A7%88%EC%9D%8C%EC%95%BD%EA%B5%AD-%EA%B2%BD%EA%B8%B0%EB%8F%84-%EB%82%A8%EC%96%91%EC%A3%BC%EC%8B%9C-%EC%A7%84%EC%A0%91%EC%9D%8D/", "workingTime": ["-", "09:00~15:00", "09:00~15:00", "09:00~15:00", "09:00~15:00", "09:00~15:00", "-", "-"]}, {"name": "\ud558\ub098\uc57d\uad6d", "lat": "37.7191703007362", "lng": "127.18299040249974", "url": "/info/%ED%95%98%EB%82%98%EC%95%BD%EA%B5%AD-%EA%B2%BD%EA%B8%B0%EB%8F%84-%EB%82%A8%EC%96%91%EC%A3%BC%EC%8B%9C-%EC%A7%84%EC%A0%91%EC%9D%8D/", "workingTime": ["-", "09:00~19:00", "09:00~19:00", "09:00~19:00", "09:00~19:00", "09:00~19:00", "09:00~15:30", "-"]}]