[{"name": "\uace4\uc9c0\uc554\uc57d\uad6d", "lat": "37.34981959811076", "lng": "127.34217795666956", "url": "/info/%EA%B3%A4%EC%A7%80%EC%95%94%EC%95%BD%EA%B5%AD-%EA%B2%BD%EA%B8%B0%EB%8F%84-%EA%B4%91%EC%A3%BC%EC%8B%9C-%EA%B3%A4%EC%A7%80%EC%95%94%EC%9D%8D/", "workingTime": ["-", "08:30~21:00", "08:30~21:00", "08:30~21:00", "08:30~21:00", "08:30~21:00", "08:30~21:00", "09:00~13:00"]}, {"name": "\uc9c4\ud558\uc628\ub204\ub9ac\uc57d\uad6d", "lat": "37.35643251266564", "lng": "127.32570136779077", "url": "/info/%EC%A7%84%ED%95%98%EC%98%A8%EB%88%84%EB%A6%AC%EC%95%BD%EA%B5%AD-%EA%B2%BD%EA%B8%B0%EB%8F%84-%EA%B4%91%EC%A3%BC%EC%8B%9C-%EA%B3%A4%EC%A7%80%EC%95%94%EC%9D%8D/", "workingTime": ["23:00~23:00(\uc5f0\ub77d\ud6c4\ubc29\ubb38\uc694\ub9dd)", "09:00~21:00", "09:00~21:00", "09:00~21:00", "09:00~21:00", "09:00~21:00", "09:00~15:00", "09:00~13:00"]}, {"name": "\ub2e4\ub098\uc57d\uad6d", "lat": "37.34945449909572", "lng": "127.34255552347247", "url": "/info/%EB%8B%A4%EB%82%98%EC%95%BD%EA%B5%AD-%EA%B2%BD%EA%B8%B0%EB%8F%84-%EA%B4%91%EC%A3%BC%EC%8B%9C-%EA%B3%A4%EC%A7%80%EC%95%94%EC%9D%8D/", "workingTime": ["-", "08:30~19:00", "08:30~19:00", "08:30~19:00", "08:30~19:00", "08:30~19:00", "08:30~14:00", "-"]}, {"name": "\ubc31\ud654\uc810\uc57d\uad6d", "lat": "37.35005847715578", "lng": "127.34182690366828", "url": "/info/%EB%B0%B1%ED%99%94%EC%A0%90%EC%95%BD%EA%B5%AD-%EA%B2%BD%EA%B8%B0%EB%8F%84-%EA%B4%91%EC%A3%BC%EC%8B%9C-%EA%B3%A4%EC%A7%80%EC%95%94%EC%9D%8D/", "workingTime": ["1,2,3,4,5\uc9f8\uc8fc10:00~21:00", "08:00~22:00", "08:00~22:00", "08:00~22:00", "08:00~22:00", "08:00~22:00", "08:00~22:00", "08:00~22:00"]}, {"name": "\ud31c\uc2a4\ud0c0\uc57d\uad6d", "lat": "37.35621516924757", "lng": "127.32610225804524", "url": "/info/%ED%8C%9C%EC%8A%A4%ED%83%80%EC%95%BD%EA%B5%AD-%EA%B2%BD%EA%B8%B0%EB%8F%84-%EA%B4%91%EC%A3%BC%EC%8B%9C-%EA%B3%A4%EC%A7%80%EC%95%94%EC%9D%8D/", "workingTime": ["-", "09:00~20:30", "09:00~20:30", "09:00~20:30", "09:00~20:30", "09:00~20:30", "-", "10:00~16:00"]}, {"name": "\uc6b0\ub9ac\ub4e4\uc57d\uad6d", "lat": "37.349277777777779", "lng": "127.344405555555554", "url": "/info/%EC%9A%B0%EB%A6%AC%EB%93%A4%EC%95%BD%EA%B5%AD-%EA%B2%BD%EA%B8%B0%EB%8F%84-%EA%B4%91%EC%A3%BC%EC%8B%9C-%EA%B3%A4%EC%A7%80%EC%95%94%EC%9D%8D/", "workingTime": ["-", "09:00~20:00", "09:00~20:00", "09:00~20:00", "09:00~20:00", "09:00~20:00", "09:00~15:00", "09:00~15:00"]}, {"name": "\ub9cc\uc120\uc57d\uad6d", "lat": "37.3672916940703", "lng": "127.40635508821119", "url": "/info/%EB%A7%8C%EC%84%A0%EC%95%BD%EA%B5%AD-%EA%B2%BD%EA%B8%B0%EB%8F%84-%EA%B4%91%EC%A3%BC%EC%8B%9C-%EA%B3%A4%EC%A7%80%EC%95%94%EC%9D%8D/", "workingTime": ["-", "08:00~20:00", "08:00~20:00", "08:00~20:00", "08:00~20:00", "08:00~20:00", "08:00~18:00", "-"]}, {"name": "\ub2e4\uc194\uc57d\uad6d", "lat": "37.34961198913093", "lng": "127.34173709397845", "url": "/info/%EB%8B%A4%EC%86%94%EC%95%BD%EA%B5%AD-%EA%B2%BD%EA%B8%B0%EB%8F%84-%EA%B4%91%EC%A3%BC%EC%8B%9C-%EA%B3%A4%EC%A7%80%EC%95%94%EC%9D%8D/", "workingTime": ["-", "08:30~20:00", "08:30~20:00", "08:30~20:00", "08:30~20:00", "08:30~20:00", "08:30~16:00", "-"]}, {"name": "\uc18c\ub9dd\uc57d\uad6d", "lat": "37.35019012858228", "lng": "127.33871495946863", "url": "/info/%EC%86%8C%EB%A7%9D%EC%95%BD%EA%B5%AD-%EA%B2%BD%EA%B8%B0%EB%8F%84-%EA%B4%91%EC%A3%BC%EC%8B%9C-%EA%B3%A4%EC%A7%80%EC%95%94%EC%9D%8D/", "workingTime": ["-", "08:30~19:00", "08:30~19:00", "08:30~19:00", "08:30~19:00", "08:30~19:00", "08:00~14:00", "-"]}, {"name": "\ud589\ubcf5\ud55c\uc138\uc0c1\uc6b0\ub9ac\ub4e4\uc57d\uad6d", "lat": "37.35653420453833", "lng": "127.32541736602954", "url": "/info/%ED%96%89%EB%B3%B5%ED%95%9C%EC%84%B8%EC%83%81%EC%9A%B0%EB%A6%AC%EB%93%A4%EC%95%BD%EA%B5%AD-%EA%B2%BD%EA%B8%B0%EB%8F%84-%EA%B4%91%EC%A3%BC%EC%8B%9C-%EA%B3%A4%EC%A7%80%EC%95%94%EC%9D%8D/", "workingTime": ["-", "09:00~19:00", "09:00~19:00", "09:00~19:00", "09:00~19:00", "09:00~19:00", "-", "09:00~13:00"]}, {"name": "\ub2e8\ube44\uc57d\uad6d", "lat": "37.349767287846", "lng": "127.34031323214127", "url": "/info/%EB%8B%A8%EB%B9%84%EC%95%BD%EA%B5%AD-%EA%B2%BD%EA%B8%B0%EB%8F%84-%EA%B4%91%EC%A3%BC%EC%8B%9C-%EA%B3%A4%EC%A7%80%EC%95%94%EC%9D%8D/", "workingTime": ["09:00~21:00(\uc5f0\ub77d\ud6c4\ubc29\ubb38\uc694\ub9dd)", "07:30~22:00", "07:30~22:00", "07:30~22:00", "07:30~22:00", "07:30~22:00", "08:00~19:00", "09:00~19:00"]}]