[{"name": "\uac00\uae4c\uc6b4\uc57d\uad6d", "lat": "37.519623903664", "lng": "126.78761220893", "url": "/info/%EA%B0%80%EA%B9%8C%EC%9A%B4%EC%95%BD%EA%B5%AD-%EA%B2%BD%EA%B8%B0%EB%8F%84-%EB%B6%80%EC%B2%9C%EC%8B%9C-%EB%8F%84%EB%8B%B9%EB%8F%99/", "workingTime": ["-", "09:00~18:00", "09:00~18:00", "09:00~18:00", "09:00~18:00", "09:00~18:00", "-", "-"]}, {"name": "\uc5f4\ub9b0\uc628\ub204\ub9ac\uc57d\uad6d", "lat": "37.5199686674", "lng": "126.7895476122", "url": "/info/%EC%97%B4%EB%A6%B0%EC%98%A8%EB%88%84%EB%A6%AC%EC%95%BD%EA%B5%AD-%EA%B2%BD%EA%B8%B0%EB%8F%84-%EB%B6%80%EC%B2%9C%EC%8B%9C-%EB%8F%84%EB%8B%B9%EB%8F%99/", "workingTime": ["1,2,3,4,5\uc9f8\uc8fc09:00~13:00", "09:00~20:00", "09:00~20:00", "09:00~20:00", "09:00~20:00", "09:00~20:00", "09:00~16:00", "09:00~13:00"]}, {"name": "\ubcf4\uac74\uc57d\uad6d", "lat": "37.5075183327951", "lng": "126.7804847652368", "url": "/info/%EB%B3%B4%EA%B1%B4%EC%95%BD%EA%B5%AD-%EA%B2%BD%EA%B8%B0%EB%8F%84-%EB%B6%80%EC%B2%9C%EC%8B%9C-%EB%8F%84%EB%8B%B9%EB%8F%99/", "workingTime": ["-", "08:00~19:30", "08:00~19:30", "08:00~19:30", "08:00~19:30", "08:00~19:30", "09:00~15:00", "-"]}, {"name": "\uc131\uac00\uc57d\uad6d", "lat": "37.505950156537885", "lng": "126.78416279251499", "url": "/info/%EC%84%B1%EA%B0%80%EC%95%BD%EA%B5%AD-%EA%B2%BD%EA%B8%B0%EB%8F%84-%EB%B6%80%EC%B2%9C%EC%8B%9C-%EB%8F%84%EB%8B%B9%EB%8F%99/", "workingTime": ["-", "09:00~22:00", "09:00~22:00", "09:00~22:00", "09:00~22:00", "09:00~22:00", "09:00~22:00", "-"]}, {"name": "\ub3c4\ub2f9\uba54\ub514\uce7c\uc57d\uad6d", "lat": "37.52029694721982", "lng": "126.79330116525264", "url": "/info/%EB%8F%84%EB%8B%B9%EB%A9%94%EB%94%94%EC%B9%BC%EC%95%BD%EA%B5%AD-%EA%B2%BD%EA%B8%B0%EB%8F%84-%EB%B6%80%EC%B2%9C%EC%8B%9C-%EB%8F%84%EB%8B%B9%EB%8F%99/", "workingTime": ["12:00~21:00(\uc5f0\ub77d\ud6c4\ubc29\ubb38\uc694\ub9dd)", "09:00~22:00", "09:00~22:00", "09:00~22:00", "09:00~22:00", "09:00~22:00", "09:00~21:00", "-"]}, {"name": "\uc740\uc131\uc57d\uad6d", "lat": "37.51967681049323", "lng": "126.78757565515579", "url": "/info/%EC%9D%80%EC%84%B1%EC%95%BD%EA%B5%AD-%EA%B2%BD%EA%B8%B0%EB%8F%84-%EB%B6%80%EC%B2%9C%EC%8B%9C-%EB%8F%84%EB%8B%B9%EB%8F%99/", "workingTime": ["-", "09:00~16:00", "09:00~16:00", "09:00~16:00", "09:00~16:00", "09:00~16:00", "-", "-"]}, {"name": "\ub300\ud654\uc57d\uad6d", "lat": "37.50811210796833", "lng": "126.78000799961299", "url": "/info/%EB%8C%80%ED%99%94%EC%95%BD%EA%B5%AD-%EA%B2%BD%EA%B8%B0%EB%8F%84-%EB%B6%80%EC%B2%9C%EC%8B%9C-%EB%8F%84%EB%8B%B9%EB%8F%99/", "workingTime": ["-", "09:00~13:00", "09:00~13:00", "09:00~13:00", "09:00~13:00", "09:00~13:00", "-", "-"]}, {"name": "\ubd04\uc628\ub204\ub9ac\uc57d\uad6d", "lat": "37.520002410675005", "lng": "126.7923257555023", "url": "/info/%EB%B4%84%EC%98%A8%EB%88%84%EB%A6%AC%EC%95%BD%EA%B5%AD-%EA%B2%BD%EA%B8%B0%EB%8F%84-%EB%B6%80%EC%B2%9C%EC%8B%9C-%EB%8F%84%EB%8B%B9%EB%8F%99/", "workingTime": ["-", "09:00~21:00", "09:00~21:00", "09:00~21:00", "09:00~21:00", "09:00~21:00", "-", "-"]}, {"name": "\uc120\ud55c\uc57d\uad6d", "lat": "37.516468971633564", "lng": "126.78493561222551", "url": "/info/%EC%84%A0%ED%95%9C%EC%95%BD%EA%B5%AD-%EA%B2%BD%EA%B8%B0%EB%8F%84-%EB%B6%80%EC%B2%9C%EC%8B%9C-%EB%8F%84%EB%8B%B9%EB%8F%99/", "workingTime": ["-", "09:00~21:00", "09:00~21:00", "09:00~21:00", "09:00~21:00", "09:00~21:00", "09:00~19:00", "09:30~21:00"]}]