[{"name": "\uac00\ub098\uc548\uc57d\uad6d", "lat": "37.36074085421456", "lng": "126.96893761352469", "url": "/info/%EA%B0%80%EB%82%98%EC%95%88%EC%95%BD%EA%B5%AD-%EA%B2%BD%EA%B8%B0%EB%8F%84-%EC%9D%98%EC%99%95%EC%8B%9C-%EC%98%A4%EC%A0%84%EB%8F%99/", "workingTime": ["-", "10:00~18:00", "10:00~18:00", "10:00~18:00", "10:00~18:00", "10:00~18:00", "10:00~13:00", "-"]}, {"name": "\uc120\uc57d\uad6d", "lat": "37.35044094371737", "lng": "126.97725583009807", "url": "/info/%EC%84%A0%EC%95%BD%EA%B5%AD-%EA%B2%BD%EA%B8%B0%EB%8F%84-%EC%9D%98%EC%99%95%EC%8B%9C-%EC%98%A4%EC%A0%84%EB%8F%99/", "workingTime": ["1,2,3,4,5\uc9f8\uc8fc22:00~25:00", "22:00~25:00", "22:00~25:00", "22:00~25:00", "22:00~25:00", "22:00~25:00", "22:00~25:00", "22:00~25:00"]}, {"name": "\ud61c\uc778\uc57d\uad6d", "lat": "37.35874961361751", "lng": "126.96768574934833", "url": "/info/%ED%98%9C%EC%9D%B8%EC%95%BD%EA%B5%AD-%EA%B2%BD%EA%B8%B0%EB%8F%84-%EC%9D%98%EC%99%95%EC%8B%9C-%EC%98%A4%EC%A0%84%EB%8F%99/", "workingTime": ["-", "09:00~20:00", "09:00~20:00", "09:00~20:00", "09:00~20:00", "09:00~20:00", "09:00~17:00", "-"]}, {"name": "\uc758\uc655\uc5f0\uc138\uc57d\uad6d", "lat": "37.3502243908803", "lng": "126.977551687622", "url": "/info/%EC%9D%98%EC%99%95%EC%97%B0%EC%84%B8%EC%95%BD%EA%B5%AD-%EA%B2%BD%EA%B8%B0%EB%8F%84-%EC%9D%98%EC%99%95%EC%8B%9C-%EC%98%A4%EC%A0%84%EB%8F%99/", "workingTime": ["-", "09:00~21:00", "09:00~21:00", "09:00~21:00", "09:00~21:00", "09:00~21:00", "-", "-"]}, {"name": "\ud558\ub298\uc57d\uad6d", "lat": "37.34995849201446", "lng": "126.97359881194919", "url": "/info/%ED%95%98%EB%8A%98%EC%95%BD%EA%B5%AD-%EA%B2%BD%EA%B8%B0%EB%8F%84-%EC%9D%98%EC%99%95%EC%8B%9C-%EC%98%A4%EC%A0%84%EB%8F%99/", "workingTime": ["1,2,3,4,5\uc9f8\uc8fc09:00~13:00", "09:00~19:30", "09:00~19:30", "09:00~19:30", "09:00~19:30", "09:00~19:30", "09:00~13:00", "09:00~13:00"]}, {"name": "\ub300\uc6c5\uc57d\uad6d", "lat": "37.35947892202223", "lng": "126.96707110424536", "url": "/info/%EB%8C%80%EC%9B%85%EC%95%BD%EA%B5%AD-%EA%B2%BD%EA%B8%B0%EB%8F%84-%EC%9D%98%EC%99%95%EC%8B%9C-%EC%98%A4%EC%A0%84%EB%8F%99/", "workingTime": ["-", "09:00~17:00", "09:00~17:00", "09:00~17:00", "09:00~17:00", "09:00~17:00", "09:00~18:00", "-"]}, {"name": "\ud604\ub300\ud504\ub77c\uc790\uc57d\uad6d", "lat": "37.35947892202222", "lng": "126.96707110424536", "url": "/info/%ED%98%84%EB%8C%80%ED%94%84%EB%9D%BC%EC%9E%90%EC%95%BD%EA%B5%AD-%EA%B2%BD%EA%B8%B0%EB%8F%84-%EC%9D%98%EC%99%95%EC%8B%9C-%EC%98%A4%EC%A0%84%EB%8F%99/", "workingTime": ["-", "09:00~13:00", "09:00~13:00", "09:00~13:00", "09:00~13:00", "09:00~13:00", "09:00~15:00", "-"]}, {"name": "\ud3ec\ub3c4\uc6d0\uc57d\uad6d", "lat": "37.362432610195185", "lng": "126.96640175736127", "url": "/info/%ED%8F%AC%EB%8F%84%EC%9B%90%EC%95%BD%EA%B5%AD-%EA%B2%BD%EA%B8%B0%EB%8F%84-%EC%9D%98%EC%99%95%EC%8B%9C-%EC%98%A4%EC%A0%84%EB%8F%99/", "workingTime": ["09:00~21:00(\uc5f0\ub77d\ud6c4\ubc29\ubb38\uc694\ub9dd)", "09:00~18:00", "09:00~18:00", "09:00~18:00", "09:00~18:00", "09:00~18:00", "09:00~21:00", "-"]}, {"name": "\uc218\uc815\uc57d\uad6d", "lat": "37.35005616885426", "lng": "126.97529174255", "url": "/info/%EC%88%98%EC%A0%95%EC%95%BD%EA%B5%AD-%EA%B2%BD%EA%B8%B0%EB%8F%84-%EC%9D%98%EC%99%95%EC%8B%9C-%EC%98%A4%EC%A0%84%EB%8F%99/", "workingTime": ["-", "09:00~13:30", "09:00~13:30", "09:00~13:30", "09:00~13:30", "09:00~13:30", "-", "-"]}, {"name": "\uc57d\uc0ac\ub791\uc628\ub204\ub9ac\uc57d\uad6d", "lat": "37.3581692487013", "lng": "126.96731126289421", "url": "/info/%EC%95%BD%EC%82%AC%EB%9E%91%EC%98%A8%EB%88%84%EB%A6%AC%EC%95%BD%EA%B5%AD-%EA%B2%BD%EA%B8%B0%EB%8F%84-%EC%9D%98%EC%99%95%EC%8B%9C-%EC%98%A4%EC%A0%84%EB%8F%99/", "workingTime": ["15:00~21:00(\uc5f0\ub77d\ud6c4\ubc29\ubb38\uc694\ub9dd)", "09:00~19:00", "09:00~19:00", "09:00~19:00", "09:00~19:00", "09:00~19:00", "10:00~21:00", "-"]}, {"name": "\ubd80\uc6d0\uc57d\uad6d", "lat": "37.35265757988198", "lng": "126.97188678461599", "url": "/info/%EB%B6%80%EC%9B%90%EC%95%BD%EA%B5%AD-%EA%B2%BD%EA%B8%B0%EB%8F%84-%EC%9D%98%EC%99%95%EC%8B%9C-%EC%98%A4%EC%A0%84%EB%8F%99/", "workingTime": ["-", "09:00~17:00", "09:00~17:00", "09:00~17:00", "09:00~17:00", "09:00~17:00", "09:00~18:00", "-"]}]