[{"name": "\uace0\ubaa8\uc57d\uad6d", "lat": "37.81309519572639", "lng": "127.16193376077894", "url": "/info/%EA%B3%A0%EB%AA%A8%EC%95%BD%EA%B5%AD-%EA%B2%BD%EA%B8%B0%EB%8F%84-%ED%8F%AC%EC%B2%9C%EC%8B%9C-%EC%86%8C%ED%9D%98%EC%9D%8D/", "workingTime": ["-", "08:30~22:00", "08:30~22:00", "08:30~22:00", "08:30~22:00", "08:30~22:00", "08:30~21:30", "09:00~21:00"]}, {"name": "\uc194\ubaa8\ub8e8\uc57d\uad6d", "lat": "37.82780217252027", "lng": "127.14819430251109", "url": "/info/%EC%86%94%EB%AA%A8%EB%A3%A8%EC%95%BD%EA%B5%AD-%EA%B2%BD%EA%B8%B0%EB%8F%84-%ED%8F%AC%EC%B2%9C%EC%8B%9C-%EC%86%8C%ED%9D%98%EC%9D%8D/", "workingTime": ["-", "08:30~22:00", "08:30~22:00", "08:30~22:00", "08:30~22:00", "08:30~22:00", "08:30~22:00", "09:00~21:00"]}, {"name": "\ucc38\uc0ac\ub791\uc57d\uad6d", "lat": "37.82746264541111", "lng": "127.14536926181078", "url": "/info/%EC%B0%B8%EC%82%AC%EB%9E%91%EC%95%BD%EA%B5%AD-%EA%B2%BD%EA%B8%B0%EB%8F%84-%ED%8F%AC%EC%B2%9C%EC%8B%9C-%EC%86%8C%ED%9D%98%EC%9D%8D/", "workingTime": ["1,2,3,4,5\uc9f8\uc8fc09:00~22:00", "08:00~22:00", "08:00~22:00", "08:00~22:00", "08:00~22:00", "08:00~22:00", "08:00~22:00", "09:00~22:00"]}, {"name": "\uc120\uc57d\uad6d", "lat": "37.82990915768173", "lng": "127.14028804876588", "url": "/info/%EC%84%A0%EC%95%BD%EA%B5%AD-%EA%B2%BD%EA%B8%B0%EB%8F%84-%ED%8F%AC%EC%B2%9C%EC%8B%9C-%EC%86%8C%ED%9D%98%EC%9D%8D/", "workingTime": ["-", "08:30~20:00", "08:30~20:00", "08:30~20:00", "08:30~20:00", "08:30~20:00", "08:30~17:00", "08:30~14:00"]}, {"name": "\ub298\ud589\ubcf5\ud55c\uc57d\uad6d", "lat": "37.8271963481", "lng": "127.1479539798", "url": "/info/%EB%8A%98%ED%96%89%EB%B3%B5%ED%95%9C%EC%95%BD%EA%B5%AD-%EA%B2%BD%EA%B8%B0%EB%8F%84-%ED%8F%AC%EC%B2%9C%EC%8B%9C-%EC%86%8C%ED%9D%98%EC%9D%8D/", "workingTime": ["-", "09:00~19:00", "09:00~19:00", "09:00~19:00", "09:00~19:00", "09:00~19:00", "09:00~14:00", "-"]}, {"name": "\ud658\ub3c4\uc57d\uad6d", "lat": "37.8269380625745", "lng": "127.14483098928203", "url": "/info/%ED%99%98%EB%8F%84%EC%95%BD%EA%B5%AD-%EA%B2%BD%EA%B8%B0%EB%8F%84-%ED%8F%AC%EC%B2%9C%EC%8B%9C-%EC%86%8C%ED%9D%98%EC%9D%8D/", "workingTime": ["09:30~20:00(\uc5f0\ub77d\ud6c4\ubc29\ubb38\uc694\ub9dd)", "09:30~19:00", "09:30~19:00", "09:30~19:00", "09:30~19:00", "09:30~19:00", "09:30~19:00", "-"]}, {"name": "\uc6b0\ub9ac\uc57d\uad6d", "lat": "37.81176666680985", "lng": "127.13433646223278", "url": "/info/%EC%9A%B0%EB%A6%AC%EC%95%BD%EA%B5%AD-%EA%B2%BD%EA%B8%B0%EB%8F%84-%ED%8F%AC%EC%B2%9C%EC%8B%9C-%EC%86%8C%ED%9D%98%EC%9D%8D/", "workingTime": ["-", "09:00~20:00", "09:00~20:00", "09:00~20:00", "09:00~20:00", "09:00~20:00", "09:00~20:00", "09:00~20:00"]}, {"name": "\uc1a1\uc6b0\ub298\ud478\ub978\uc57d\uad6d", "lat": "37.82835206773563", "lng": "127.1464824861481", "url": "/info/%EC%86%A1%EC%9A%B0%EB%8A%98%ED%91%B8%EB%A5%B8%EC%95%BD%EA%B5%AD-%EA%B2%BD%EA%B8%B0%EB%8F%84-%ED%8F%AC%EC%B2%9C%EC%8B%9C-%EC%86%8C%ED%9D%98%EC%9D%8D/", "workingTime": ["09:00~19:00(\uc5f0\ub77d\ud6c4\ubc29\ubb38\uc694\ub9dd)", "09:00~18:30", "09:00~18:30", "09:00~18:30", "09:00~18:30", "09:00~18:30", "-", "-"]}, {"name": "\ud587\uc0b4\uc628\ub204\ub9ac\uc57d\uad6d", "lat": "37.82735187798232", "lng": "127.144596651191", "url": "/info/%ED%96%87%EC%82%B4%EC%98%A8%EB%88%84%EB%A6%AC%EC%95%BD%EA%B5%AD-%EA%B2%BD%EA%B8%B0%EB%8F%84-%ED%8F%AC%EC%B2%9C%EC%8B%9C-%EC%86%8C%ED%9D%98%EC%9D%8D/", "workingTime": ["-", "09:00~18:30", "09:00~18:30", "09:00~18:30", "09:00~18:30", "09:00~18:30", "-", "-"]}, {"name": "\uc5d4\uc824\uc57d\uad6d", "lat": "37.82626625447172", "lng": "127.14384716094108", "url": "/info/%EC%97%94%EC%A0%A4%EC%95%BD%EA%B5%AD-%EA%B2%BD%EA%B8%B0%EB%8F%84-%ED%8F%AC%EC%B2%9C%EC%8B%9C-%EC%86%8C%ED%9D%98%EC%9D%8D/", "workingTime": ["-", "09:00~20:00", "09:00~20:00", "09:00~20:00", "09:00~20:00", "09:00~20:00", "09:00~16:00", "09:00~13:00"]}, {"name": "\uc1a1\uc6b0\uc57d\uad6d", "lat": "37.82998166096423", "lng": "127.13992469541114", "url": "/info/%EC%86%A1%EC%9A%B0%EC%95%BD%EA%B5%AD-%EA%B2%BD%EA%B8%B0%EB%8F%84-%ED%8F%AC%EC%B2%9C%EC%8B%9C-%EC%86%8C%ED%9D%98%EC%9D%8D/", "workingTime": ["-", "09:00~19:30", "09:00~19:30", "09:00~19:30", "09:00~19:30", "09:00~19:30", "09:00~17:00", "09:00~19:00"]}, {"name": "\uc120\uad50\uc1a1\uc6b0\uc628\ub204\ub9ac\uc57d\uad6d", "lat": "37.8279052881912", "lng": "127.14640891643856", "url": "/info/%EC%84%A0%EA%B5%90%EC%86%A1%EC%9A%B0%EC%98%A8%EB%88%84%EB%A6%AC%EC%95%BD%EA%B5%AD-%EA%B2%BD%EA%B8%B0%EB%8F%84-%ED%8F%AC%EC%B2%9C%EC%8B%9C-%EC%86%8C%ED%9D%98%EC%9D%8D/", "workingTime": ["-", "08:00~21:30", "08:00~21:30", "08:00~21:30", "08:00~21:30", "08:00~21:30", "-", "08:00~21:00"]}, {"name": "\uc870\uc740\uc57d\uad6d", "lat": "37.829395861041185", "lng": "127.14160472522937", "url": "/info/%EC%A1%B0%EC%9D%80%EC%95%BD%EA%B5%AD-%EA%B2%BD%EA%B8%B0%EB%8F%84-%ED%8F%AC%EC%B2%9C%EC%8B%9C-%EC%86%8C%ED%9D%98%EC%9D%8D/", "workingTime": ["-", "09:00~19:00", "09:00~19:00", "09:00~19:00", "09:00~19:00", "09:00~19:00", "-", "-"]}, {"name": "\uc6b0\ub9ac\ub4e4\uc628\ub204\ub9ac\uc57d\uad6d", "lat": "37.8246600079576", "lng": "127.14200012656997", "url": "/info/%EC%9A%B0%EB%A6%AC%EB%93%A4%EC%98%A8%EB%88%84%EB%A6%AC%EC%95%BD%EA%B5%AD-%EA%B2%BD%EA%B8%B0%EB%8F%84-%ED%8F%AC%EC%B2%9C%EC%8B%9C-%EC%86%8C%ED%9D%98%EC%9D%8D/", "workingTime": ["-", "09:00~19:00", "09:00~19:00", "09:00~19:00", "09:00~19:00", "09:00~19:00", "-", "09:00~16:00"]}, {"name": "\ub2e4\uc815\uc57d\uad6d", "lat": "37.8296509654", "lng": "127.1476226523", "url": "/info/%EB%8B%A4%EC%A0%95%EC%95%BD%EA%B5%AD-%EA%B2%BD%EA%B8%B0%EB%8F%84-%ED%8F%AC%EC%B2%9C%EC%8B%9C-%EC%86%8C%ED%9D%98%EC%9D%8D/", "workingTime": ["-", "08:00~19:00", "08:00~19:00", "08:00~19:00", "08:00~19:00", "08:00~19:00", "-", "-"]}, {"name": "\uc1a1\uc6b0\uc11c\uc6b8\uc57d\uad6d", "lat": "37.82958303365759", "lng": "127.14772075037075", "url": "/info/%EC%86%A1%EC%9A%B0%EC%84%9C%EC%9A%B8%EC%95%BD%EA%B5%AD-%EA%B2%BD%EA%B8%B0%EB%8F%84-%ED%8F%AC%EC%B2%9C%EC%8B%9C-%EC%86%8C%ED%9D%98%EC%9D%8D/", "workingTime": ["-", "09:30~19:00", "09:30~19:00", "09:30~19:00", "09:30~19:00", "09:30~19:00", "09:30~15:30", "-"]}, {"name": "\uc1a1\uc6b0\ud0dc\ud3c9\uc591\uc57d\uad6d", "lat": "37.8295192074638", "lng": "127.14852204840905", "url": "/info/%EC%86%A1%EC%9A%B0%ED%83%9C%ED%8F%89%EC%96%91%EC%95%BD%EA%B5%AD-%EA%B2%BD%EA%B8%B0%EB%8F%84-%ED%8F%AC%EC%B2%9C%EC%8B%9C-%EC%86%8C%ED%9D%98%EC%9D%8D/", "workingTime": ["09:00~21:00(\uc5f0\ub77d\ud6c4\ubc29\ubb38\uc694\ub9dd)", "08:30~21:00", "08:30~21:00", "08:30~21:00", "08:30~21:00", "08:30~21:00", "09:00~21:00", "-"]}, {"name": "\uc1a1\uc6b0\uc218\uc57d\uad6d", "lat": "37.82420789646721", "lng": "127.14134548783428", "url": "/info/%EC%86%A1%EC%9A%B0%EC%88%98%EC%95%BD%EA%B5%AD-%EA%B2%BD%EA%B8%B0%EB%8F%84-%ED%8F%AC%EC%B2%9C%EC%8B%9C-%EC%86%8C%ED%9D%98%EC%9D%8D/", "workingTime": ["09:30~22:30(\uc5f0\ub77d\ud6c4\ubc29\ubb38\uc694\ub9dd)", "09:30~22:30", "09:30~22:30", "09:30~22:30", "09:30~22:30", "09:30~22:30", "09:30~22:30", "-"]}]