[{"name": "\uc720\uc6d0\uc13c\ud130\uc57d\uad6d", "lat": "37.500801739038", "lng": "126.79011439794", "url": "/info/%EC%9C%A0%EC%9B%90%EC%84%BC%ED%84%B0%EC%95%BD%EA%B5%AD-%EA%B2%BD%EA%B8%B0%EB%8F%84-%EB%B6%80%EC%B2%9C%EC%8B%9C-%EC%9B%90%EB%AF%B8%EB%8F%99/", "workingTime": ["-", "08:00~21:00", "08:00~21:00", "08:00~21:00", "08:00~21:00", "08:00~21:00", "08:00~13:00", "-"]}, {"name": "\uc6b0\uc2e0\uc57d\uad6d", "lat": "37.48964166938077", "lng": "126.78999571192779", "url": "/info/%EC%9A%B0%EC%8B%A0%EC%95%BD%EA%B5%AD-%EA%B2%BD%EA%B8%B0%EB%8F%84-%EB%B6%80%EC%B2%9C%EC%8B%9C-%EC%9B%90%EB%AF%B8%EB%8F%99/", "workingTime": ["-", "09:00~21:00", "09:00~21:00", "09:00~21:00", "09:00~21:00", "09:00~21:00", "-", "09:00~21:30"]}, {"name": "\ub355\ucc9c\uc57d\uad6d", "lat": "37.4938393251", "lng": "126.7914438033", "url": "/info/%EB%8D%95%EC%B2%9C%EC%95%BD%EA%B5%AD-%EA%B2%BD%EA%B8%B0%EB%8F%84-%EB%B6%80%EC%B2%9C%EC%8B%9C-%EC%9B%90%EB%AF%B8%EB%8F%99/", "workingTime": ["1,2,3,4,5\uc9f8\uc8fc09:00~18:30", "09:00~21:30", "09:00~21:30", "09:00~21:30", "09:00~21:30", "09:00~21:30", "09:00~18:30", "09:00~18:30"]}, {"name": "\ucc38\uc194\uc628\ub204\ub9ac\uc57d\uad6d", "lat": "37.49382892568775", "lng": "126.78514189791208", "url": "/info/%EC%B0%B8%EC%86%94%EC%98%A8%EB%88%84%EB%A6%AC%EC%95%BD%EA%B5%AD-%EA%B2%BD%EA%B8%B0%EB%8F%84-%EB%B6%80%EC%B2%9C%EC%8B%9C-%EC%9B%90%EB%AF%B8%EB%8F%99/", "workingTime": ["-", "09:00~14:30", "09:00~14:30", "09:00~14:30", "09:00~14:30", "09:00~14:30", "-", "-"]}, {"name": "\ubbf8\uc18c\uc57d\uad6d", "lat": "37.492894870395624", "lng": "126.78996636886274", "url": "/info/%EB%AF%B8%EC%86%8C%EC%95%BD%EA%B5%AD-%EA%B2%BD%EA%B8%B0%EB%8F%84-%EB%B6%80%EC%B2%9C%EC%8B%9C-%EC%9B%90%EB%AF%B8%EB%8F%99/", "workingTime": ["-", "09:00~19:00", "09:00~19:00", "09:00~19:00", "09:00~19:00", "09:00~19:00", "09:00~16:00", "-"]}, {"name": "\uba54\ub514\ud31c\ud574\uc131\uc57d\uad6d", "lat": "37.49515959470797", "lng": "126.78607101329788", "url": "/info/%EB%A9%94%EB%94%94%ED%8C%9C%ED%95%B4%EC%84%B1%EC%95%BD%EA%B5%AD-%EA%B2%BD%EA%B8%B0%EB%8F%84-%EB%B6%80%EC%B2%9C%EC%8B%9C-%EC%9B%90%EB%AF%B8%EB%8F%99/", "workingTime": ["1,2,3,4,5\uc9f8\uc8fc10:00~23:30", "09:30~23:30", "09:30~23:30", "09:30~23:30", "09:30~23:30", "09:30~23:30", "09:00~23:30", "09:00~23:30"]}, {"name": "\uc18d\ud3b8\ud55c\uc57d\uad6d", "lat": "37.49265477621449", "lng": "126.79007206428041", "url": "/info/%EC%86%8D%ED%8E%B8%ED%95%9C%EC%95%BD%EA%B5%AD-%EA%B2%BD%EA%B8%B0%EB%8F%84-%EB%B6%80%EC%B2%9C%EC%8B%9C-%EC%9B%90%EB%AF%B8%EB%8F%99/", "workingTime": ["-", "09:00~21:00", "09:00~21:00", "09:00~21:00", "09:00~21:00", "09:00~21:00", "09:00~16:00", "-"]}, {"name": "\ud61c\uc778\uc57d\uad6d", "lat": "37.49124606068365", "lng": "126.7903338411538", "url": "/info/%ED%98%9C%EC%9D%B8%EC%95%BD%EA%B5%AD-%EA%B2%BD%EA%B8%B0%EB%8F%84-%EB%B6%80%EC%B2%9C%EC%8B%9C-%EC%9B%90%EB%AF%B8%EB%8F%99/", "workingTime": ["-", "09:00~21:30", "09:00~21:30", "09:00~21:30", "09:00~21:30", "09:00~21:30", "09:00~21:30", "09:00~20:00"]}, {"name": "\uc911\uc559\uc57d\uad6d", "lat": "37.49530724484503", "lng": "126.78551083456135", "url": "/info/%EC%A4%91%EC%95%99%EC%95%BD%EA%B5%AD-%EA%B2%BD%EA%B8%B0%EB%8F%84-%EB%B6%80%EC%B2%9C%EC%8B%9C-%EC%9B%90%EB%AF%B8%EB%8F%99/", "workingTime": ["10:00~22:00(\uc5f0\ub77d\ud6c4\ubc29\ubb38\uc694\ub9dd)", "09:00~22:00", "09:00~22:00", "09:00~22:00", "09:00~22:00", "09:00~22:00", "09:00~22:00", "08:00~22:00"]}, {"name": "\ubd80\ucc9c\uba54\ub514\uce7c\uc57d\uad6d", "lat": "37.49201102449205", "lng": "126.78482709643059", "url": "/info/%EB%B6%80%EC%B2%9C%EB%A9%94%EB%94%94%EC%B9%BC%EC%95%BD%EA%B5%AD-%EA%B2%BD%EA%B8%B0%EB%8F%84-%EB%B6%80%EC%B2%9C%EC%8B%9C-%EC%9B%90%EB%AF%B8%EB%8F%99/", "workingTime": ["-", "09:00~21:30", "09:00~21:30", "09:00~21:30", "09:00~21:30", "09:00~21:30", "-", "09:00~15:00"]}, {"name": "\ud574\uba85\uc57d\uad6d", "lat": "37.4932595217", "lng": "126.7856512344", "url": "/info/%ED%95%B4%EB%AA%85%EC%95%BD%EA%B5%AD-%EA%B2%BD%EA%B8%B0%EB%8F%84-%EB%B6%80%EC%B2%9C%EC%8B%9C-%EC%9B%90%EB%AF%B8%EB%8F%99/", "workingTime": ["1,2,3,4,5\uc9f8\uc8fc09:00~13:00", "09:00~21:00", "09:00~21:00", "09:00~21:00", "09:00~21:00", "09:00~21:00", "09:00~16:00", "09:00~13:00"]}, {"name": "\ucc9c\uc0ac\uc57d\uad6d", "lat": "37.494202933522665", "lng": "126.78519171279245", "url": "/info/%EC%B2%9C%EC%82%AC%EC%95%BD%EA%B5%AD-%EA%B2%BD%EA%B8%B0%EB%8F%84-%EB%B6%80%EC%B2%9C%EC%8B%9C-%EC%9B%90%EB%AF%B8%EB%8F%99/", "workingTime": ["-", "09:00~20:00", "09:00~20:00", "09:00~20:00", "09:00~20:00", "09:00~20:00", "-", "-"]}, {"name": "\ucc9c\uc218\ub2f9\uc628\ub204\ub9ac\uc57d\uad6d", "lat": "37.49557173208568", "lng": "126.79081026623788", "url": "/info/%EC%B2%9C%EC%88%98%EB%8B%B9%EC%98%A8%EB%88%84%EB%A6%AC%EC%95%BD%EA%B5%AD-%EA%B2%BD%EA%B8%B0%EB%8F%84-%EB%B6%80%EC%B2%9C%EC%8B%9C-%EC%9B%90%EB%AF%B8%EB%8F%99/", "workingTime": ["-", "08:00~21:00", "08:00~21:00", "08:00~21:00", "08:00~21:00", "08:00~21:00", "08:00~21:00", "09:30~21:00"]}, {"name": "\uc6d0\ubbf8\uc0ac\ub791\uc57d\uad6d", "lat": "37.49281690882238", "lng": "126.79070837828262", "url": "/info/%EC%9B%90%EB%AF%B8%EC%82%AC%EB%9E%91%EC%95%BD%EA%B5%AD-%EA%B2%BD%EA%B8%B0%EB%8F%84-%EB%B6%80%EC%B2%9C%EC%8B%9C-%EC%9B%90%EB%AF%B8%EB%8F%99/", "workingTime": ["-", "09:00~20:00", "09:00~20:00", "09:00~20:00", "09:00~20:00", "09:00~20:00", "-", "-"]}, {"name": "\ud55c\ube5b\uc57d\uad6d", "lat": "37.49556372604462", "lng": "126.79103085702616", "url": "/info/%ED%95%9C%EB%B9%9B%EC%95%BD%EA%B5%AD-%EA%B2%BD%EA%B8%B0%EB%8F%84-%EB%B6%80%EC%B2%9C%EC%8B%9C-%EC%9B%90%EB%AF%B8%EB%8F%99/", "workingTime": ["-", "09:00~22:00", "09:00~22:00", "09:00~22:00", "09:00~22:00", "09:00~22:00", "09:00~22:00", "-"]}, {"name": "\ucc9c\uc9c0\uc57d\uad6d", "lat": "37.495266447542164", "lng": "126.79140819222883", "url": "/info/%EC%B2%9C%EC%A7%80%EC%95%BD%EA%B5%AD-%EA%B2%BD%EA%B8%B0%EB%8F%84-%EB%B6%80%EC%B2%9C%EC%8B%9C-%EC%9B%90%EB%AF%B8%EB%8F%99/", "workingTime": ["-", "09:00~22:00", "09:00~22:00", "09:00~22:00", "09:00~22:00", "09:00~22:00", "09:00~22:00", "-"]}]