[{"name": "\uba54\ub514\ud31c\uc6b0\uc77c\uc57d\uad6d", "lat": "37.6564969875", "lng": "126.8369367366", "url": "/info/%EB%A9%94%EB%94%94%ED%8C%9C%EC%9A%B0%EC%9D%BC%EC%95%BD%EA%B5%AD-%EA%B2%BD%EA%B8%B0%EB%8F%84-%EA%B3%A0%EC%96%91%EC%8B%9C-%EC%84%B1%EC%82%AC%EB%8F%99/", "workingTime": ["-", "08:30~20:00", "08:30~20:00", "08:30~20:00", "08:30~20:00", "08:30~20:00", "08:30~17:00", "-"]}, {"name": "\ud3c9\uac15\uc57d\uad6d", "lat": "37.6585286321", "lng": "126.8388543621", "url": "/info/%ED%8F%89%EA%B0%95%EC%95%BD%EA%B5%AD-%EA%B2%BD%EA%B8%B0%EB%8F%84-%EA%B3%A0%EC%96%91%EC%8B%9C-%EC%84%B1%EC%82%AC%EB%8F%99/", "workingTime": ["-", "09:00~15:00", "09:00~15:00", "09:00~15:00", "09:00~15:00", "09:00~15:00", "09:00~15:00", "-"]}, {"name": "\ub098\uc740\uc57d\uad6d", "lat": "37.656286553116566", "lng": "126.83730875963047", "url": "/info/%EB%82%98%EC%9D%80%EC%95%BD%EA%B5%AD-%EA%B2%BD%EA%B8%B0%EB%8F%84-%EA%B3%A0%EC%96%91%EC%8B%9C-%EC%84%B1%EC%82%AC%EB%8F%99/", "workingTime": ["-", "09:00~18:30", "09:00~18:30", "09:00~18:30", "09:00~18:30", "09:00~18:30", "09:00~15:30", "-"]}, {"name": "\uac74\uac15\uc57d\uad6d", "lat": "37.656624395136845", "lng": "126.83664619352555", "url": "/info/%EA%B1%B4%EA%B0%95%EC%95%BD%EA%B5%AD-%EA%B2%BD%EA%B8%B0%EB%8F%84-%EA%B3%A0%EC%96%91%EC%8B%9C-%EC%84%B1%EC%82%AC%EB%8F%99/", "workingTime": ["-", "09:30~19:30", "09:30~19:30", "09:30~19:30", "09:30~19:30", "09:30~19:30", "09:30~16:00", "-"]}, {"name": "\uc601\uc9c4\uc57d\uad6d", "lat": "37.65542085337438", "lng": "126.83798169911323", "url": "/info/%EC%98%81%EC%A7%84%EC%95%BD%EA%B5%AD-%EA%B2%BD%EA%B8%B0%EB%8F%84-%EA%B3%A0%EC%96%91%EC%8B%9C-%EC%84%B1%EC%82%AC%EB%8F%99/", "workingTime": ["-", "08:30~19:00", "08:30~19:00", "08:30~19:00", "08:30~19:00", "08:30~19:00", "08:30~13:00", "-"]}, {"name": "\uc0bc\ubcf4\uc57d\uad6d", "lat": "37.65399426760107", "lng": "126.83715968992101", "url": "/info/%EC%82%BC%EB%B3%B4%EC%95%BD%EA%B5%AD-%EA%B2%BD%EA%B8%B0%EB%8F%84-%EA%B3%A0%EC%96%91%EC%8B%9C-%EC%84%B1%EC%82%AC%EB%8F%99/", "workingTime": ["-", "09:00~13:00", "09:00~13:00", "09:00~13:00", "09:00~13:00", "09:00~13:00", "09:00~14:30", "-"]}, {"name": "\uc6d0\ub2f9\uc57d\uad6d", "lat": "37.65631850387612", "lng": "126.8362220597026", "url": "/info/%EC%9B%90%EB%8B%B9%EC%95%BD%EA%B5%AD-%EA%B2%BD%EA%B8%B0%EB%8F%84-%EA%B3%A0%EC%96%91%EC%8B%9C-%EC%84%B1%EC%82%AC%EB%8F%99/", "workingTime": ["2,4\uc9f8\uc8fc09:00~21:00", "09:00~21:00", "09:00~21:00", "09:00~21:00", "09:00~21:00", "09:00~21:00", "09:00~21:00", "09:00~21:00"]}, {"name": "\ud55c\uad6d\uc57d\uad6d", "lat": "37.655832226367295", "lng": "126.83705493647113", "url": "/info/%ED%95%9C%EA%B5%AD%EC%95%BD%EA%B5%AD-%EA%B2%BD%EA%B8%B0%EB%8F%84-%EA%B3%A0%EC%96%91%EC%8B%9C-%EC%84%B1%EC%82%AC%EB%8F%99/", "workingTime": ["1,2,3,4,5\uc9f8\uc8fc09:00~21:00", "09:00~21:00", "09:00~21:00", "09:00~21:00", "09:00~21:00", "09:00~21:00", "09:00~21:00", "09:00~21:00"]}, {"name": "\uc5b4\uc6b8\ub9bc\uc628\ub204\ub9ac\uc57d\uad6d", "lat": "37.65374287171705", "lng": "126.83779031055997", "url": "/info/%EC%96%B4%EC%9A%B8%EB%A6%BC%EC%98%A8%EB%88%84%EB%A6%AC%EC%95%BD%EA%B5%AD-%EA%B2%BD%EA%B8%B0%EB%8F%84-%EA%B3%A0%EC%96%91%EC%8B%9C-%EC%84%B1%EC%82%AC%EB%8F%99/", "workingTime": ["-", "09:00~16:00", "09:00~16:00", "09:00~16:00", "09:00~16:00", "09:00~16:00", "09:00~16:00", "-"]}, {"name": "\ub300\uc885\uc57d\uad6d", "lat": "37.65805641872324", "lng": "126.83878173992328", "url": "/info/%EB%8C%80%EC%A2%85%EC%95%BD%EA%B5%AD-%EA%B2%BD%EA%B8%B0%EB%8F%84-%EA%B3%A0%EC%96%91%EC%8B%9C-%EC%84%B1%EC%82%AC%EB%8F%99/", "workingTime": ["10:00~21:00(\uc5f0\ub77d\ud6c4\ubc29\ubb38\uc694\ub9dd)", "10:00~21:00", "10:00~21:00", "10:00~21:00", "10:00~21:00", "10:00~21:00", "10:00~21:00", "-"]}]