[{"name": "\uc601\uc9c4\uc57d\uad6d", "lat": "36.99234716113659", "lng": "127.08697314578913", "url": "/info/%EC%98%81%EC%A7%84%EC%95%BD%EA%B5%AD-%EA%B2%BD%EA%B8%B0%EB%8F%84-%ED%8F%89%ED%83%9D%EC%8B%9C-%ED%8F%89%ED%83%9D%EB%8F%99/", "workingTime": ["-", "08:00~19:30", "08:00~19:30", "08:00~19:30", "08:00~19:30", "08:00~19:30", "08:00~14:00", "-"]}, {"name": "\uc815\ubb38\uc57d\uad6d", "lat": "36.992961651963974", "lng": "127.08948562393952", "url": "/info/%EC%A0%95%EB%AC%B8%EC%95%BD%EA%B5%AD-%EA%B2%BD%EA%B8%B0%EB%8F%84-%ED%8F%89%ED%83%9D%EC%8B%9C-%ED%8F%89%ED%83%9D%EB%8F%99/", "workingTime": ["-", "09:00~18:00", "09:00~18:00", "09:00~18:00", "09:00~18:00", "09:00~18:00", "-", "-"]}, {"name": "\ub098\ub798\uc57d\uad6d", "lat": "36.993850000000002", "lng": "127.090430555555557", "url": "/info/%EB%82%98%EB%9E%98%EC%95%BD%EA%B5%AD-%EA%B2%BD%EA%B8%B0%EB%8F%84-%ED%8F%89%ED%83%9D%EC%8B%9C-%ED%8F%89%ED%83%9D%EB%8F%99/", "workingTime": ["-", "09:00~14:00", "09:00~14:00", "09:00~14:00", "09:00~14:00", "09:00~14:00", "09:00~14:00", "-"]}, {"name": "\uc628\uc720\uc57d\uad6d", "lat": "36.9910552129982", "lng": "127.089268837104", "url": "/info/%EC%98%A8%EC%9C%A0%EC%95%BD%EA%B5%AD-%EA%B2%BD%EA%B8%B0%EB%8F%84-%ED%8F%89%ED%83%9D%EC%8B%9C-%ED%8F%89%ED%83%9D%EB%8F%99/", "workingTime": ["-", "09:00~19:00", "09:00~19:00", "09:00~19:00", "09:00~19:00", "09:00~19:00", "09:00~14:00", "-"]}, {"name": "\uc73c\ub738\uc57d\uad6d", "lat": "36.99277801340042", "lng": "127.08922031952883", "url": "/info/%EC%9C%BC%EB%9C%B8%EC%95%BD%EA%B5%AD-%EA%B2%BD%EA%B8%B0%EB%8F%84-%ED%8F%89%ED%83%9D%EC%8B%9C-%ED%8F%89%ED%83%9D%EB%8F%99/", "workingTime": ["1\uc9f8\uc8fc16:00~21:00", "08:30~20:30", "08:30~20:30", "08:30~20:30", "08:30~20:30", "08:30~20:30", "08:30~17:00", "-"]}, {"name": "\uc720\ub9bc\uc57d\uad6d", "lat": "36.9939202117894", "lng": "127.08962143766", "url": "/info/%EC%9C%A0%EB%A6%BC%EC%95%BD%EA%B5%AD-%EA%B2%BD%EA%B8%B0%EB%8F%84-%ED%8F%89%ED%83%9D%EC%8B%9C-%ED%8F%89%ED%83%9D%EB%8F%99/", "workingTime": ["-", "08:30~20:00", "08:30~20:00", "08:30~20:00", "08:30~20:00", "08:30~20:00", "08:30~16:00", "-"]}, {"name": "\uc6f0\uc57d\uad6d", "lat": "36.9938123768782", "lng": "127.089349571124", "url": "/info/%EC%9B%B0%EC%95%BD%EA%B5%AD-%EA%B2%BD%EA%B8%B0%EB%8F%84-%ED%8F%89%ED%83%9D%EC%8B%9C-%ED%8F%89%ED%83%9D%EB%8F%99/", "workingTime": ["-", "09:00~18:00", "09:00~18:00", "09:00~18:00", "09:00~18:00", "09:00~18:00", "-", "-"]}, {"name": "\ud587\uc0b4\uac00\ub4dd\ud55c\uc57d\uad6d", "lat": "36.99278455767699", "lng": "127.08924037711262", "url": "/info/%ED%96%87%EC%82%B4%EA%B0%80%EB%93%9D%ED%95%9C%EC%95%BD%EA%B5%AD-%EA%B2%BD%EA%B8%B0%EB%8F%84-%ED%8F%89%ED%83%9D%EC%8B%9C-%ED%8F%89%ED%83%9D%EB%8F%99/", "workingTime": ["-", "08:30~13:00", "08:30~13:00", "08:30~13:00", "08:30~13:00", "08:30~13:00", "08:30~14:00", "-"]}, {"name": "\uace0\ub824\uc0ac\uc57d\uad6d", "lat": "36.9917503256", "lng": "127.0898436693", "url": "/info/%EA%B3%A0%EB%A0%A4%EC%82%AC%EC%95%BD%EA%B5%AD-%EA%B2%BD%EA%B8%B0%EB%8F%84-%ED%8F%89%ED%83%9D%EC%8B%9C-%ED%8F%89%ED%83%9D%EB%8F%99/", "workingTime": ["-", "09:00~21:00", "09:00~21:00", "09:00~21:00", "09:00~21:00", "09:00~21:00", "09:00~18:00", "09:00~14:00"]}, {"name": "\uc131\uc2ec\uc57d\uad6d", "lat": "36.99201179361006", "lng": "127.08719742998457", "url": "/info/%EC%84%B1%EC%8B%AC%EC%95%BD%EA%B5%AD-%EA%B2%BD%EA%B8%B0%EB%8F%84-%ED%8F%89%ED%83%9D%EC%8B%9C-%ED%8F%89%ED%83%9D%EB%8F%99/", "workingTime": ["-", "09:00~20:30", "09:00~20:30", "09:00~20:30", "09:00~20:30", "09:00~20:30", "09:00~19:00", "-"]}, {"name": "\ubc14\ub978\uc57d\uad6d", "lat": "36.992478317256", "lng": "127.088997754025", "url": "/info/%EB%B0%94%EB%A5%B8%EC%95%BD%EA%B5%AD-%EA%B2%BD%EA%B8%B0%EB%8F%84-%ED%8F%89%ED%83%9D%EC%8B%9C-%ED%8F%89%ED%83%9D%EB%8F%99/", "workingTime": ["-", "10:00~18:00", "10:00~18:00", "10:00~18:00", "10:00~18:00", "10:00~18:00", "-", "-"]}, {"name": "\uc0c8\uc11c\uc6b8\uc57d\uad6d", "lat": "36.9926303748275", "lng": "127.089417723128", "url": "/info/%EC%83%88%EC%84%9C%EC%9A%B8%EC%95%BD%EA%B5%AD-%EA%B2%BD%EA%B8%B0%EB%8F%84-%ED%8F%89%ED%83%9D%EC%8B%9C-%ED%8F%89%ED%83%9D%EB%8F%99/", "workingTime": ["-", "08:00~20:00", "08:00~20:00", "08:00~20:00", "08:00~20:00", "08:00~20:00", "-", "-"]}, {"name": "\uae40\uc57d\uad6d", "lat": "36.9918974768998", "lng": "127.083288658126", "url": "/info/%EA%B9%80%EC%95%BD%EA%B5%AD-%EA%B2%BD%EA%B8%B0%EB%8F%84-%ED%8F%89%ED%83%9D%EC%8B%9C-%ED%8F%89%ED%83%9D%EB%8F%99/", "workingTime": ["-", "09:00~18:00", "09:00~18:00", "09:00~18:00", "09:00~18:00", "09:00~18:00", "-", "-"]}, {"name": "\ubc14\ub2e4\uc57d\uad6d", "lat": "36.9911252314", "lng": "127.0870795736", "url": "/info/%EB%B0%94%EB%8B%A4%EC%95%BD%EA%B5%AD-%EA%B2%BD%EA%B8%B0%EB%8F%84-%ED%8F%89%ED%83%9D%EC%8B%9C-%ED%8F%89%ED%83%9D%EB%8F%99/", "workingTime": ["-", "09:00~18:00", "09:00~18:00", "09:00~18:00", "09:00~18:00", "09:00~18:00", "09:00~12:00", "-"]}, {"name": "\ubbf8\uc18c\uc57d\uad6d", "lat": "36.99214423168496", "lng": "127.08754566936477", "url": "/info/%EB%AF%B8%EC%86%8C%EC%95%BD%EA%B5%AD-%EA%B2%BD%EA%B8%B0%EB%8F%84-%ED%8F%89%ED%83%9D%EC%8B%9C-%ED%8F%89%ED%83%9D%EB%8F%99/", "workingTime": ["-", "09:00~19:00", "09:00~19:00", "09:00~19:00", "09:00~19:00", "09:00~19:00", "09:00~16:00", "-"]}, {"name": "\ud55c\ube5b\uc57d\uad6d", "lat": "36.9918191007562", "lng": "127.08856527677833", "url": "/info/%ED%95%9C%EB%B9%9B%EC%95%BD%EA%B5%AD-%EA%B2%BD%EA%B8%B0%EB%8F%84-%ED%8F%89%ED%83%9D%EC%8B%9C-%ED%8F%89%ED%83%9D%EB%8F%99/", "workingTime": ["-", "09:00~17:00", "09:00~17:00", "09:00~17:00", "09:00~17:00", "09:00~17:00", "09:00~17:00", "-"]}, {"name": "\ub85c\ub370\uc624\uc57d\uad6d", "lat": "36.9919881825523", "lng": "127.08900131822601", "url": "/info/%EB%A1%9C%EB%8D%B0%EC%98%A4%EC%95%BD%EA%B5%AD-%EA%B2%BD%EA%B8%B0%EB%8F%84-%ED%8F%89%ED%83%9D%EC%8B%9C-%ED%8F%89%ED%83%9D%EB%8F%99/", "workingTime": ["-", "09:00~13:00", "09:00~13:00", "09:00~13:00", "09:00~13:00", "09:00~13:00", "09:30~14:00", "-"]}, {"name": "\uac74\uac15\uc57d\uad6d", "lat": "36.992767577590044", "lng": "127.08871705038743", "url": "/info/%EA%B1%B4%EA%B0%95%EC%95%BD%EA%B5%AD-%EA%B2%BD%EA%B8%B0%EB%8F%84-%ED%8F%89%ED%83%9D%EC%8B%9C-%ED%8F%89%ED%83%9D%EB%8F%99/", "workingTime": ["-", "08:30~19:00", "08:30~19:00", "08:30~19:00", "08:30~19:00", "08:30~19:00", "08:30~15:00", "08:30~15:00"]}, {"name": "\uc218\ud638\uc628\ub204\ub9ac\uc57d\uad6d", "lat": "36.9914809397", "lng": "127.0885942178", "url": "/info/%EC%88%98%ED%98%B8%EC%98%A8%EB%88%84%EB%A6%AC%EC%95%BD%EA%B5%AD-%EA%B2%BD%EA%B8%B0%EB%8F%84-%ED%8F%89%ED%83%9D%EC%8B%9C-%ED%8F%89%ED%83%9D%EB%8F%99/", "workingTime": ["-", "09:30~20:00", "09:30~20:00", "09:30~20:00", "09:30~20:00", "09:30~20:00", "09:30~15:00", "-"]}, {"name": "\uc870\uc77c\uc57d\uad6d", "lat": "36.9906125069", "lng": "127.08831013650001", "url": "/info/%EC%A1%B0%EC%9D%BC%EC%95%BD%EA%B5%AD-%EA%B2%BD%EA%B8%B0%EB%8F%84-%ED%8F%89%ED%83%9D%EC%8B%9C-%ED%8F%89%ED%83%9D%EB%8F%99/", "workingTime": ["-", "09:00~20:00", "09:00~20:00", "09:00~20:00", "09:00~20:00", "09:00~20:00", "09:00~18:00", "-"]}, {"name": "\ub098\ub77c\uc57d\uad6d", "lat": "36.991278310114225", "lng": "127.08876236315413", "url": "/info/%EB%82%98%EB%9D%BC%EC%95%BD%EA%B5%AD-%EA%B2%BD%EA%B8%B0%EB%8F%84-%ED%8F%89%ED%83%9D%EC%8B%9C-%ED%8F%89%ED%83%9D%EB%8F%99/", "workingTime": ["09:00~13:00(\uc5f0\ub77d\ud6c4\ubc29\ubb38\uc694\ub9dd)", "08:30~19:00", "08:30~19:00", "08:30~19:00", "08:30~19:00", "08:30~19:00", "08:30~17:00", "-"]}, {"name": "\ud55c\uc77c\uc57d\uad6d", "lat": "36.993524385955", "lng": "127.08885273174893", "url": "/info/%ED%95%9C%EC%9D%BC%EC%95%BD%EA%B5%AD-%EA%B2%BD%EA%B8%B0%EB%8F%84-%ED%8F%89%ED%83%9D%EC%8B%9C-%ED%8F%89%ED%83%9D%EB%8F%99/", "workingTime": ["-", "09:00~18:30", "09:00~18:30", "09:00~18:30", "09:00~18:30", "09:00~18:30", "09:00~14:00", "-"]}, {"name": "\ube44\ud0c0\ubbfc\uc57d\uad6d", "lat": "36.99195574152161", "lng": "127.08986190350747", "url": "/info/%EB%B9%84%ED%83%80%EB%AF%BC%EC%95%BD%EA%B5%AD-%EA%B2%BD%EA%B8%B0%EB%8F%84-%ED%8F%89%ED%83%9D%EC%8B%9C-%ED%8F%89%ED%83%9D%EB%8F%99/", "workingTime": ["-", "09:00~19:00", "09:00~19:00", "09:00~19:00", "09:00~19:00", "09:00~19:00", "09:00~14:00", "-"]}, {"name": "\uac15\ub0a8\uc57d\uad6d", "lat": "36.99229344746466", "lng": "127.08649229748086", "url": "/info/%EA%B0%95%EB%82%A8%EC%95%BD%EA%B5%AD-%EA%B2%BD%EA%B8%B0%EB%8F%84-%ED%8F%89%ED%83%9D%EC%8B%9C-%ED%8F%89%ED%83%9D%EB%8F%99/", "workingTime": ["15:00~21:00(\uc5f0\ub77d\ud6c4\ubc29\ubb38\uc694\ub9dd)", "15:00~21:00", "15:00~21:00", "15:00~21:00", "15:00~21:00", "15:00~21:00", "08:30~17:00", "-"]}, {"name": "\uc778\uc601\uc628\ub204\ub9ac\uc57d\uad6d", "lat": "36.99286858272143", "lng": "127.08860483341641", "url": "/info/%EC%9D%B8%EC%98%81%EC%98%A8%EB%88%84%EB%A6%AC%EC%95%BD%EA%B5%AD-%EA%B2%BD%EA%B8%B0%EB%8F%84-%ED%8F%89%ED%83%9D%EC%8B%9C-%ED%8F%89%ED%83%9D%EB%8F%99/", "workingTime": ["-", "08:30~20:30", "08:30~20:30", "08:30~20:30", "08:30~20:30", "08:30~20:30", "08:30~17:00", "-"]}]