[{"name": "\uc635\ud2f0\ub9c8 \uac74\uac15\uc744\uadf8\ub9ac\ub294\uc57d\uad6d", "lat": "37.63637366526297", "lng": "127.21597545163138", "url": "/info/%EC%98%B5%ED%8B%B0%EB%A7%88+%EA%B1%B4%EA%B0%95%EC%9D%84%EA%B7%B8%EB%A6%AC%EB%8A%94%EC%95%BD%EA%B5%AD-%EA%B2%BD%EA%B8%B0%EB%8F%84-%EB%82%A8%EC%96%91%EC%A3%BC%EC%8B%9C-%EA%B8%88%EA%B3%A1%EB%8F%99/", "workingTime": ["-", "09:00~19:30", "09:00~19:30", "09:00~19:30", "09:00~19:30", "09:00~19:30", "-", "-"]}, {"name": "\ube44\ud0c0\ubbfc\ud50c\ub7ec\uc2a4\uc57d\uad6d", "lat": "37.63447233410219", "lng": "127.21111202727232", "url": "/info/%EB%B9%84%ED%83%80%EB%AF%BC%ED%94%8C%EB%9F%AC%EC%8A%A4%EC%95%BD%EA%B5%AD-%EA%B2%BD%EA%B8%B0%EB%8F%84-%EB%82%A8%EC%96%91%EC%A3%BC%EC%8B%9C-%EA%B8%88%EA%B3%A1%EB%8F%99/", "workingTime": ["-", "08:30~14:00", "08:30~14:00", "08:30~14:00", "08:30~14:00", "08:30~14:00", "09:00~16:00", "-"]}, {"name": "\uc2e0\uc131\uc57d\uad6d", "lat": "37.62727300342567", "lng": "127.20241816551605", "url": "/info/%EC%8B%A0%EC%84%B1%EC%95%BD%EA%B5%AD-%EA%B2%BD%EA%B8%B0%EB%8F%84-%EB%82%A8%EC%96%91%EC%A3%BC%EC%8B%9C-%EA%B8%88%EA%B3%A1%EB%8F%99/", "workingTime": ["10:00~20:00(\uc5f0\ub77d\ud6c4\ubc29\ubb38\uc694\ub9dd)", "08:00~23:00", "08:00~23:00", "08:00~23:00", "08:00~23:00", "08:00~23:00", "08:00~13:00", "10:00~01:00"]}, {"name": "\uc9c4\uc11c\uc57d\uad6d", "lat": "37.63445294786703", "lng": "127.21115892644528", "url": "/info/%EC%A7%84%EC%84%9C%EC%95%BD%EA%B5%AD-%EA%B2%BD%EA%B8%B0%EB%8F%84-%EB%82%A8%EC%96%91%EC%A3%BC%EC%8B%9C-%EA%B8%88%EA%B3%A1%EB%8F%99/", "workingTime": ["-", "09:00~21:00", "09:00~21:00", "09:00~21:00", "09:00~21:00", "09:00~21:00", "09:00~17:00", "-"]}, {"name": "\ud55c\ub9c8\uc74c\uc57d\uad6d", "lat": "37.63448989005249", "lng": "127.21115789805289", "url": "/info/%ED%95%9C%EB%A7%88%EC%9D%8C%EC%95%BD%EA%B5%AD-%EA%B2%BD%EA%B8%B0%EB%8F%84-%EB%82%A8%EC%96%91%EC%A3%BC%EC%8B%9C-%EA%B8%88%EA%B3%A1%EB%8F%99/", "workingTime": ["09:00~13:30(\uc5f0\ub77d\ud6c4\ubc29\ubb38\uc694\ub9dd)", "09:00~20:00", "09:00~20:00", "09:00~20:00", "09:00~20:00", "09:00~20:00", "09:00~16:00", "09:00~13:00"]}, {"name": "\ub9c8\uc744\uc57d\uad6d", "lat": "37.633636128003694", "lng": "127.20499197956129", "url": "/info/%EB%A7%88%EC%9D%84%EC%95%BD%EA%B5%AD-%EA%B2%BD%EA%B8%B0%EB%8F%84-%EB%82%A8%EC%96%91%EC%A3%BC%EC%8B%9C-%EA%B8%88%EA%B3%A1%EB%8F%99/", "workingTime": ["-", "08:00~20:00", "08:00~20:00", "08:00~20:00", "08:00~20:00", "08:00~20:00", "08:00~20:00", "-"]}, {"name": "\ub3d9\ub0a8\uc57d\uad6d", "lat": "37.62764453652834", "lng": "127.20170096167501", "url": "/info/%EB%8F%99%EB%82%A8%EC%95%BD%EA%B5%AD-%EA%B2%BD%EA%B8%B0%EB%8F%84-%EB%82%A8%EC%96%91%EC%A3%BC%EC%8B%9C-%EA%B8%88%EA%B3%A1%EB%8F%99/", "workingTime": ["-", "09:00~21:00", "09:00~21:00", "09:00~21:00", "09:00~21:00", "09:00~21:00", "09:00~21:00", "-"]}, {"name": "\uc218\uc815\uc57d\uad6d", "lat": "37.633928561575225", "lng": "127.21116650595351", "url": "/info/%EC%88%98%EC%A0%95%EC%95%BD%EA%B5%AD-%EA%B2%BD%EA%B8%B0%EB%8F%84-%EB%82%A8%EC%96%91%EC%A3%BC%EC%8B%9C-%EA%B8%88%EA%B3%A1%EB%8F%99/", "workingTime": ["-", "09:00~21:00", "09:00~21:00", "09:00~21:00", "09:00~21:00", "09:00~21:00", "-", "09:00~13:00"]}, {"name": "\uc885\ub85c\ud504\ub77c\uc790\uc57d\uad6d", "lat": "37.6339023226226", "lng": "127.20869666519321", "url": "/info/%EC%A2%85%EB%A1%9C%ED%94%84%EB%9D%BC%EC%9E%90%EC%95%BD%EA%B5%AD-%EA%B2%BD%EA%B8%B0%EB%8F%84-%EB%82%A8%EC%96%91%EC%A3%BC%EC%8B%9C-%EA%B8%88%EA%B3%A1%EB%8F%99/", "workingTime": ["-", "09:00~21:00", "09:00~21:00", "09:00~21:00", "09:00~21:00", "09:00~21:00", "09:00~16:00", "-"]}, {"name": "\ud574\ub9bc\uc628\ub204\ub9ac\uc57d\uad6d", "lat": "37.6341039570265", "lng": "127.204636923603", "url": "/info/%ED%95%B4%EB%A6%BC%EC%98%A8%EB%88%84%EB%A6%AC%EC%95%BD%EA%B5%AD-%EA%B2%BD%EA%B8%B0%EB%8F%84-%EB%82%A8%EC%96%91%EC%A3%BC%EC%8B%9C-%EA%B8%88%EA%B3%A1%EB%8F%99/", "workingTime": ["-", "08:00~21:00", "08:00~21:00", "08:00~21:00", "08:00~21:00", "08:00~21:00", "-", "-"]}, {"name": "\uc720\uc9c4\uc57d\uad6d", "lat": "37.63392124147403", "lng": "127.20475711129006", "url": "/info/%EC%9C%A0%EC%A7%84%EC%95%BD%EA%B5%AD-%EA%B2%BD%EA%B8%B0%EB%8F%84-%EB%82%A8%EC%96%91%EC%A3%BC%EC%8B%9C-%EA%B8%88%EA%B3%A1%EB%8F%99/", "workingTime": ["-", "08:00~18:00", "08:00~18:00", "08:00~18:00", "08:00~18:00", "08:00~18:00", "-", "-"]}, {"name": "\uc628\ub204\ub9ac\uc57d\uad6d", "lat": "37.6352273377", "lng": "127.212417528", "url": "/info/%EC%98%A8%EB%88%84%EB%A6%AC%EC%95%BD%EA%B5%AD-%EA%B2%BD%EA%B8%B0%EB%8F%84-%EB%82%A8%EC%96%91%EC%A3%BC%EC%8B%9C-%EA%B8%88%EA%B3%A1%EB%8F%99/", "workingTime": ["-", "09:00~21:30", "09:00~21:30", "09:00~21:30", "09:00~21:30", "09:00~21:30", "09:00~21:00", "09:00~21:30"]}, {"name": "\uae08\uace1\uc911\uc559\uc57d\uad6d", "lat": "37.63429813567501", "lng": "127.20770825448466", "url": "/info/%EA%B8%88%EA%B3%A1%EC%A4%91%EC%95%99%EC%95%BD%EA%B5%AD-%EA%B2%BD%EA%B8%B0%EB%8F%84-%EB%82%A8%EC%96%91%EC%A3%BC%EC%8B%9C-%EA%B8%88%EA%B3%A1%EB%8F%99/", "workingTime": ["-", "09:00~21:30", "09:00~21:30", "09:00~21:30", "09:00~21:30", "09:00~21:30", "09:00~18:00", "-"]}, {"name": "\uae08\uace1\uc628\ub204\ub9ac\uc57d\uad6d", "lat": "37.63483757630255", "lng": "127.21171288693378", "url": "/info/%EA%B8%88%EA%B3%A1%EC%98%A8%EB%88%84%EB%A6%AC%EC%95%BD%EA%B5%AD-%EA%B2%BD%EA%B8%B0%EB%8F%84-%EB%82%A8%EC%96%91%EC%A3%BC%EC%8B%9C-%EA%B8%88%EA%B3%A1%EB%8F%99/", "workingTime": ["-", "09:00~19:00", "09:00~19:00", "09:00~19:00", "09:00~19:00", "09:00~19:00", "09:00~18:00", "-"]}]