[{"name": "\uac74\uac15\uc744\uc8fc\ub294\uc57d\uad6d", "lat": "37.34257499336855", "lng": "126.78454751343696", "url": "/info/%EA%B1%B4%EA%B0%95%EC%9D%84%EC%A3%BC%EB%8A%94%EC%95%BD%EA%B5%AD-%EA%B2%BD%EA%B8%B0%EB%8F%84-%EC%8B%9C%ED%9D%A5%EC%8B%9C-%EA%B1%B0%EB%AA%A8%EB%8F%99/", "workingTime": ["-", "09:00~20:30", "09:00~20:30", "09:00~20:30", "09:00~20:30", "09:00~20:30", "09:00~15:00", "09:00~13:00"]}, {"name": "\uc11c\uad11\uc57d\uad6d", "lat": "37.345252855552836", "lng": "126.78453331588814", "url": "/info/%EC%84%9C%EA%B4%91%EC%95%BD%EA%B5%AD-%EA%B2%BD%EA%B8%B0%EB%8F%84-%EC%8B%9C%ED%9D%A5%EC%8B%9C-%EA%B1%B0%EB%AA%A8%EB%8F%99/", "workingTime": ["09:00~22:00(\uc5f0\ub77d\ud6c4\ubc29\ubb38\uc694\ub9dd)", "08:00~22:00", "08:00~22:00", "08:00~22:00", "08:00~22:00", "08:00~22:00", "08:00~22:00", "09:00~22:00"]}, {"name": "\uc720\uc131\uc628\ub204\ub9ac\uc57d\uad6d", "lat": "37.34134171329688", "lng": "126.78416079667465", "url": "/info/%EC%9C%A0%EC%84%B1%EC%98%A8%EB%88%84%EB%A6%AC%EC%95%BD%EA%B5%AD-%EA%B2%BD%EA%B8%B0%EB%8F%84-%EC%8B%9C%ED%9D%A5%EC%8B%9C-%EA%B1%B0%EB%AA%A8%EB%8F%99/", "workingTime": ["-", "09:00~19:00", "09:00~19:00", "09:00~19:00", "09:00~19:00", "09:00~19:00", "-", "-"]}, {"name": "\ub2e4\ub098\uc57d\uad6d", "lat": "37.3573520505661", "lng": "126.77302417755", "url": "/info/%EB%8B%A4%EB%82%98%EC%95%BD%EA%B5%AD-%EA%B2%BD%EA%B8%B0%EB%8F%84-%EC%8B%9C%ED%9D%A5%EC%8B%9C-%EA%B1%B0%EB%AA%A8%EB%8F%99/", "workingTime": ["-", "09:00~18:00", "09:00~18:00", "09:00~18:00", "09:00~18:00", "09:00~18:00", "-", "-"]}, {"name": "\uc13c\ud0c0\uc57d\uad6d", "lat": "37.34426225760431", "lng": "126.78482618478023", "url": "/info/%EC%84%BC%ED%83%80%EC%95%BD%EA%B5%AD-%EA%B2%BD%EA%B8%B0%EB%8F%84-%EC%8B%9C%ED%9D%A5%EC%8B%9C-%EA%B1%B0%EB%AA%A8%EB%8F%99/", "workingTime": ["-", "09:00~20:00", "09:00~20:00", "09:00~20:00", "09:00~20:00", "09:00~20:00", "09:00~15:00", "-"]}, {"name": "\ub179\uc2ed\uc790\uc57d\uad6d", "lat": "37.34149958852502", "lng": "126.78379225230259", "url": "/info/%EB%85%B9%EC%8B%AD%EC%9E%90%EC%95%BD%EA%B5%AD-%EA%B2%BD%EA%B8%B0%EB%8F%84-%EC%8B%9C%ED%9D%A5%EC%8B%9C-%EA%B1%B0%EB%AA%A8%EB%8F%99/", "workingTime": ["-", "08:30~21:30", "08:30~21:30", "08:30~21:30", "08:30~21:30", "08:30~21:30", "-", "08:30~21:30"]}, {"name": "\uac70\ubaa8\ubcf4\ub8e1\uc57d\uad6d", "lat": "37.34383351531825", "lng": "126.78492759613678", "url": "/info/%EA%B1%B0%EB%AA%A8%EB%B3%B4%EB%A3%A1%EC%95%BD%EA%B5%AD-%EA%B2%BD%EA%B8%B0%EB%8F%84-%EC%8B%9C%ED%9D%A5%EC%8B%9C-%EA%B1%B0%EB%AA%A8%EB%8F%99/", "workingTime": ["-", "09:00~21:00", "09:00~21:00", "09:00~21:00", "09:00~21:00", "09:00~21:00", "-", "-"]}]