[{"name": "\uc5f0\uc138\uc57d\uad6d", "lat": "37.3300256220449", "lng": "126.786504221726", "url": "/info/%EC%97%B0%EC%84%B8%EC%95%BD%EA%B5%AD-%EA%B2%BD%EA%B8%B0%EB%8F%84-%EC%95%88%EC%82%B0%EC%8B%9C-%EC%8B%A0%EA%B8%B8%EB%8F%99/", "workingTime": ["-", "-", "-", "-", "-", "-", "-", "-"]}, {"name": "\uc635\ud2f0\ub9c8\uac00\uc815\uc57d\uad6d", "lat": "37.336695248327", "lng": "126.784330813162", "url": "/info/%EC%98%B5%ED%8B%B0%EB%A7%88%EA%B0%80%EC%A0%95%EC%95%BD%EA%B5%AD-%EA%B2%BD%EA%B8%B0%EB%8F%84-%EC%95%88%EC%82%B0%EC%8B%9C-%EC%8B%A0%EA%B8%B8%EB%8F%99/", "workingTime": ["-", "09:00~19:30", "09:00~19:30", "09:00~19:30", "09:00~19:30", "09:00~19:30", "09:00~14:30", "-"]}, {"name": "\ucc38\uac74\uac15\uc57d\uad6d", "lat": "37.33711424252707", "lng": "126.77652873942569", "url": "/info/%EC%B0%B8%EA%B1%B4%EA%B0%95%EC%95%BD%EA%B5%AD-%EA%B2%BD%EA%B8%B0%EB%8F%84-%EC%95%88%EC%82%B0%EC%8B%9C-%EC%8B%A0%EA%B8%B8%EB%8F%99/", "workingTime": ["09:00~15:30(\uc5f0\ub77d\ud6c4\ubc29\ubb38\uc694\ub9dd)", "08:00~21:00", "08:00~21:00", "08:00~21:00", "08:00~21:00", "08:00~21:00", "09:00~15:30", "-"]}, {"name": "\ubd04\uc57d\uad6d", "lat": "37.3308874161", "lng": "126.7868310369", "url": "/info/%EB%B4%84%EC%95%BD%EA%B5%AD-%EA%B2%BD%EA%B8%B0%EB%8F%84-%EC%95%88%EC%82%B0%EC%8B%9C-%EC%8B%A0%EA%B8%B8%EB%8F%99/", "workingTime": ["-", "09:00~21:00", "09:00~21:00", "09:00~21:00", "09:00~21:00", "09:00~21:00", "09:00~14:00", "-"]}, {"name": "\uc774\ub9c8\ud2b8\uc57d\uad6d", "lat": "37.33125168616514", "lng": "126.78497949766115", "url": "/info/%EC%9D%B4%EB%A7%88%ED%8A%B8%EC%95%BD%EA%B5%AD-%EA%B2%BD%EA%B8%B0%EB%8F%84-%EC%95%88%EC%82%B0%EC%8B%9C-%EC%8B%A0%EA%B8%B8%EB%8F%99/", "workingTime": ["10:00~23:00(\uc5f0\ub77d\ud6c4\ubc29\ubb38\uc694\ub9dd)", "10:00~23:00", "10:00~23:00", "10:00~23:00", "10:00~23:00", "10:00~23:00", "10:00~23:00", "-"]}]