[{"name": "\ud55c\uc194\uc57d\uad6d", "lat": "37.271282122211375", "lng": "127.1075115878341", "url": "/info/%ED%95%9C%EC%86%94%EC%95%BD%EA%B5%AD-%EA%B2%BD%EA%B8%B0%EB%8F%84-%EC%9A%A9%EC%9D%B8%EC%8B%9C-%EC%8B%A0%EA%B0%88%EB%8F%99/", "workingTime": ["-", "08:00~18:00", "08:00~18:00", "08:00~18:00", "08:00~18:00", "08:00~18:00", "08:00~13:30", "-"]}, {"name": "\uc624\ud589\ub2f9\uc57d\uad6d", "lat": "37.2725821212", "lng": "127.1075936875", "url": "/info/%EC%98%A4%ED%96%89%EB%8B%B9%EC%95%BD%EA%B5%AD-%EA%B2%BD%EA%B8%B0%EB%8F%84-%EC%9A%A9%EC%9D%B8%EC%8B%9C-%EC%8B%A0%EA%B0%88%EB%8F%99/", "workingTime": ["-", "08:00~21:00", "08:00~21:00", "08:00~21:00", "08:00~21:00", "08:00~21:00", "08:30~20:30", "08:30~22:00"]}, {"name": "\uc900\uc57d\uad6d", "lat": "37.27199079728705", "lng": "127.10785893047227", "url": "/info/%EC%A4%80%EC%95%BD%EA%B5%AD-%EA%B2%BD%EA%B8%B0%EB%8F%84-%EC%9A%A9%EC%9D%B8%EC%8B%9C-%EC%8B%A0%EA%B0%88%EB%8F%99/", "workingTime": ["-", "09:00~19:00", "09:00~19:00", "09:00~19:00", "09:00~19:00", "09:00~19:00", "09:00~15:00", "-"]}, {"name": "\ub179\uc6d0\uc57d\uad6d", "lat": "37.28906516800643", "lng": "127.11116779353313", "url": "/info/%EB%85%B9%EC%9B%90%EC%95%BD%EA%B5%AD-%EA%B2%BD%EA%B8%B0%EB%8F%84-%EC%9A%A9%EC%9D%B8%EC%8B%9C-%EC%8B%A0%EA%B0%88%EB%8F%99/", "workingTime": ["-", "09:00~19:30", "09:00~19:30", "09:00~19:30", "09:00~19:30", "09:00~19:30", "09:00~13:00", "-"]}, {"name": "\uc6b0\ub9ac\uc9d1\uc57d\uad6d", "lat": "37.289122974355415", "lng": "127.11192406393716", "url": "/info/%EC%9A%B0%EB%A6%AC%EC%A7%91%EC%95%BD%EA%B5%AD-%EA%B2%BD%EA%B8%B0%EB%8F%84-%EC%9A%A9%EC%9D%B8%EC%8B%9C-%EC%8B%A0%EA%B0%88%EB%8F%99/", "workingTime": ["-", "09:00~20:00", "09:00~20:00", "09:00~20:00", "09:00~20:00", "09:00~20:00", "09:00~14:00", "-"]}, {"name": "\ubaa8\ub450\uc0ac\ub791\uc57d\uad6d", "lat": "37.2719908869697", "lng": "127.10785938159", "url": "/info/%EB%AA%A8%EB%91%90%EC%82%AC%EB%9E%91%EC%95%BD%EA%B5%AD-%EA%B2%BD%EA%B8%B0%EB%8F%84-%EC%9A%A9%EC%9D%B8%EC%8B%9C-%EC%8B%A0%EA%B0%88%EB%8F%99/", "workingTime": ["-", "09:00~18:00", "09:00~18:00", "09:00~18:00", "09:00~18:00", "09:00~18:00", "-", "-"]}, {"name": "\ud0dc\ud3c9\uc591\uc57d\uad6d", "lat": "37.2724597887", "lng": "127.1073635068", "url": "/info/%ED%83%9C%ED%8F%89%EC%96%91%EC%95%BD%EA%B5%AD-%EA%B2%BD%EA%B8%B0%EB%8F%84-%EC%9A%A9%EC%9D%B8%EC%8B%9C-%EC%8B%A0%EA%B0%88%EB%8F%99/", "workingTime": ["1,2,3,4,5\uc9f8\uc8fc10:00~18:00", "08:30~20:30", "08:30~20:30", "08:30~20:30", "08:30~20:30", "08:30~20:30", "08:30~14:30", "10:00~18:00"]}, {"name": "\uadf8\ub9b0\uc628\ub204\ub9ac\uc57d\uad6d", "lat": "37.28909283163425", "lng": "127.11141539237691", "url": "/info/%EA%B7%B8%EB%A6%B0%EC%98%A8%EB%88%84%EB%A6%AC%EC%95%BD%EA%B5%AD-%EA%B2%BD%EA%B8%B0%EB%8F%84-%EC%9A%A9%EC%9D%B8%EC%8B%9C-%EC%8B%A0%EA%B0%88%EB%8F%99/", "workingTime": ["-", "09:00~19:00", "09:00~19:00", "09:00~19:00", "09:00~19:00", "09:00~19:00", "09:00~14:00", "-"]}, {"name": "\uac74\uac15\uc744\uc8fc\ub294\uc57d\uad6d", "lat": "37.271244444444442", "lng": "127.105886111111104", "url": "/info/%EA%B1%B4%EA%B0%95%EC%9D%84%EC%A3%BC%EB%8A%94%EC%95%BD%EA%B5%AD-%EA%B2%BD%EA%B8%B0%EB%8F%84-%EC%9A%A9%EC%9D%B8%EC%8B%9C-%EC%8B%A0%EA%B0%88%EB%8F%99/", "workingTime": ["-", "08:40~19:00", "08:40~19:00", "08:40~19:00", "08:40~19:00", "08:40~19:00", "08:40~18:00", "-"]}, {"name": "\ud31c\uba54\ub4dc\uc57d\uad6d", "lat": "37.27131603365172", "lng": "127.10585201792367", "url": "/info/%ED%8C%9C%EB%A9%94%EB%93%9C%EC%95%BD%EA%B5%AD-%EA%B2%BD%EA%B8%B0%EB%8F%84-%EC%9A%A9%EC%9D%B8%EC%8B%9C-%EC%8B%A0%EA%B0%88%EB%8F%99/", "workingTime": ["-", "08:30~20:30", "08:30~20:30", "08:30~20:30", "08:30~20:30", "08:30~20:30", "08:30~20:00", "-"]}, {"name": "\uc131\ud6c8\uc57d\uad6d", "lat": "37.27176618871709", "lng": "127.1051166157222", "url": "/info/%EC%84%B1%ED%9B%88%EC%95%BD%EA%B5%AD-%EA%B2%BD%EA%B8%B0%EB%8F%84-%EC%9A%A9%EC%9D%B8%EC%8B%9C-%EC%8B%A0%EA%B0%88%EB%8F%99/", "workingTime": ["-", "09:00~20:00", "09:00~20:00", "09:00~20:00", "09:00~20:00", "09:00~20:00", "09:00~15:00", "-"]}, {"name": "\uc6a9\uc778\uac15\ub0a8\uc57d\uad6d", "lat": "37.273382941", "lng": "127.110747309", "url": "/info/%EC%9A%A9%EC%9D%B8%EA%B0%95%EB%82%A8%EC%95%BD%EA%B5%AD-%EA%B2%BD%EA%B8%B0%EB%8F%84-%EC%9A%A9%EC%9D%B8%EC%8B%9C-%EC%8B%A0%EA%B0%88%EB%8F%99/", "workingTime": ["-", "09:00~23:30", "09:00~23:30", "09:00~23:30", "09:00~23:30", "09:00~23:30", "09:00~23:30", "09:00~23:30"]}, {"name": "\uac15\ub0a8\ud50c\ub7ec\uc2a4\uc57d\uad6d", "lat": "37.27349084575398", "lng": "127.11096847681327", "url": "/info/%EA%B0%95%EB%82%A8%ED%94%8C%EB%9F%AC%EC%8A%A4%EC%95%BD%EA%B5%AD-%EA%B2%BD%EA%B8%B0%EB%8F%84-%EC%9A%A9%EC%9D%B8%EC%8B%9C-%EC%8B%A0%EA%B0%88%EB%8F%99/", "workingTime": ["-", "09:00~18:30", "09:00~18:30", "09:00~18:30", "09:00~18:30", "09:00~18:30", "09:00~13:30", "-"]}]