[{"name": "\uc728\uc804\uc911\uc559\uc57d\uad6d", "lat": "37.2978622630281", "lng": "126.970776508304", "url": "/info/%EC%9C%A8%EC%A0%84%EC%A4%91%EC%95%99%EC%95%BD%EA%B5%AD-%EA%B2%BD%EA%B8%B0%EB%8F%84-%EC%88%98%EC%9B%90%EC%8B%9C-%EC%9C%A8%EC%A0%84%EB%8F%99/", "workingTime": ["-", "09:00~18:00", "09:00~18:00", "09:00~18:00", "09:00~18:00", "09:00~18:00", "09:00~13:00", "-"]}, {"name": "\uc131\uade0\uad00\uc57d\uad6d", "lat": "37.29690122194967", "lng": "126.97012556760515", "url": "/info/%EC%84%B1%EA%B7%A0%EA%B4%80%EC%95%BD%EA%B5%AD-%EA%B2%BD%EA%B8%B0%EB%8F%84-%EC%88%98%EC%9B%90%EC%8B%9C-%EC%9C%A8%EC%A0%84%EB%8F%99/", "workingTime": ["1,2,3,4,5\uc9f8\uc8fc22:00~25:00", "22:00~25:00", "22:00~25:00", "22:00~25:00", "22:00~25:00", "22:00~25:00", "22:00~25:00", "22:00~25:00"]}, {"name": "\ud5c8\ube0c\uc57d\uad6d", "lat": "37.29945335142544", "lng": "126.97167199866356", "url": "/info/%ED%97%88%EB%B8%8C%EC%95%BD%EA%B5%AD-%EA%B2%BD%EA%B8%B0%EB%8F%84-%EC%88%98%EC%9B%90%EC%8B%9C-%EC%9C%A8%EC%A0%84%EB%8F%99/", "workingTime": ["-", "09:30~18:00", "09:30~18:00", "09:30~18:00", "14:00~18:00", "09:30~18:00", "09:30~13:00", "-"]}, {"name": "\uc728\uc804\uc138\uacc4\ub85c\uc57d\uad6d", "lat": "37.297676243579694", "lng": "126.97064407674384", "url": "/info/%EC%9C%A8%EC%A0%84%EC%84%B8%EA%B3%84%EB%A1%9C%EC%95%BD%EA%B5%AD-%EA%B2%BD%EA%B8%B0%EB%8F%84-%EC%88%98%EC%9B%90%EC%8B%9C-%EC%9C%A8%EC%A0%84%EB%8F%99/", "workingTime": ["-", "10:00~18:00", "10:00~18:00", "10:00~18:00", "10:00~18:00", "10:00~18:00", "-", "-"]}, {"name": "\uc635\ud2f0\ub9c8\uac74\uac15\uc57d\uad6d", "lat": "37.30318230911589", "lng": "126.97021466332978", "url": "/info/%EC%98%B5%ED%8B%B0%EB%A7%88%EA%B1%B4%EA%B0%95%EC%95%BD%EA%B5%AD-%EA%B2%BD%EA%B8%B0%EB%8F%84-%EC%88%98%EC%9B%90%EC%8B%9C-%EC%9C%A8%EC%A0%84%EB%8F%99/", "workingTime": ["-", "09:00~20:00", "09:00~20:00", "09:00~20:00", "09:00~20:00", "09:00~20:00", "09:00~17:00", "-"]}, {"name": "\uac15\uc57d\uad6d", "lat": "37.30292598506023", "lng": "126.96862213292903", "url": "/info/%EA%B0%95%EC%95%BD%EA%B5%AD-%EA%B2%BD%EA%B8%B0%EB%8F%84-%EC%88%98%EC%9B%90%EC%8B%9C-%EC%9C%A8%EC%A0%84%EB%8F%99/", "workingTime": ["-", "08:30~20:30", "08:30~20:30", "08:30~20:30", "08:30~20:30", "08:30~20:30", "09:00~20:30", "09:00~21:00"]}, {"name": "\ud14c\ub77c\uc2a4\uc57d\uad6d", "lat": "37.3001851331", "lng": "126.9722627425", "url": "/info/%ED%85%8C%EB%9D%BC%EC%8A%A4%EC%95%BD%EA%B5%AD-%EA%B2%BD%EA%B8%B0%EB%8F%84-%EC%88%98%EC%9B%90%EC%8B%9C-%EC%9C%A8%EC%A0%84%EB%8F%99/", "workingTime": ["09:00~15:00(\uc5f0\ub77d\ud6c4\ubc29\ubb38\uc694\ub9dd)", "09:00~21:30", "09:00~21:30", "09:00~21:30", "09:00~21:30", "09:00~21:30", "09:00~14:00", "10:00~16:00"]}, {"name": "\uc728\uc804\uc57d\uad6d", "lat": "37.298374651781316", "lng": "126.97111894448402", "url": "/info/%EC%9C%A8%EC%A0%84%EC%95%BD%EA%B5%AD-%EA%B2%BD%EA%B8%B0%EB%8F%84-%EC%88%98%EC%9B%90%EC%8B%9C-%EC%9C%A8%EC%A0%84%EB%8F%99/", "workingTime": ["-", "09:00~21:00", "09:00~21:00", "09:00~21:00", "09:00~21:00", "09:00~21:00", "09:00~19:00", "09:00~13:00"]}, {"name": "\uc720\ub9bc\uc57d\uad6d", "lat": "37.29813763242733", "lng": "126.97087849377024", "url": "/info/%EC%9C%A0%EB%A6%BC%EC%95%BD%EA%B5%AD-%EA%B2%BD%EA%B8%B0%EB%8F%84-%EC%88%98%EC%9B%90%EC%8B%9C-%EC%9C%A8%EC%A0%84%EB%8F%99/", "workingTime": ["-", "09:00~22:00", "09:00~22:00", "09:00~22:00", "09:00~22:00", "09:00~22:00", "09:00~22:00", "-"]}, {"name": "\uc73c\ub738\uc57d\uad6d", "lat": "37.297052836449225", "lng": "126.97104130245118", "url": "/info/%EC%9C%BC%EB%9C%B8%EC%95%BD%EA%B5%AD-%EA%B2%BD%EA%B8%B0%EB%8F%84-%EC%88%98%EC%9B%90%EC%8B%9C-%EC%9C%A8%EC%A0%84%EB%8F%99/", "workingTime": ["-", "09:00~19:30", "09:00~19:30", "09:00~19:30", "09:00~19:30", "09:00~19:30", "09:00~14:00", "-"]}]