[{"name": "\uc0c8\ubd04\uc57d\uad6d", "lat": "37.056763931869874", "lng": "127.05634465791976", "url": "/info/%EC%83%88%EB%B4%84%EC%95%BD%EA%B5%AD-%EA%B2%BD%EA%B8%B0%EB%8F%84-%ED%8F%89%ED%83%9D%EC%8B%9C-%EC%9D%B4%EC%B6%A9%EB%8F%99/", "workingTime": ["-", "09:00~19:00", "09:00~19:00", "09:00~19:00", "09:00~19:00", "09:00~19:00", "09:00~15:00", "-"]}, {"name": "\ub728\ub780\uc57d\uad6d", "lat": "37.05982764296686", "lng": "127.06665477630241", "url": "/info/%EB%9C%A8%EB%9E%80%EC%95%BD%EA%B5%AD-%EA%B2%BD%EA%B8%B0%EB%8F%84-%ED%8F%89%ED%83%9D%EC%8B%9C-%EC%9D%B4%EC%B6%A9%EB%8F%99/", "workingTime": ["-", "09:00~21:10", "09:00~21:10", "09:00~21:10", "09:00~21:10", "09:00~21:10", "09:00~19:00", "-"]}, {"name": "\ud638\uc57d\uad6d", "lat": "37.0596292443199", "lng": "127.066492230495", "url": "/info/%ED%98%B8%EC%95%BD%EA%B5%AD-%EA%B2%BD%EA%B8%B0%EB%8F%84-%ED%8F%89%ED%83%9D%EC%8B%9C-%EC%9D%B4%EC%B6%A9%EB%8F%99/", "workingTime": ["-", "10:00~18:00", "10:00~18:00", "10:00~18:00", "10:00~18:00", "10:00~18:00", "-", "-"]}, {"name": "\uaf43\ud53c\ub294\uc57d\uad6d", "lat": "37.05208358364289", "lng": "127.0573181661128", "url": "/info/%EA%BD%83%ED%94%BC%EB%8A%94%EC%95%BD%EA%B5%AD-%EA%B2%BD%EA%B8%B0%EB%8F%84-%ED%8F%89%ED%83%9D%EC%8B%9C-%EC%9D%B4%EC%B6%A9%EB%8F%99/", "workingTime": ["08:30~22:00(\uc5f0\ub77d\ud6c4\ubc29\ubb38\uc694\ub9dd)", "08:30~22:00", "08:30~22:00", "08:30~22:00", "08:30~22:00", "08:30~22:00", "08:30~22:00", "08:30~22:00"]}, {"name": "\uc13c\ud0c0\uc57d\uad6d", "lat": "37.060327375462116", "lng": "127.06649893065072", "url": "/info/%EC%84%BC%ED%83%80%EC%95%BD%EA%B5%AD-%EA%B2%BD%EA%B8%B0%EB%8F%84-%ED%8F%89%ED%83%9D%EC%8B%9C-%EC%9D%B4%EC%B6%A9%EB%8F%99/", "workingTime": ["-", "09:00~16:00", "09:00~16:00", "09:00~16:00", "09:00~16:00", "09:00~16:00", "09:00~17:00", "-"]}, {"name": "\uc7a5\ub2f9\uc628\ub204\ub9ac\uc57d\uad6d", "lat": "37.052017156681714", "lng": "127.05617026798177", "url": "/info/%EC%9E%A5%EB%8B%B9%EC%98%A8%EB%88%84%EB%A6%AC%EC%95%BD%EA%B5%AD-%EA%B2%BD%EA%B8%B0%EB%8F%84-%ED%8F%89%ED%83%9D%EC%8B%9C-%EC%9D%B4%EC%B6%A9%EB%8F%99/", "workingTime": ["09:00~14:00(\uc5f0\ub77d\ud6c4\ubc29\ubb38\uc694\ub9dd)", "09:00~16:00", "09:00~16:00", "09:00~16:00", "09:00~16:00", "09:00~16:00", "09:00~16:00", "-"]}, {"name": "\uc774\uc218\uc57d\uad6d", "lat": "37.0514107520579", "lng": "127.05800452421685", "url": "/info/%EC%9D%B4%EC%88%98%EC%95%BD%EA%B5%AD-%EA%B2%BD%EA%B8%B0%EB%8F%84-%ED%8F%89%ED%83%9D%EC%8B%9C-%EC%9D%B4%EC%B6%A9%EB%8F%99/", "workingTime": ["-", "09:00~14:00", "09:00~14:00", "09:00~14:00", "09:00~14:00", "09:00~14:00", "09:00~15:00", "-"]}]