[{"name": "\uc790\ubbfc\uc57d\uad6d", "lat": "37.1705347541", "lng": "127.0657880407", "url": "/info/%EC%9E%90%EB%AF%BC%EC%95%BD%EA%B5%AD-%EA%B2%BD%EA%B8%B0%EB%8F%84-%EC%98%A4%EC%82%B0%EC%8B%9C-%EC%88%98%EC%B2%AD%EB%8F%99/", "workingTime": ["-", "08:00~20:00", "09:00~13:00", "09:00~13:00", "09:00~13:00", "09:00~13:00", "08:00~16:00", "09:00~13:00"]}, {"name": "\ub354\uc0f5\uc628\ub204\ub9ac\uc57d\uad6d", "lat": "37.1696462808198", "lng": "127.066007169342", "url": "/info/%EB%8D%94%EC%83%B5%EC%98%A8%EB%88%84%EB%A6%AC%EC%95%BD%EA%B5%AD-%EA%B2%BD%EA%B8%B0%EB%8F%84-%EC%98%A4%EC%82%B0%EC%8B%9C-%EC%88%98%EC%B2%AD%EB%8F%99/", "workingTime": ["-", "09:00~18:00", "09:00~18:00", "09:00~18:00", "09:00~18:00", "09:00~18:00", "-", "-"]}, {"name": "\ub3d9\uc0b0\uc57d\uad6d", "lat": "37.1542527893", "lng": "127.068709825", "url": "/info/%EB%8F%99%EC%82%B0%EC%95%BD%EA%B5%AD-%EA%B2%BD%EA%B8%B0%EB%8F%84-%EC%98%A4%EC%82%B0%EC%8B%9C-%EC%88%98%EC%B2%AD%EB%8F%99/", "workingTime": ["1,2,3,4,5\uc9f8\uc8fc10:00~14:00", "08:00~20:00", "08:00~20:00", "08:00~20:00", "08:00~20:00", "08:00~20:00", "09:00~14:00", "10:00~14:00"]}, {"name": "\uc544\uc778\uc628\ub204\ub9ac\uc57d\uad6d", "lat": "37.1700575405", "lng": "127.061797223", "url": "/info/%EC%95%84%EC%9D%B8%EC%98%A8%EB%88%84%EB%A6%AC%EC%95%BD%EA%B5%AD-%EA%B2%BD%EA%B8%B0%EB%8F%84-%EC%98%A4%EC%82%B0%EC%8B%9C-%EC%88%98%EC%B2%AD%EB%8F%99/", "workingTime": ["1,2,3,4,5\uc9f8\uc8fc10:00~22:00", "10:00~22:00", "10:00~22:00", "10:00~22:00", "10:00~22:00", "10:00~22:00", "10:00~22:00", "10:00~22:00"]}, {"name": "\ud310\ub3c4\ub77c\ubd04\uc57d\uad6d", "lat": "37.17062579750105", "lng": "127.06407664682578", "url": "/info/%ED%8C%90%EB%8F%84%EB%9D%BC%EB%B4%84%EC%95%BD%EA%B5%AD-%EA%B2%BD%EA%B8%B0%EB%8F%84-%EC%98%A4%EC%82%B0%EC%8B%9C-%EC%88%98%EC%B2%AD%EB%8F%99/", "workingTime": ["-", "08:00~22:00", "08:00~22:00", "08:00~22:00", "08:00~22:00", "08:00~22:00", "09:00~18:00", "-"]}, {"name": "\uc138\uad50\ubc14\ub978\uc57d\uad6d", "lat": "37.17085564233578", "lng": "127.0655856438201", "url": "/info/%EC%84%B8%EA%B5%90%EB%B0%94%EB%A5%B8%EC%95%BD%EA%B5%AD-%EA%B2%BD%EA%B8%B0%EB%8F%84-%EC%98%A4%EC%82%B0%EC%8B%9C-%EC%88%98%EC%B2%AD%EB%8F%99/", "workingTime": ["-", "09:00~19:00", "09:00~19:00", "09:00~19:00", "09:00~19:00", "09:00~19:00", "09:00~14:00", "-"]}, {"name": "\uc138\uad50\uc5d8\uc57d\uad6d", "lat": "37.1694650764", "lng": "127.064372918", "url": "/info/%EC%84%B8%EA%B5%90%EC%97%98%EC%95%BD%EA%B5%AD-%EA%B2%BD%EA%B8%B0%EB%8F%84-%EC%98%A4%EC%82%B0%EC%8B%9C-%EC%88%98%EC%B2%AD%EB%8F%99/", "workingTime": ["-", "08:30~19:00", "08:30~19:00", "08:30~19:00", "08:30~19:00", "08:30~19:00", "08:30~16:00", "-"]}, {"name": "\uc2dc\uc628\uc57d\uad6d", "lat": "37.164141666666666", "lng": "127.061919444444442", "url": "/info/%EC%8B%9C%EC%98%A8%EC%95%BD%EA%B5%AD-%EA%B2%BD%EA%B8%B0%EB%8F%84-%EC%98%A4%EC%82%B0%EC%8B%9C-%EC%88%98%EC%B2%AD%EB%8F%99/", "workingTime": ["-", "08:30~21:30", "08:30~21:30", "08:30~21:30", "08:30~21:30", "08:30~21:30", "-", "-"]}]