[{"name": "\uc4f0\ub2f4\uc57d\uad6d", "lat": "37.587341458837834", "lng": "127.1392477810461", "url": "/info/%EC%93%B0%EB%8B%B4%EC%95%BD%EA%B5%AD-%EA%B2%BD%EA%B8%B0%EB%8F%84-%EA%B5%AC%EB%A6%AC%EC%8B%9C-%EC%88%98%ED%83%9D%EB%8F%99/", "workingTime": ["-", "09:00~20:00", "09:00~20:00", "09:00~20:00", "09:00~20:00", "09:00~20:00", "09:00~20:00", "-"]}, {"name": "\uc218\uc778\uc57d\uad6d", "lat": "37.5919147864669", "lng": "127.139024366508", "url": "/info/%EC%88%98%EC%9D%B8%EC%95%BD%EA%B5%AD-%EA%B2%BD%EA%B8%B0%EB%8F%84-%EA%B5%AC%EB%A6%AC%EC%8B%9C-%EC%88%98%ED%83%9D%EB%8F%99/", "workingTime": ["-", "09:00~18:00", "09:00~18:00", "09:00~18:00", "09:00~18:00", "09:00~18:00", "09:00~13:00", "-"]}, {"name": "\ud55c\ube5b\uc57d\uad6d", "lat": "37.59190693704666", "lng": "127.14289759137077", "url": "/info/%ED%95%9C%EB%B9%9B%EC%95%BD%EA%B5%AD-%EA%B2%BD%EA%B8%B0%EB%8F%84-%EA%B5%AC%EB%A6%AC%EC%8B%9C-%EC%88%98%ED%83%9D%EB%8F%99/", "workingTime": ["-", "09:00~19:00", "09:00~19:00", "09:00~19:00", "09:00~19:00", "09:00~19:00", "09:00~13:00", "-"]}, {"name": "\ubbf8\uc18c\uc57d\uad6d", "lat": "37.58726309436785", "lng": "127.13845509307117", "url": "/info/%EB%AF%B8%EC%86%8C%EC%95%BD%EA%B5%AD-%EA%B2%BD%EA%B8%B0%EB%8F%84-%EA%B5%AC%EB%A6%AC%EC%8B%9C-%EC%88%98%ED%83%9D%EB%8F%99/", "workingTime": ["-", "09:00~19:00", "09:00~19:00", "09:00~19:00", "09:00~19:00", "09:00~19:00", "09:00~15:00", "-"]}, {"name": "\uc0c8\ub3d9\uc2e0\uc57d\uad6d", "lat": "37.5919107384", "lng": "127.140616238", "url": "/info/%EC%83%88%EB%8F%99%EC%8B%A0%EC%95%BD%EA%B5%AD-%EA%B2%BD%EA%B8%B0%EB%8F%84-%EA%B5%AC%EB%A6%AC%EC%8B%9C-%EC%88%98%ED%83%9D%EB%8F%99/", "workingTime": ["-", "08:30~21:00", "08:30~21:00", "08:30~21:00", "08:30~21:00", "08:30~21:00", "08:30~21:00", "09:00~20:00"]}, {"name": "\uc0c8\ub86c\uc57d\uad6d", "lat": "37.5873692081746", "lng": "127.13877918620068", "url": "/info/%EC%83%88%EB%A1%AC%EC%95%BD%EA%B5%AD-%EA%B2%BD%EA%B8%B0%EB%8F%84-%EA%B5%AC%EB%A6%AC%EC%8B%9C-%EC%88%98%ED%83%9D%EB%8F%99/", "workingTime": ["-", "09:00~20:00", "09:00~20:00", "09:00~20:00", "09:00~20:00", "09:00~20:00", "09:00~14:00", "-"]}, {"name": "\uc885\uadfc\ub2f9\uc57d\uad6d", "lat": "37.600421849690605", "lng": "127.14031746470134", "url": "/info/%EC%A2%85%EA%B7%BC%EB%8B%B9%EC%95%BD%EA%B5%AD-%EA%B2%BD%EA%B8%B0%EB%8F%84-%EA%B5%AC%EB%A6%AC%EC%8B%9C-%EC%88%98%ED%83%9D%EB%8F%99/", "workingTime": ["-", "09:00~19:00", "09:00~19:00", "09:00~19:00", "09:00~19:00", "09:00~19:00", "09:00~16:00", "-"]}, {"name": "\ub179\uc2ed\uc790 \uc57d\uad6d", "lat": "37.5920582445419", "lng": "127.142184053438", "url": "/info/%EB%85%B9%EC%8B%AD%EC%9E%90+%EC%95%BD%EA%B5%AD-%EA%B2%BD%EA%B8%B0%EB%8F%84-%EA%B5%AC%EB%A6%AC%EC%8B%9C-%EC%88%98%ED%83%9D%EB%8F%99/", "workingTime": ["-", "09:00~18:00", "09:00~18:00", "09:00~18:00", "09:00~18:00", "09:00~18:00", "-", "-"]}, {"name": "\ucf54\ub07c\ub9ac\uc57d\uad6d", "lat": "37.59202199925282", "lng": "127.14008070336956", "url": "/info/%EC%BD%94%EB%81%BC%EB%A6%AC%EC%95%BD%EA%B5%AD-%EA%B2%BD%EA%B8%B0%EB%8F%84-%EA%B5%AC%EB%A6%AC%EC%8B%9C-%EC%88%98%ED%83%9D%EB%8F%99/", "workingTime": ["-", "09:00~18:00", "09:00~18:00", "09:00~18:00", "09:00~13:00", "09:00~18:00", "09:00~13:00", "-"]}, {"name": "\ub300\uc131\uc57d\uad6d", "lat": "37.60050804539706", "lng": "127.14056902269678", "url": "/info/%EB%8C%80%EC%84%B1%EC%95%BD%EA%B5%AD-%EA%B2%BD%EA%B8%B0%EB%8F%84-%EA%B5%AC%EB%A6%AC%EC%8B%9C-%EC%88%98%ED%83%9D%EB%8F%99/", "workingTime": ["-", "09:00~18:00", "09:00~18:00", "09:00~18:00", "09:00~18:00", "09:00~18:00", "09:00~15:00", "-"]}, {"name": "365\ub3d9\uc11c\uc57d\uad6d", "lat": "37.599026286097185", "lng": "127.1364171281123", "url": "/info/365%EB%8F%99%EC%84%9C%EC%95%BD%EA%B5%AD-%EA%B2%BD%EA%B8%B0%EB%8F%84-%EA%B5%AC%EB%A6%AC%EC%8B%9C-%EC%88%98%ED%83%9D%EB%8F%99/", "workingTime": ["1,2,3,4,5\uc9f8\uc8fc14:00~21:00", "09:00~22:00", "09:00~22:00", "09:00~22:00", "09:00~22:00", "09:00~22:00", "09:00~22:00", "14:00~21:00"]}, {"name": "\uc2e0\ubcf4\ub8e1\uc57d\uad6d", "lat": "37.5967520008", "lng": "127.1456213112", "url": "/info/%EC%8B%A0%EB%B3%B4%EB%A3%A1%EC%95%BD%EA%B5%AD-%EA%B2%BD%EA%B8%B0%EB%8F%84-%EA%B5%AC%EB%A6%AC%EC%8B%9C-%EC%88%98%ED%83%9D%EB%8F%99/", "workingTime": ["-", "09:00~19:30", "09:00~19:30", "09:00~19:30", "09:00~19:30", "09:00~19:30", "09:00~15:30", "-"]}, {"name": "\uc0ac\uc2b4\uc57d\uad6d", "lat": "37.59658307689252", "lng": "127.14524392840745", "url": "/info/%EC%82%AC%EC%8A%B4%EC%95%BD%EA%B5%AD-%EA%B2%BD%EA%B8%B0%EB%8F%84-%EA%B5%AC%EB%A6%AC%EC%8B%9C-%EC%88%98%ED%83%9D%EB%8F%99/", "workingTime": ["-", "09:00~21:30", "09:00~21:30", "09:00~21:30", "09:00~21:30", "09:00~21:30", "09:00~17:00", "-"]}, {"name": "\uac00\uc871\uc0ac\ub791\uc57d\uad6d", "lat": "37.591255981935305", "lng": "127.14264857144748", "url": "/info/%EA%B0%80%EC%A1%B1%EC%82%AC%EB%9E%91%EC%95%BD%EA%B5%AD-%EA%B2%BD%EA%B8%B0%EB%8F%84-%EA%B5%AC%EB%A6%AC%EC%8B%9C-%EC%88%98%ED%83%9D%EB%8F%99/", "workingTime": ["1,2,3,4,5\uc9f8\uc8fc09:00~18:00", "09:00~21:00", "09:00~21:00", "09:00~21:00", "09:00~21:00", "09:00~21:00", "09:00~18:00", "09:00~18:00"]}, {"name": "\uace8\ub4dc\uc57d\uad6d", "lat": "37.60245942405772", "lng": "127.14573505624182", "url": "/info/%EA%B3%A8%EB%93%9C%EC%95%BD%EA%B5%AD-%EA%B2%BD%EA%B8%B0%EB%8F%84-%EA%B5%AC%EB%A6%AC%EC%8B%9C-%EC%88%98%ED%83%9D%EB%8F%99/", "workingTime": ["-", "09:00~19:00", "09:00~19:00", "09:00~19:00", "09:00~19:00", "09:00~19:00", "09:00~17:00", "-"]}, {"name": "\uad6d\ubbfc\uc57d\uad6d", "lat": "37.59445687539458", "lng": "127.14946449344347", "url": "/info/%EA%B5%AD%EB%AF%BC%EC%95%BD%EA%B5%AD-%EA%B2%BD%EA%B8%B0%EB%8F%84-%EA%B5%AC%EB%A6%AC%EC%8B%9C-%EC%88%98%ED%83%9D%EB%8F%99/", "workingTime": ["-", "09:00~19:30", "09:00~19:30", "09:00~19:30", "09:00~19:30", "09:00~19:30", "09:00~14:00", "-"]}, {"name": "\uc18c\ubbf8\uc57d\uad6d", "lat": "37.60148578633677", "lng": "127.14416743834279", "url": "/info/%EC%86%8C%EB%AF%B8%EC%95%BD%EA%B5%AD-%EA%B2%BD%EA%B8%B0%EB%8F%84-%EA%B5%AC%EB%A6%AC%EC%8B%9C-%EC%88%98%ED%83%9D%EB%8F%99/", "workingTime": ["1,2,3,4,5\uc9f8\uc8fc10:00~21:00", "10:00~21:00", "10:00~21:00", "10:00~21:00", "10:00~21:00", "10:00~21:00", "10:00~21:00", "-"]}, {"name": "\uc2a4\ud0c0\uc57d\uad6d", "lat": "37.599337982455076", "lng": "127.1425530459955", "url": "/info/%EC%8A%A4%ED%83%80%EC%95%BD%EA%B5%AD-%EA%B2%BD%EA%B8%B0%EB%8F%84-%EA%B5%AC%EB%A6%AC%EC%8B%9C-%EC%88%98%ED%83%9D%EB%8F%99/", "workingTime": ["-", "09:00~19:00", "09:00~19:00", "09:00~19:00", "09:00~19:00", "09:00~19:00", "09:00~15:00", "-"]}, {"name": "\uad6c\ub9ac365\uc7ac\uc778\uc57d\uad6d", "lat": "37.5915461648631", "lng": "127.142819420081", "url": "/info/%EA%B5%AC%EB%A6%AC365%EC%9E%AC%EC%9D%B8%EC%95%BD%EA%B5%AD-%EA%B2%BD%EA%B8%B0%EB%8F%84-%EA%B5%AC%EB%A6%AC%EC%8B%9C-%EC%88%98%ED%83%9D%EB%8F%99/", "workingTime": ["-", "10:00~18:00", "10:00~18:00", "10:00~18:00", "10:00~18:00", "10:00~18:00", "-", "-"]}, {"name": "\uc218\uc57d\uad6d", "lat": "37.5870627078734", "lng": "127.138229700427", "url": "/info/%EC%88%98%EC%95%BD%EA%B5%AD-%EA%B2%BD%EA%B8%B0%EB%8F%84-%EA%B5%AC%EB%A6%AC%EC%8B%9C-%EC%88%98%ED%83%9D%EB%8F%99/", "workingTime": ["-", "09:00~18:00", "09:00~18:00", "09:00~18:00", "09:00~18:00", "09:00~18:00", "-", "-"]}, {"name": "\ubc1d\uc740\uc57d\uad6d", "lat": "37.5952588821", "lng": "127.1464925644", "url": "/info/%EB%B0%9D%EC%9D%80%EC%95%BD%EA%B5%AD-%EA%B2%BD%EA%B8%B0%EB%8F%84-%EA%B5%AC%EB%A6%AC%EC%8B%9C-%EC%88%98%ED%83%9D%EB%8F%99/", "workingTime": ["-", "09:00~21:00", "09:00~21:00", "09:00~21:00", "09:00~21:00", "09:00~21:00", "09:00~19:00", "09:00~17:00"]}, {"name": "\ubc14\ub85c\uad7f\uc57d\uad6d", "lat": "37.5972910678", "lng": "127.143928342", "url": "/info/%EB%B0%94%EB%A1%9C%EA%B5%BF%EC%95%BD%EA%B5%AD-%EA%B2%BD%EA%B8%B0%EB%8F%84-%EA%B5%AC%EB%A6%AC%EC%8B%9C-%EC%88%98%ED%83%9D%EB%8F%99/", "workingTime": ["-", "09:00~19:30", "09:00~19:30", "09:00~19:30", "09:00~19:30", "09:00~19:30", "09:00~14:30", "-"]}, {"name": "\uc790\uc5f0\uce58\uc720\uc57d\uad6d", "lat": "37.5912559819", "lng": "127.1426485714", "url": "/info/%EC%9E%90%EC%97%B0%EC%B9%98%EC%9C%A0%EC%95%BD%EA%B5%AD-%EA%B2%BD%EA%B8%B0%EB%8F%84-%EA%B5%AC%EB%A6%AC%EC%8B%9C-%EC%88%98%ED%83%9D%EB%8F%99/", "workingTime": ["1,2,3,4,5\uc9f8\uc8fc09:00~17:00", "09:00~21:00", "09:00~21:00", "09:00~21:00", "09:00~21:00", "09:00~21:00", "09:00~17:00", "09:00~17:00"]}, {"name": "\ub9d1\uc740\uc0d8\uc57d\uad6d", "lat": "37.591927554", "lng": "127.1385872151", "url": "/info/%EB%A7%91%EC%9D%80%EC%83%98%EC%95%BD%EA%B5%AD-%EA%B2%BD%EA%B8%B0%EB%8F%84-%EA%B5%AC%EB%A6%AC%EC%8B%9C-%EC%88%98%ED%83%9D%EB%8F%99/", "workingTime": ["-", "09:00~14:00", "09:00~14:00", "09:00~14:00", "09:00~14:00", "09:00~14:00", "-", "-"]}, {"name": "\ubbf8\ub798\uba54\ub514\uce7c\uc57d\uad6d", "lat": "37.59914589544462", "lng": "127.14269875836865", "url": "/info/%EB%AF%B8%EB%9E%98%EB%A9%94%EB%94%94%EC%B9%BC%EC%95%BD%EA%B5%AD-%EA%B2%BD%EA%B8%B0%EB%8F%84-%EA%B5%AC%EB%A6%AC%EC%8B%9C-%EC%88%98%ED%83%9D%EB%8F%99/", "workingTime": ["-", "09:00~20:00", "09:00~20:00", "09:00~20:00", "09:00~20:00", "09:00~20:00", "09:00~18:00", "-"]}, {"name": "\ud31c\ucf54\ub9ac\uc544\uc57d\uad6d", "lat": "37.5977115528856", "lng": "127.14341394324438", "url": "/info/%ED%8C%9C%EC%BD%94%EB%A6%AC%EC%95%84%EC%95%BD%EA%B5%AD-%EA%B2%BD%EA%B8%B0%EB%8F%84-%EA%B5%AC%EB%A6%AC%EC%8B%9C-%EC%88%98%ED%83%9D%EB%8F%99/", "workingTime": ["-", "09:00~17:00", "09:00~17:00", "09:00~17:00", "09:00~17:00", "09:00~17:00", "09:00~17:00", "09:00~19:00"]}, {"name": "\ud558\uc774\ud31c\uc57d\uad6d", "lat": "37.59538097615708", "lng": "127.14684498131001", "url": "/info/%ED%95%98%EC%9D%B4%ED%8C%9C%EC%95%BD%EA%B5%AD-%EA%B2%BD%EA%B8%B0%EB%8F%84-%EA%B5%AC%EB%A6%AC%EC%8B%9C-%EC%88%98%ED%83%9D%EB%8F%99/", "workingTime": ["1,2,3,4,5\uc9f8\uc8fc09:00~17:00", "09:00~20:00", "09:00~20:00", "09:00~20:00", "09:00~20:00", "09:00~20:00", "09:00~20:00", "09:00~17:00"]}, {"name": "\uc194\uc57d\uad6d", "lat": "37.59198931915704", "lng": "127.14028898169957", "url": "/info/%EC%86%94%EC%95%BD%EA%B5%AD-%EA%B2%BD%EA%B8%B0%EB%8F%84-%EA%B5%AC%EB%A6%AC%EC%8B%9C-%EC%88%98%ED%83%9D%EB%8F%99/", "workingTime": ["-", "08:30~18:30", "08:30~18:30", "08:30~18:30", "08:30~18:30", "08:30~18:30", "08:30~14:00", "-"]}, {"name": "\ucc38\uc88b\uc740\uc57d\uad6d", "lat": "37.595258882126295", "lng": "127.14649256436704", "url": "/info/%EC%B0%B8%EC%A2%8B%EC%9D%80%EC%95%BD%EA%B5%AD-%EA%B2%BD%EA%B8%B0%EB%8F%84-%EA%B5%AC%EB%A6%AC%EC%8B%9C-%EC%88%98%ED%83%9D%EB%8F%99/", "workingTime": ["1,2,3,4,5\uc9f8\uc8fc09:00~16:00", "09:00~19:30", "09:00~19:30", "09:00~19:30", "09:00~19:30", "09:00~19:30", "09:00~16:00", "09:00~16:00"]}, {"name": "\uc0c8\ud0dc\ud3c9\uc591\uc57d\uad6d", "lat": "37.59850530375345", "lng": "127.1426884758721", "url": "/info/%EC%83%88%ED%83%9C%ED%8F%89%EC%96%91%EC%95%BD%EA%B5%AD-%EA%B2%BD%EA%B8%B0%EB%8F%84-%EA%B5%AC%EB%A6%AC%EC%8B%9C-%EC%88%98%ED%83%9D%EB%8F%99/", "workingTime": ["-", "10:00~17:00", "10:00~17:00", "10:00~17:00", "10:00~17:00", "10:00~17:00", "10:00~17:00", "-"]}, {"name": "\ucc38\uc57d\uad6d", "lat": "37.59179128359085", "lng": "127.14105533895423", "url": "/info/%EC%B0%B8%EC%95%BD%EA%B5%AD-%EA%B2%BD%EA%B8%B0%EB%8F%84-%EA%B5%AC%EB%A6%AC%EC%8B%9C-%EC%88%98%ED%83%9D%EB%8F%99/", "workingTime": ["-", "09:00~15:30", "09:00~15:30", "09:00~15:30", "09:00~15:30", "09:00~15:30", "09:00~15:30", "-"]}, {"name": "\uc5f4\ub9b0\uc57d\uad6d", "lat": "37.59481339133873", "lng": "127.14681329310359", "url": "/info/%EC%97%B4%EB%A6%B0%EC%95%BD%EA%B5%AD-%EA%B2%BD%EA%B8%B0%EB%8F%84-%EA%B5%AC%EB%A6%AC%EC%8B%9C-%EC%88%98%ED%83%9D%EB%8F%99/", "workingTime": ["-", "09:00~20:00", "09:00~20:00", "09:00~20:00", "09:00~20:00", "09:00~20:00", "09:00~19:00", "09:00~14:00"]}, {"name": "\uc11c\uc6b8\uc57d\uad6d", "lat": "37.59965960321744", "lng": "127.13621755170739", "url": "/info/%EC%84%9C%EC%9A%B8%EC%95%BD%EA%B5%AD-%EA%B2%BD%EA%B8%B0%EB%8F%84-%EA%B5%AC%EB%A6%AC%EC%8B%9C-%EC%88%98%ED%83%9D%EB%8F%99/", "workingTime": ["-", "09:00~19:00", "09:00~19:00", "09:00~19:00", "09:00~19:00", "09:00~19:00", "09:00~21:00", "18:00~21:00"]}, {"name": "\ud604\ub300\uc57d\uad6d", "lat": "37.5921068133", "lng": "127.139384678", "url": "/info/%ED%98%84%EB%8C%80%EC%95%BD%EA%B5%AD-%EA%B2%BD%EA%B8%B0%EB%8F%84-%EA%B5%AC%EB%A6%AC%EC%8B%9C-%EC%88%98%ED%83%9D%EB%8F%99/", "workingTime": ["10:00~18:00(\uc5f0\ub77d\ud6c4\ubc29\ubb38\uc694\ub9dd)", "09:00~13:00", "09:00~13:00", "09:00~13:00", "09:00~13:00", "09:00~13:00", "09:00~20:00", "09:00~13:00"]}, {"name": "\ud589\ubcf5\ud55c\uc57d\uad6d", "lat": "37.59211799236531", "lng": "127.13811524555291", "url": "/info/%ED%96%89%EB%B3%B5%ED%95%9C%EC%95%BD%EA%B5%AD-%EA%B2%BD%EA%B8%B0%EB%8F%84-%EA%B5%AC%EB%A6%AC%EC%8B%9C-%EC%88%98%ED%83%9D%EB%8F%99/", "workingTime": ["-", "09:00~18:00", "09:00~18:00", "09:00~18:00", "09:00~18:00", "09:00~18:00", "-", "-"]}, {"name": "\uba54\ub514\ud31c365\uc57d\uad6d", "lat": "37.6002132543", "lng": "127.1414653164", "url": "/info/%EB%A9%94%EB%94%94%ED%8C%9C365%EC%95%BD%EA%B5%AD-%EA%B2%BD%EA%B8%B0%EB%8F%84-%EA%B5%AC%EB%A6%AC%EC%8B%9C-%EC%88%98%ED%83%9D%EB%8F%99/", "workingTime": ["10:00~25:00(\uc5f0\ub77d\ud6c4\ubc29\ubb38\uc694\ub9dd)", "10:00~25:00", "10:00~25:00", "10:00~25:00", "10:00~25:00", "10:00~25:00", "09:00~25:00", "-"]}, {"name": "\uad6c\ub9ac\ud0dc\ud3c9\uc591\uc57d\uad6d", "lat": "37.598474633121114", "lng": "127.14272123568983", "url": "/info/%EA%B5%AC%EB%A6%AC%ED%83%9C%ED%8F%89%EC%96%91%EC%95%BD%EA%B5%AD-%EA%B2%BD%EA%B8%B0%EB%8F%84-%EA%B5%AC%EB%A6%AC%EC%8B%9C-%EC%88%98%ED%83%9D%EB%8F%99/", "workingTime": ["1,2,3,4,5\uc9f8\uc8fc11:00~21:00", "09:00~22:00", "09:00~22:00", "09:00~22:00", "09:00~22:00", "09:00~22:00", "09:00~22:00", "-"]}, {"name": "\ud1a0\ud3c9\uc628\ub204\ub9ac\uc57d\uad6d", "lat": "37.58725224053933", "lng": "127.13849130374828", "url": "/info/%ED%86%A0%ED%8F%89%EC%98%A8%EB%88%84%EB%A6%AC%EC%95%BD%EA%B5%AD-%EA%B2%BD%EA%B8%B0%EB%8F%84-%EA%B5%AC%EB%A6%AC%EC%8B%9C-%EC%88%98%ED%83%9D%EB%8F%99/", "workingTime": ["09:00~16:00(\uc5f0\ub77d\ud6c4\ubc29\ubb38\uc694\ub9dd)", "12:00~18:00", "12:00~18:00", "12:00~18:00", "12:00~18:00", "12:00~18:00", "09:00~16:00", "-"]}, {"name": "\ub77c\ud30c\uc628\ub204\ub9ac\uc57d\uad6d", "lat": "37.5967520008", "lng": "127.1456213112", "url": "/info/%EB%9D%BC%ED%8C%8C%EC%98%A8%EB%88%84%EB%A6%AC%EC%95%BD%EA%B5%AD-%EA%B2%BD%EA%B8%B0%EB%8F%84-%EA%B5%AC%EB%A6%AC%EC%8B%9C-%EC%88%98%ED%83%9D%EB%8F%99/", "workingTime": ["-", "09:00~20:00", "09:00~20:00", "09:00~20:00", "09:00~20:00", "09:00~20:00", "09:00~17:00", "-"]}, {"name": "\ud55c\uac00\ub78c\uc57d\uad6d", "lat": "37.5921436798", "lng": "127.138682728", "url": "/info/%ED%95%9C%EA%B0%80%EB%9E%8C%EC%95%BD%EA%B5%AD-%EA%B2%BD%EA%B8%B0%EB%8F%84-%EA%B5%AC%EB%A6%AC%EC%8B%9C-%EC%88%98%ED%83%9D%EB%8F%99/", "workingTime": ["-", "10:00~16:00", "10:00~16:00", "10:00~16:00", "10:00~16:00", "10:00~16:00", "09:00~16:00", "-"]}, {"name": "\ub298\ud478\ub978\uc57d\uad6d", "lat": "37.6003267268", "lng": "127.1399979251", "url": "/info/%EB%8A%98%ED%91%B8%EB%A5%B8%EC%95%BD%EA%B5%AD-%EA%B2%BD%EA%B8%B0%EB%8F%84-%EA%B5%AC%EB%A6%AC%EC%8B%9C-%EC%88%98%ED%83%9D%EB%8F%99/", "workingTime": ["-", "09:00~16:00", "09:00~16:00", "09:00~16:00", "09:00~16:00", "09:00~16:00", "09:00~16:00", "-"]}, {"name": "\uc0ac\ub791\uc57d\uad6d", "lat": "37.60251128353744", "lng": "127.14549664308411", "url": "/info/%EC%82%AC%EB%9E%91%EC%95%BD%EA%B5%AD-%EA%B2%BD%EA%B8%B0%EB%8F%84-%EA%B5%AC%EB%A6%AC%EC%8B%9C-%EC%88%98%ED%83%9D%EB%8F%99/", "workingTime": ["-", "09:00~16:00", "09:00~16:00", "09:00~16:00", "09:00~16:00", "09:00~16:00", "09:00~16:00", "-"]}, {"name": "\uc774\ud654\uc57d\uad6d", "lat": "37.597291067800015", "lng": "127.143928342", "url": "/info/%EC%9D%B4%ED%99%94%EC%95%BD%EA%B5%AD-%EA%B2%BD%EA%B8%B0%EB%8F%84-%EA%B5%AC%EB%A6%AC%EC%8B%9C-%EC%88%98%ED%83%9D%EB%8F%99/", "workingTime": ["-", "09:00~21:00", "09:00~21:00", "09:00~21:00", "09:00~21:00", "09:00~21:00", "09:00~21:00", "-"]}, {"name": "\ub300\ub3c4\uc57d\uad6d", "lat": "37.5988997037232", "lng": "127.142881735444", "url": "/info/%EB%8C%80%EB%8F%84%EC%95%BD%EA%B5%AD-%EA%B2%BD%EA%B8%B0%EB%8F%84-%EA%B5%AC%EB%A6%AC%EC%8B%9C-%EC%88%98%ED%83%9D%EB%8F%99/", "workingTime": ["-", "09:00~19:00", "09:00~19:00", "09:00~19:00", "09:00~19:00", "09:00~19:00", "09:00~18:00", "-"]}, {"name": "\ud574\ud53c\uc628\ub204\ub9ac\uc57d\uad6d", "lat": "37.592146916143996", "lng": "127.1389952455935", "url": "/info/%ED%95%B4%ED%94%BC%EC%98%A8%EB%88%84%EB%A6%AC%EC%95%BD%EA%B5%AD-%EA%B2%BD%EA%B8%B0%EB%8F%84-%EA%B5%AC%EB%A6%AC%EC%8B%9C-%EC%88%98%ED%83%9D%EB%8F%99/", "workingTime": ["-", "09:00~15:00", "09:00~15:00", "09:00~15:00", "09:00~15:00", "09:00~15:00", "09:00~14:00", "-"]}]