[{"name": "\uc870\uc740\uc57d\uad6d", "lat": "37.60948539870387", "lng": "127.13806092635298", "url": "/info/%EC%A1%B0%EC%9D%80%EC%95%BD%EA%B5%AD-%EA%B2%BD%EA%B8%B0%EB%8F%84-%EA%B5%AC%EB%A6%AC%EC%8B%9C-%EC%9D%B8%EC%B0%BD%EB%8F%99/", "workingTime": ["-", "09:00~15:00", "09:00~15:00", "09:00~15:00", "09:00~15:00", "09:00~15:00", "09:00~15:00", "-"]}, {"name": "4\uce35\uba54\ub514\uceec\uc57d\uad6d", "lat": "37.6011421671406", "lng": "127.140718202912", "url": "/info/4%EC%B8%B5%EB%A9%94%EB%94%94%EC%BB%AC%EC%95%BD%EA%B5%AD-%EA%B2%BD%EA%B8%B0%EB%8F%84-%EA%B5%AC%EB%A6%AC%EC%8B%9C-%EC%9D%B8%EC%B0%BD%EB%8F%99/", "workingTime": ["-", "09:00~18:00", "09:00~18:00", "09:00~18:00", "09:00~18:00", "09:00~18:00", "09:00~13:00", "-"]}, {"name": "\ubcf8\uc57d\uad6d", "lat": "37.60441524311949", "lng": "127.13938274683535", "url": "/info/%EB%B3%B8%EC%95%BD%EA%B5%AD-%EA%B2%BD%EA%B8%B0%EB%8F%84-%EA%B5%AC%EB%A6%AC%EC%8B%9C-%EC%9D%B8%EC%B0%BD%EB%8F%99/", "workingTime": ["-", "09:00~18:00", "09:00~18:00", "09:00~18:00", "09:00~18:00", "09:00~18:00", "09:00~15:00", "-"]}, {"name": "\ub9ac\ub9e5\uc2a44\uce35\uc57d\uad6d", "lat": "37.6016140068815", "lng": "127.141629340209", "url": "/info/%EB%A6%AC%EB%A7%A5%EC%8A%A44%EC%B8%B5%EC%95%BD%EA%B5%AD-%EA%B2%BD%EA%B8%B0%EB%8F%84-%EA%B5%AC%EB%A6%AC%EC%8B%9C-%EC%9D%B8%EC%B0%BD%EB%8F%99/", "workingTime": ["-", "10:00~18:00", "10:00~18:00", "10:00~18:00", "10:00~18:00", "10:00~18:00", "-", "-"]}, {"name": "\ub4dc\ub9bc\uc57d\uad6d", "lat": "37.60826816909234", "lng": "127.13411298954759", "url": "/info/%EB%93%9C%EB%A6%BC%EC%95%BD%EA%B5%AD-%EA%B2%BD%EA%B8%B0%EB%8F%84-%EA%B5%AC%EB%A6%AC%EC%8B%9C-%EC%9D%B8%EC%B0%BD%EB%8F%99/", "workingTime": ["-", "09:00~21:00", "09:00~21:00", "09:00~21:00", "09:00~21:00", "09:00~21:00", "09:00~15:00", "10:00~13:30"]}, {"name": "\ubaa8\uc544\uc57d\uad6d", "lat": "37.6057131927572", "lng": "127.133952008542", "url": "/info/%EB%AA%A8%EC%95%84%EC%95%BD%EA%B5%AD-%EA%B2%BD%EA%B8%B0%EB%8F%84-%EA%B5%AC%EB%A6%AC%EC%8B%9C-%EC%9D%B8%EC%B0%BD%EB%8F%99/", "workingTime": ["-", "09:00~18:00", "09:00~18:00", "09:00~18:00", "09:00~18:00", "09:00~18:00", "-", "-"]}, {"name": "\uc815\uc57d\uad6d", "lat": "37.60222958905815", "lng": "127.14302737316193", "url": "/info/%EC%A0%95%EC%95%BD%EA%B5%AD-%EA%B2%BD%EA%B8%B0%EB%8F%84-%EA%B5%AC%EB%A6%AC%EC%8B%9C-%EC%9D%B8%EC%B0%BD%EB%8F%99/", "workingTime": ["-", "09:00~16:00", "09:00~16:00", "09:00~16:00", "09:00~16:00", "09:00~16:00", "09:00~16:00", "-"]}, {"name": "\uc635\ud2f0\ub9c8\ud589\ubcf5\uc57d\uad6d", "lat": "37.61001131418083", "lng": "127.13705105755787", "url": "/info/%EC%98%B5%ED%8B%B0%EB%A7%88%ED%96%89%EB%B3%B5%EC%95%BD%EA%B5%AD-%EA%B2%BD%EA%B8%B0%EB%8F%84-%EA%B5%AC%EB%A6%AC%EC%8B%9C-%EC%9D%B8%EC%B0%BD%EB%8F%99/", "workingTime": ["-", "09:10~19:50", "09:10~19:50", "09:10~19:50", "09:10~19:50", "09:10~19:50", "09:10~17:00", "-"]}, {"name": "\ud558\ub098\uc57d\uad6d", "lat": "37.60131048204601", "lng": "127.14010395175305", "url": "/info/%ED%95%98%EB%82%98%EC%95%BD%EA%B5%AD-%EA%B2%BD%EA%B8%B0%EB%8F%84-%EA%B5%AC%EB%A6%AC%EC%8B%9C-%EC%9D%B8%EC%B0%BD%EB%8F%99/", "workingTime": ["-", "08:30~18:00", "08:30~18:00", "08:30~18:00", "08:30~18:00", "08:30~18:00", "08:30~14:00", "-"]}, {"name": "\ud478\ub978\uc57d\uad6d", "lat": "37.60509564672994", "lng": "127.14429510670281", "url": "/info/%ED%91%B8%EB%A5%B8%EC%95%BD%EA%B5%AD-%EA%B2%BD%EA%B8%B0%EB%8F%84-%EA%B5%AC%EB%A6%AC%EC%8B%9C-%EC%9D%B8%EC%B0%BD%EB%8F%99/", "workingTime": ["-", "09:00~20:00", "09:00~20:00", "09:00~20:00", "09:00~20:00", "09:00~20:00", "-", "-"]}, {"name": "\ub3d9\uc6d0\uc57d\uad6d", "lat": "37.6022847552795", "lng": "127.14285536837708", "url": "/info/%EB%8F%99%EC%9B%90%EC%95%BD%EA%B5%AD-%EA%B2%BD%EA%B8%B0%EB%8F%84-%EA%B5%AC%EB%A6%AC%EC%8B%9C-%EC%9D%B8%EC%B0%BD%EB%8F%99/", "workingTime": ["-", "09:00~19:00", "09:00~19:00", "09:00~19:00", "09:00~19:00", "09:00~19:00", "09:00~15:45", "-"]}, {"name": "\ud070\uc0ac\ub791\uc57d\uad6d", "lat": "37.6084825908", "lng": "127.1336891303", "url": "/info/%ED%81%B0%EC%82%AC%EB%9E%91%EC%95%BD%EA%B5%AD-%EA%B2%BD%EA%B8%B0%EB%8F%84-%EA%B5%AC%EB%A6%AC%EC%8B%9C-%EC%9D%B8%EC%B0%BD%EB%8F%99/", "workingTime": ["1,2,3,4,5\uc9f8\uc8fc10:00~20:00", "09:00~22:00", "09:00~22:00", "09:00~22:00", "09:00~22:00", "09:00~22:00", "09:00~22:00", "10:00~22:00"]}, {"name": "\ud798\ucc2c\uc57d\uad6d", "lat": "37.6014147142983", "lng": "127.140644542177", "url": "/info/%ED%9E%98%EC%B0%AC%EC%95%BD%EA%B5%AD-%EA%B2%BD%EA%B8%B0%EB%8F%84-%EA%B5%AC%EB%A6%AC%EC%8B%9C-%EC%9D%B8%EC%B0%BD%EB%8F%99/", "workingTime": ["1,2,3,4,5\uc9f8\uc8fc09:00~16:30", "09:00~21:00", "09:00~21:00", "09:00~21:00", "09:00~21:00", "09:00~21:00", "09:00~16:30", "09:00~16:30"]}, {"name": "\uc778\ucc3d\uc628\ub204\ub9ac\uc57d\uad6d", "lat": "37.60904187025438", "lng": "127.13827303220637", "url": "/info/%EC%9D%B8%EC%B0%BD%EC%98%A8%EB%88%84%EB%A6%AC%EC%95%BD%EA%B5%AD-%EA%B2%BD%EA%B8%B0%EB%8F%84-%EA%B5%AC%EB%A6%AC%EC%8B%9C-%EC%9D%B8%EC%B0%BD%EB%8F%99/", "workingTime": ["-", "09:00~20:00", "09:00~20:00", "09:00~20:00", "09:00~20:00", "09:00~20:00", "09:00~13:00", "-"]}, {"name": "\ub450\ub9ac\uc57d\uad6d", "lat": "37.60443105104989", "lng": "127.14049031552739", "url": "/info/%EB%91%90%EB%A6%AC%EC%95%BD%EA%B5%AD-%EA%B2%BD%EA%B8%B0%EB%8F%84-%EA%B5%AC%EB%A6%AC%EC%8B%9C-%EC%9D%B8%EC%B0%BD%EB%8F%99/", "workingTime": ["-", "09:00~19:00", "09:00~19:00", "09:00~19:00", "09:00~19:00", "09:00~19:00", "09:00~15:00", "-"]}, {"name": "\uc11c\uc6b8\uba54\ub514\uce7c\uc57d\uad6d", "lat": "37.607807951", "lng": "127.1404966669", "url": "/info/%EC%84%9C%EC%9A%B8%EB%A9%94%EB%94%94%EC%B9%BC%EC%95%BD%EA%B5%AD-%EA%B2%BD%EA%B8%B0%EB%8F%84-%EA%B5%AC%EB%A6%AC%EC%8B%9C-%EC%9D%B8%EC%B0%BD%EB%8F%99/", "workingTime": ["-", "09:00~14:00", "09:00~14:00", "09:00~14:00", "09:00~14:00", "09:00~14:00", "09:00~14:00", "-"]}, {"name": "\uad6c\ub9ac\uc885\ub85c\uc57d\uad6d", "lat": "37.6063552801302", "lng": "127.13920743123077", "url": "/info/%EA%B5%AC%EB%A6%AC%EC%A2%85%EB%A1%9C%EC%95%BD%EA%B5%AD-%EA%B2%BD%EA%B8%B0%EB%8F%84-%EA%B5%AC%EB%A6%AC%EC%8B%9C-%EC%9D%B8%EC%B0%BD%EB%8F%99/", "workingTime": ["10:00~18:00(\uc5f0\ub77d\ud6c4\ubc29\ubb38\uc694\ub9dd)", "10:00~18:00", "10:00~18:00", "10:00~18:00", "10:00~18:00", "10:00~18:00", "09:00~18:00", "-"]}, {"name": "\uc6b0\uc9c4\uba54\ub514\uce7c\uc57d\uad6d", "lat": "37.608051670547205", "lng": "127.13858994595826", "url": "/info/%EC%9A%B0%EC%A7%84%EB%A9%94%EB%94%94%EC%B9%BC%EC%95%BD%EA%B5%AD-%EA%B2%BD%EA%B8%B0%EB%8F%84-%EA%B5%AC%EB%A6%AC%EC%8B%9C-%EC%9D%B8%EC%B0%BD%EB%8F%99/", "workingTime": ["-", "09:00~19:00", "09:00~19:00", "09:00~19:00", "09:00~19:00", "09:00~19:00", "09:00~14:00", "-"]}, {"name": "\uae30\uc068\uc57d\uad6d", "lat": "37.60504471339111", "lng": "127.13965458494604", "url": "/info/%EA%B8%B0%EC%81%A8%EC%95%BD%EA%B5%AD-%EA%B2%BD%EA%B8%B0%EB%8F%84-%EA%B5%AC%EB%A6%AC%EC%8B%9C-%EC%9D%B8%EC%B0%BD%EB%8F%99/", "workingTime": ["-", "09:00~22:00", "09:00~22:00", "09:00~22:00", "09:00~22:00", "09:00~22:00", "09:00~22:30", "09:00~22:30"]}, {"name": "\ub9ac\ub9e5\uc2a4 \uc0d8\uc57d\uad6d", "lat": "37.60161018380767", "lng": "127.14167481496025", "url": "/info/%EB%A6%AC%EB%A7%A5%EC%8A%A4+%EC%83%98%EC%95%BD%EA%B5%AD-%EA%B2%BD%EA%B8%B0%EB%8F%84-%EA%B5%AC%EB%A6%AC%EC%8B%9C-%EC%9D%B8%EC%B0%BD%EB%8F%99/", "workingTime": ["-", "09:00~19:00", "09:00~19:00", "09:00~19:00", "09:00~19:00", "09:00~19:00", "09:00~16:00", "-"]}, {"name": "\uc131\ub9bc\uc57d\uad6d", "lat": "37.606278917176866", "lng": "127.13400979925511", "url": "/info/%EC%84%B1%EB%A6%BC%EC%95%BD%EA%B5%AD-%EA%B2%BD%EA%B8%B0%EB%8F%84-%EA%B5%AC%EB%A6%AC%EC%8B%9C-%EC%9D%B8%EC%B0%BD%EB%8F%99/", "workingTime": ["-", "09:00~19:00", "09:00~19:00", "09:00~19:00", "09:00~19:00", "09:00~19:00", "08:30~13:00", "09:00~13:00"]}, {"name": "\ud070\uc0ac\ub791\uc57d\uad6d", "lat": "37.60848259076822", "lng": "127.13368913027779", "url": "/info/%ED%81%B0%EC%82%AC%EB%9E%91%EC%95%BD%EA%B5%AD-%EA%B2%BD%EA%B8%B0%EB%8F%84-%EA%B5%AC%EB%A6%AC%EC%8B%9C-%EC%9D%B8%EC%B0%BD%EB%8F%99/", "workingTime": ["-", "09:00~18:00", "09:00~18:00", "09:00~18:00", "09:00~18:00", "09:00~18:00", "-", "-"]}, {"name": "\uba54\ub514\uceec5\uce35\uc57d\uad6d", "lat": "37.6015778022852", "lng": "127.14162945733798", "url": "/info/%EB%A9%94%EB%94%94%EC%BB%AC5%EC%B8%B5%EC%95%BD%EA%B5%AD-%EA%B2%BD%EA%B8%B0%EB%8F%84-%EA%B5%AC%EB%A6%AC%EC%8B%9C-%EC%9D%B8%EC%B0%BD%EB%8F%99/", "workingTime": ["-", "09:00~18:30", "09:00~18:30", "09:00~18:30", "09:00~18:30", "09:00~18:30", "09:00~15:30", "-"]}, {"name": "\uc2dc\ubbfc\uc57d\uad6d", "lat": "37.6080577041", "lng": "127.1333531411", "url": "/info/%EC%8B%9C%EB%AF%BC%EC%95%BD%EA%B5%AD-%EA%B2%BD%EA%B8%B0%EB%8F%84-%EA%B5%AC%EB%A6%AC%EC%8B%9C-%EC%9D%B8%EC%B0%BD%EB%8F%99/", "workingTime": ["-", "09:00~19:00", "09:00~19:00", "09:00~19:00", "09:00~19:00", "09:00~19:00", "09:00~19:00", "-"]}, {"name": "\uc0c8\uc2f9\uc57d\uad6d", "lat": "37.6051255810679", "lng": "127.14034961838064", "url": "/info/%EC%83%88%EC%8B%B9%EC%95%BD%EA%B5%AD-%EA%B2%BD%EA%B8%B0%EB%8F%84-%EA%B5%AC%EB%A6%AC%EC%8B%9C-%EC%9D%B8%EC%B0%BD%EB%8F%99/", "workingTime": ["-", "09:00~14:30", "09:00~14:30", "09:00~14:30", "09:00~14:30", "09:00~14:30", "09:00~14:00", "09:00~14:00"]}, {"name": "\uad6c\ub9ac\ubcf4\ub8e1\uc57d\uad6d", "lat": "37.608234681029906", "lng": "127.13380875573054", "url": "/info/%EA%B5%AC%EB%A6%AC%EB%B3%B4%EB%A3%A1%EC%95%BD%EA%B5%AD-%EA%B2%BD%EA%B8%B0%EB%8F%84-%EA%B5%AC%EB%A6%AC%EC%8B%9C-%EC%9D%B8%EC%B0%BD%EB%8F%99/", "workingTime": ["-", "09:00~20:00", "09:00~20:00", "09:00~20:00", "09:00~20:00", "09:00~20:00", "09:00~16:00", "09:00~13:00"]}, {"name": "\uc131\uc2dc\uc628\ub204\ub9ac\uc57d\uad6d", "lat": "37.61313643905353", "lng": "127.14091721573553", "url": "/info/%EC%84%B1%EC%8B%9C%EC%98%A8%EB%88%84%EB%A6%AC%EC%95%BD%EA%B5%AD-%EA%B2%BD%EA%B8%B0%EB%8F%84-%EA%B5%AC%EB%A6%AC%EC%8B%9C-%EC%9D%B8%EC%B0%BD%EB%8F%99/", "workingTime": ["-", "10:00~19:00", "10:00~19:00", "10:00~19:00", "10:00~19:00", "10:00~19:00", "-", "10:00~19:00"]}, {"name": "\ub3d9\ubb38\uc57d\uad6d", "lat": "37.60526560936826", "lng": "127.13952672299314", "url": "/info/%EB%8F%99%EB%AC%B8%EC%95%BD%EA%B5%AD-%EA%B2%BD%EA%B8%B0%EB%8F%84-%EA%B5%AC%EB%A6%AC%EC%8B%9C-%EC%9D%B8%EC%B0%BD%EB%8F%99/", "workingTime": ["-", "09:00~22:00", "09:00~22:00", "09:00~22:00", "09:00~22:00", "09:00~22:00", "09:00~22:00", "09:00~22:00"]}, {"name": "\ud478\ub978\uc194\uc57d\uad6d", "lat": "37.6055730293", "lng": "127.1347167554", "url": "/info/%ED%91%B8%EB%A5%B8%EC%86%94%EC%95%BD%EA%B5%AD-%EA%B2%BD%EA%B8%B0%EB%8F%84-%EA%B5%AC%EB%A6%AC%EC%8B%9C-%EC%9D%B8%EC%B0%BD%EB%8F%99/", "workingTime": ["1,2,3,4,5\uc9f8\uc8fc09:00~13:00", "09:00~21:00", "09:00~21:00", "09:00~21:00", "09:00~21:00", "09:00~21:00", "09:00~18:00", "09:00~13:00"]}, {"name": "\uc0bc\uce35\uc57d\uad6d", "lat": "37.60091943995162", "lng": "127.14011229857293", "url": "/info/%EC%82%BC%EC%B8%B5%EC%95%BD%EA%B5%AD-%EA%B2%BD%EA%B8%B0%EB%8F%84-%EA%B5%AC%EB%A6%AC%EC%8B%9C-%EC%9D%B8%EC%B0%BD%EB%8F%99/", "workingTime": ["-", "09:00~16:00", "09:00~16:00", "09:00~16:00", "09:00~16:00", "09:00~16:00", "09:00~16:00", "-"]}, {"name": "\uc2e0\uc544\uc57d\uad6d", "lat": "37.604547520503544", "lng": "127.1417929029", "url": "/info/%EC%8B%A0%EC%95%84%EC%95%BD%EA%B5%AD-%EA%B2%BD%EA%B8%B0%EB%8F%84-%EA%B5%AC%EB%A6%AC%EC%8B%9C-%EC%9D%B8%EC%B0%BD%EB%8F%99/", "workingTime": ["-", "09:00~15:30", "09:00~15:30", "09:00~15:30", "09:00~15:30", "09:00~15:30", "09:00~15:30", "-"]}]