[{"name": "\uc124\uc545\uc57d\uad6d", "lat": "37.701940437", "lng": "127.5468055907", "url": "/info/%EC%84%A4%EC%95%85%EC%95%BD%EA%B5%AD-%EA%B2%BD%EA%B8%B0%EB%8F%84-%EA%B0%80%ED%8F%89%EA%B5%B0-%EC%84%A4%EC%95%85%EB%A9%B4/", "workingTime": ["1,2,3,4,5\uc9f8\uc8fc07:50~19:50", "07:50~19:50", "07:50~19:50", "07:50~19:50", "07:50~19:50", "07:50~19:50", "07:50~19:50", "07:50~19:50"]}, {"name": "\uc6a9\ud55c\uc57d\uad6d", "lat": "37.677159010169746", "lng": "127.49208408585284", "url": "/info/%EC%9A%A9%ED%95%9C%EC%95%BD%EA%B5%AD-%EA%B2%BD%EA%B8%B0%EB%8F%84-%EA%B0%80%ED%8F%89%EA%B5%B0-%EC%84%A4%EC%95%85%EB%A9%B4/", "workingTime": ["08:00~22:00(\uc5f0\ub77d\ud6c4\ubc29\ubb38\uc694\ub9dd)", "07:00~22:00", "07:00~22:00", "07:00~22:00", "07:00~22:00", "07:00~22:00", "-", "-"]}, {"name": "\uac10\ucd08\uc628\ub204\ub9ac\uc57d\uad6d", "lat": "37.67768344518203", "lng": "127.4942277150561", "url": "/info/%EA%B0%90%EC%B4%88%EC%98%A8%EB%88%84%EB%A6%AC%EC%95%BD%EA%B5%AD-%EA%B2%BD%EA%B8%B0%EB%8F%84-%EA%B0%80%ED%8F%89%EA%B5%B0-%EC%84%A4%EC%95%85%EB%A9%B4/", "workingTime": ["-", "08:30~18:30", "08:30~18:30", "08:30~18:30", "08:30~18:30", "08:30~18:30", "-", "08:30~15:00"]}, {"name": "\ud6a8\uc815\uc57d\uad6d", "lat": "37.690448871265865", "lng": "127.52189618280532", "url": "/info/%ED%9A%A8%EC%A0%95%EC%95%BD%EA%B5%AD-%EA%B2%BD%EA%B8%B0%EB%8F%84-%EA%B0%80%ED%8F%89%EA%B5%B0-%EC%84%A4%EC%95%85%EB%A9%B4/", "workingTime": ["-", "09:00~18:30", "09:00~18:30", "09:00~18:30", "09:00~18:30", "09:00~18:30", "09:00~14:00", "-"]}, {"name": "\uace0\ud5a5\uc57d\uad6d", "lat": "37.676710889059216", "lng": "127.49497396318739", "url": "/info/%EA%B3%A0%ED%96%A5%EC%95%BD%EA%B5%AD-%EA%B2%BD%EA%B8%B0%EB%8F%84-%EA%B0%80%ED%8F%89%EA%B5%B0-%EC%84%A4%EC%95%85%EB%A9%B4/", "workingTime": ["-", "09:00~19:00", "09:00~19:00", "09:00~19:00", "09:00~19:00", "09:00~19:00", "-", "-"]}, {"name": "\ub300\uc131\uc57d\uad6d", "lat": "37.67812656143233", "lng": "127.49080271527953", "url": "/info/%EB%8C%80%EC%84%B1%EC%95%BD%EA%B5%AD-%EA%B2%BD%EA%B8%B0%EB%8F%84-%EA%B0%80%ED%8F%89%EA%B5%B0-%EC%84%A4%EC%95%85%EB%A9%B4/", "workingTime": ["-", "08:00~21:30", "08:00~21:30", "08:00~21:30", "08:00~21:30", "08:00~21:30", "08:00~20:30", "-"]}]