[{"name": "\uad11\ud61c\ub2f9\uc57d\uad6d", "lat": "37.2486403480321", "lng": "126.985038265937", "url": "/info/%EA%B4%91%ED%98%9C%EB%8B%B9%EC%95%BD%EA%B5%AD-%EA%B2%BD%EA%B8%B0%EB%8F%84-%EC%88%98%EC%9B%90%EC%8B%9C-%EA%B3%A0%EC%83%89%EB%8F%99/", "workingTime": ["-", "09:00~18:00", "09:00~18:00", "09:00~18:00", "09:00~18:00", "09:00~18:00", "09:00~13:00", "-"]}, {"name": "\uace0\uc0c9\uc57d\uad6d", "lat": "37.2424448216668", "lng": "126.984107206023", "url": "/info/%EA%B3%A0%EC%83%89%EC%95%BD%EA%B5%AD-%EA%B2%BD%EA%B8%B0%EB%8F%84-%EC%88%98%EC%9B%90%EC%8B%9C-%EA%B3%A0%EC%83%89%EB%8F%99/", "workingTime": ["-", "09:30~18:30", "09:30~18:30", "09:30~18:30", "09:30~18:30", "09:30~18:30", "11:30~13:30", "-"]}, {"name": "\ub2e4\uc628\uc57d\uad6d", "lat": "37.2515010502", "lng": "126.9765593419", "url": "/info/%EB%8B%A4%EC%98%A8%EC%95%BD%EA%B5%AD-%EA%B2%BD%EA%B8%B0%EB%8F%84-%EC%88%98%EC%9B%90%EC%8B%9C-%EA%B3%A0%EC%83%89%EB%8F%99/", "workingTime": ["1,2,3,4,5\uc9f8\uc8fc09:00~18:00", "09:00~22:00", "09:00~22:00", "09:00~22:00", "09:00~22:00", "09:00~22:00", "09:00~18:00", "09:00~18:00"]}, {"name": "\uc5f0\uc138\ud0dc\uc0b0\uc57d\uad6d", "lat": "37.250283095872376", "lng": "126.97797093511875", "url": "/info/%EC%97%B0%EC%84%B8%ED%83%9C%EC%82%B0%EC%95%BD%EA%B5%AD-%EA%B2%BD%EA%B8%B0%EB%8F%84-%EC%88%98%EC%9B%90%EC%8B%9C-%EA%B3%A0%EC%83%89%EB%8F%99/", "workingTime": ["09:00~13:00(\uc5f0\ub77d\ud6c4\ubc29\ubb38\uc694\ub9dd)", "08:00~20:00", "08:00~20:00", "08:00~20:00", "08:00~20:00", "08:00~20:00", "08:00~18:00", "09:00~17:00"]}, {"name": "\uac00\ub098\ub2e4\uc57d\uad6d", "lat": "37.25104973771223", "lng": "126.9824883882294", "url": "/info/%EA%B0%80%EB%82%98%EB%8B%A4%EC%95%BD%EA%B5%AD-%EA%B2%BD%EA%B8%B0%EB%8F%84-%EC%88%98%EC%9B%90%EC%8B%9C-%EA%B3%A0%EC%83%89%EB%8F%99/", "workingTime": ["-", "09:00~19:00", "09:00~19:00", "09:00~19:00", "09:00~19:00", "09:00~19:00", "09:00~17:00", "-"]}, {"name": "\uc2e0\uba85\uc57d\uad6d", "lat": "37.25116695222633", "lng": "126.98302940102078", "url": "/info/%EC%8B%A0%EB%AA%85%EC%95%BD%EA%B5%AD-%EA%B2%BD%EA%B8%B0%EB%8F%84-%EC%88%98%EC%9B%90%EC%8B%9C-%EA%B3%A0%EC%83%89%EB%8F%99/", "workingTime": ["09:30~21:00(\uc5f0\ub77d\ud6c4\ubc29\ubb38\uc694\ub9dd)", "09:00~21:00", "09:00~21:00", "09:00~21:00", "09:00~21:00", "09:00~21:00", "09:00~21:00", "09:00~20:00"]}, {"name": "\ud0dc\uad11\ud504\ub77c\uc790\uc57d\uad6d", "lat": "37.25007708136802", "lng": "126.97731959488607", "url": "/info/%ED%83%9C%EA%B4%91%ED%94%84%EB%9D%BC%EC%9E%90%EC%95%BD%EA%B5%AD-%EA%B2%BD%EA%B8%B0%EB%8F%84-%EC%88%98%EC%9B%90%EC%8B%9C-%EA%B3%A0%EC%83%89%EB%8F%99/", "workingTime": ["-", "09:00~19:30", "09:00~19:30", "09:00~19:30", "09:00~19:30", "09:00~19:30", "09:00~14:00", "-"]}, {"name": "\ud574\ub9d1\uc740\uc57d\uad6d", "lat": "37.25150105018128", "lng": "126.97655934193244", "url": "/info/%ED%95%B4%EB%A7%91%EC%9D%80%EC%95%BD%EA%B5%AD-%EA%B2%BD%EA%B8%B0%EB%8F%84-%EC%88%98%EC%9B%90%EC%8B%9C-%EA%B3%A0%EC%83%89%EB%8F%99/", "workingTime": ["-", "09:00~18:00", "09:00~18:00", "09:00~18:00", "09:00~18:00", "09:00~18:00", "-", "-"]}, {"name": "\ub298\uc5f4\ub9b0\uc57d\uad6d", "lat": "37.2528542178785", "lng": "126.98695613830813", "url": "/info/%EB%8A%98%EC%97%B4%EB%A6%B0%EC%95%BD%EA%B5%AD-%EA%B2%BD%EA%B8%B0%EB%8F%84-%EC%88%98%EC%9B%90%EC%8B%9C-%EA%B3%A0%EC%83%89%EB%8F%99/", "workingTime": ["-", "09:00~21:00", "09:00~21:00", "09:00~21:00", "09:00~21:00", "09:00~21:00", "-", "-"]}, {"name": "\uc8fc\ucc2c\uc57d\uad6d", "lat": "37.25128595380856", "lng": "126.98348024163903", "url": "/info/%EC%A3%BC%EC%B0%AC%EC%95%BD%EA%B5%AD-%EA%B2%BD%EA%B8%B0%EB%8F%84-%EC%88%98%EC%9B%90%EC%8B%9C-%EA%B3%A0%EC%83%89%EB%8F%99/", "workingTime": ["-", "09:00~20:00", "09:00~20:00", "09:00~20:00", "09:00~20:00", "09:00~20:00", "09:00~16:00", "09:00~12:00"]}]