[{"name": "\uc6d0\uace1\uc885\ub85c\uc57d\uad6d", "lat": "37.327987041871026", "lng": "126.7903923024293", "url": "/info/%EC%9B%90%EA%B3%A1%EC%A2%85%EB%A1%9C%EC%95%BD%EA%B5%AD-%EA%B2%BD%EA%B8%B0%EB%8F%84-%EC%95%88%EC%82%B0%EC%8B%9C-%EC%9B%90%EA%B3%A1%EB%8F%99/", "workingTime": ["1,2,3,4,5\uc9f8\uc8fc09:00~22:00", "09:00~22:00", "09:00~22:00", "09:00~22:00", "09:00~22:00", "09:00~22:00", "09:00~22:00", "09:00~22:00"]}, {"name": "\ubaa8\uc544\uc57d\uad6d", "lat": "37.328361653367885", "lng": "126.80176807943211", "url": "/info/%EB%AA%A8%EC%95%84%EC%95%BD%EA%B5%AD-%EA%B2%BD%EA%B8%B0%EB%8F%84-%EC%95%88%EC%82%B0%EC%8B%9C-%EC%9B%90%EA%B3%A1%EB%8F%99/", "workingTime": ["1,2,3,4,5\uc9f8\uc8fc09:00~18:00", "09:00~21:00", "09:00~21:00", "09:00~21:00", "09:00~19:30", "09:00~21:00", "09:00~18:00", "-"]}, {"name": "\uc6d4\ub4dc\uc57d\uad6d", "lat": "37.328566184542", "lng": "126.789297670252", "url": "/info/%EC%9B%94%EB%93%9C%EC%95%BD%EA%B5%AD-%EA%B2%BD%EA%B8%B0%EB%8F%84-%EC%95%88%EC%82%B0%EC%8B%9C-%EC%9B%90%EA%B3%A1%EB%8F%99/", "workingTime": ["-", "09:00~18:00", "09:00~18:00", "09:00~18:00", "09:00~18:00", "09:00~18:00", "09:00~13:00", "-"]}, {"name": "\uc870\uc544\uc57d\uad6d", "lat": "37.330645158006334", "lng": "126.79650613825379", "url": "/info/%EC%A1%B0%EC%95%84%EC%95%BD%EA%B5%AD-%EA%B2%BD%EA%B8%B0%EB%8F%84-%EC%95%88%EC%82%B0%EC%8B%9C-%EC%9B%90%EA%B3%A1%EB%8F%99/", "workingTime": ["-", "09:00~18:00", "09:00~18:00", "09:00~18:00", "09:00~18:00", "09:00~18:00", "-", "-"]}, {"name": "\ud3ec\ub808\uc57d\uad6d", "lat": "37.3263064411963", "lng": "126.800390969543", "url": "/info/%ED%8F%AC%EB%A0%88%EC%95%BD%EA%B5%AD-%EA%B2%BD%EA%B8%B0%EB%8F%84-%EC%95%88%EC%82%B0%EC%8B%9C-%EC%9B%90%EA%B3%A1%EB%8F%99/", "workingTime": ["-", "09:00~18:00", "09:00~18:00", "09:00~18:00", "09:00~18:00", "09:00~18:00", "-", "-"]}, {"name": "\uc6d0\uace1365\uc57d\uad6d", "lat": "37.330128154383", "lng": "126.79099293144", "url": "/info/%EC%9B%90%EA%B3%A1365%EC%95%BD%EA%B5%AD-%EA%B2%BD%EA%B8%B0%EB%8F%84-%EC%95%88%EC%82%B0%EC%8B%9C-%EC%9B%90%EA%B3%A1%EB%8F%99/", "workingTime": ["-", "09:00~21:00", "09:00~21:00", "09:00~21:00", "09:00~21:00", "09:00~21:00", "-", "-"]}, {"name": "\ub3c4\uc6d0\uc57d\uad6d", "lat": "37.33095242846988", "lng": "126.79300523383864", "url": "/info/%EB%8F%84%EC%9B%90%EC%95%BD%EA%B5%AD-%EA%B2%BD%EA%B8%B0%EB%8F%84-%EC%95%88%EC%82%B0%EC%8B%9C-%EC%9B%90%EA%B3%A1%EB%8F%99/", "workingTime": ["09:30~22:00(\uc5f0\ub77d\ud6c4\ubc29\ubb38\uc694\ub9dd)", "09:30~22:00", "09:30~22:00", "09:30~22:00", "09:30~22:00", "09:30~22:00", "09:30~22:00", "-"]}, {"name": "\uc6d0\uace1\ub298\ud478\ub978\uc57d\uad6d", "lat": "37.327536111111108", "lng": "126.800236111111104", "url": "/info/%EC%9B%90%EA%B3%A1%EB%8A%98%ED%91%B8%EB%A5%B8%EC%95%BD%EA%B5%AD-%EA%B2%BD%EA%B8%B0%EB%8F%84-%EC%95%88%EC%82%B0%EC%8B%9C-%EC%9B%90%EA%B3%A1%EB%8F%99/", "workingTime": ["-", "09:00~20:00", "09:00~20:00", "09:00~20:00", "09:00~20:00", "09:00~20:00", "09:00~16:00", "-"]}, {"name": "\uac74\uac15\ud55c\uc57d\uad6d", "lat": "37.3304890011447", "lng": "126.795365297758", "url": "/info/%EA%B1%B4%EA%B0%95%ED%95%9C%EC%95%BD%EA%B5%AD-%EA%B2%BD%EA%B8%B0%EB%8F%84-%EC%95%88%EC%82%B0%EC%8B%9C-%EC%9B%90%EA%B3%A1%EB%8F%99/", "workingTime": ["-", "09:00~18:00", "09:00~18:00", "09:00~18:00", "09:00~18:00", "09:00~18:00", "-", "-"]}, {"name": "\ub77c\uc131\uc57d\uad6d", "lat": "37.32695458670859", "lng": "126.80072241762316", "url": "/info/%EB%9D%BC%EC%84%B1%EC%95%BD%EA%B5%AD-%EA%B2%BD%EA%B8%B0%EB%8F%84-%EC%95%88%EC%82%B0%EC%8B%9C-%EC%9B%90%EA%B3%A1%EB%8F%99/", "workingTime": ["1,2,3,4\uc9f8\uc8fc08:00~21:00", "08:00~21:00", "08:00~21:00", "08:00~21:00", "08:00~21:00", "08:00~21:00", "08:00~21:00", "08:30~21:00"]}, {"name": "\ubc31\uc81c\uc628\ub204\ub9ac\uc57d\uad6d", "lat": "37.32704839996754", "lng": "126.80078535214805", "url": "/info/%EB%B0%B1%EC%A0%9C%EC%98%A8%EB%88%84%EB%A6%AC%EC%95%BD%EA%B5%AD-%EA%B2%BD%EA%B8%B0%EB%8F%84-%EC%95%88%EC%82%B0%EC%8B%9C-%EC%9B%90%EA%B3%A1%EB%8F%99/", "workingTime": ["-", "09:00~22:00", "09:00~22:00", "09:00~22:00", "09:00~22:00", "09:00~22:00", "09:00~21:00", "14:00~21:00"]}, {"name": "\uba85\uc218\ub2f9\uc57d\uad6d", "lat": "37.32916951452534", "lng": "126.80191254304825", "url": "/info/%EB%AA%85%EC%88%98%EB%8B%B9%EC%95%BD%EA%B5%AD-%EA%B2%BD%EA%B8%B0%EB%8F%84-%EC%95%88%EC%82%B0%EC%8B%9C-%EC%9B%90%EA%B3%A1%EB%8F%99/", "workingTime": ["-", "09:00~22:00", "09:00~22:00", "09:00~22:00", "09:00~22:00", "09:00~22:00", "09:00~17:00", "-"]}, {"name": "\ub274\uc138\uacc4\ub85c\uc57d\uad6d", "lat": "37.32801054263724", "lng": "126.79042719472053", "url": "/info/%EB%89%B4%EC%84%B8%EA%B3%84%EB%A1%9C%EC%95%BD%EA%B5%AD-%EA%B2%BD%EA%B8%B0%EB%8F%84-%EC%95%88%EC%82%B0%EC%8B%9C-%EC%9B%90%EA%B3%A1%EB%8F%99/", "workingTime": ["1,2,3,4,5\uc9f8\uc8fc09:00~22:00", "09:00~22:00", "09:00~22:00", "09:00~22:00", "09:00~22:00", "09:00~22:00", "09:00~22:00", "09:00~22:00"]}, {"name": "\uc720\ud55c\uc57d\uad6d", "lat": "37.328725690939095", "lng": "126.79738241097795", "url": "/info/%EC%9C%A0%ED%95%9C%EC%95%BD%EA%B5%AD-%EA%B2%BD%EA%B8%B0%EB%8F%84-%EC%95%88%EC%82%B0%EC%8B%9C-%EC%9B%90%EA%B3%A1%EB%8F%99/", "workingTime": ["1,2,3,4,5\uc9f8\uc8fc09:00~15:00", "09:00~20:00", "09:00~20:00", "09:00~20:00", "09:00~20:00", "09:00~20:00", "09:00~15:00", "09:00~15:00"]}, {"name": "\uc218\uc815\uc57d\uad6d", "lat": "37.328427777777776", "lng": "126.801744444444438", "url": "/info/%EC%88%98%EC%A0%95%EC%95%BD%EA%B5%AD-%EA%B2%BD%EA%B8%B0%EB%8F%84-%EC%95%88%EC%82%B0%EC%8B%9C-%EC%9B%90%EA%B3%A1%EB%8F%99/", "workingTime": ["-", "09:00~14:00", "09:00~14:00", "09:00~14:00", "09:00~14:00", "09:00~14:00", "09:00~14:00", "-"]}, {"name": "\uacc4\ub9bc\uc57d\uad6d", "lat": "37.33048422636523", "lng": "126.79319608090651", "url": "/info/%EA%B3%84%EB%A6%BC%EC%95%BD%EA%B5%AD-%EA%B2%BD%EA%B8%B0%EB%8F%84-%EC%95%88%EC%82%B0%EC%8B%9C-%EC%9B%90%EA%B3%A1%EB%8F%99/", "workingTime": ["1,2,3,4,5\uc9f8\uc8fc14:00~22:30", "10:00~22:00", "10:00~22:00", "10:00~22:00", "10:00~22:00", "10:00~22:00", "10:00~22:00", "10:00~22:00"]}, {"name": "\ub0a8\uc0ac\ub791\uc57d\uad6d", "lat": "37.32961787820779", "lng": "126.79029410702555", "url": "/info/%EB%82%A8%EC%82%AC%EB%9E%91%EC%95%BD%EA%B5%AD-%EA%B2%BD%EA%B8%B0%EB%8F%84-%EC%95%88%EC%82%B0%EC%8B%9C-%EC%9B%90%EA%B3%A1%EB%8F%99/", "workingTime": ["1,2,3,4,5\uc9f8\uc8fc09:00~21:30", "09:00~21:30", "09:00~21:30", "09:00~21:30", "09:00~21:30", "09:00~21:30", "09:00~21:30", "-"]}, {"name": "\uc2e0\ud0dc\ud3c9\uc591\uc57d\uad6d", "lat": "37.327339249221104", "lng": "126.80014822150844", "url": "/info/%EC%8B%A0%ED%83%9C%ED%8F%89%EC%96%91%EC%95%BD%EA%B5%AD-%EA%B2%BD%EA%B8%B0%EB%8F%84-%EC%95%88%EC%82%B0%EC%8B%9C-%EC%9B%90%EA%B3%A1%EB%8F%99/", "workingTime": ["1,2,3,4,5\uc9f8\uc8fc09:00~22:00", "09:00~22:00", "09:00~22:00", "09:00~22:00", "09:00~22:00", "09:00~22:00", "09:00~22:00", "09:00~22:00"]}, {"name": "\uc548\uc0b0\ubc31\uc81c\uc57d\uad6d", "lat": "37.32912032644445", "lng": "126.79804147499054", "url": "/info/%EC%95%88%EC%82%B0%EB%B0%B1%EC%A0%9C%EC%95%BD%EA%B5%AD-%EA%B2%BD%EA%B8%B0%EB%8F%84-%EC%95%88%EC%82%B0%EC%8B%9C-%EC%9B%90%EA%B3%A1%EB%8F%99/", "workingTime": ["-", "09:00~20:00", "09:00~20:00", "09:00~20:00", "09:00~20:00", "09:00~20:00", "09:00~19:00", "-"]}, {"name": "\uc6d0\uace1\uc6b0\ub9ac\ub4e4\uc57d\uad6d", "lat": "37.33092982527611", "lng": "126.79647377111736", "url": "/info/%EC%9B%90%EA%B3%A1%EC%9A%B0%EB%A6%AC%EB%93%A4%EC%95%BD%EA%B5%AD-%EA%B2%BD%EA%B8%B0%EB%8F%84-%EC%95%88%EC%82%B0%EC%8B%9C-%EC%9B%90%EA%B3%A1%EB%8F%99/", "workingTime": ["-", "09:00~18:00", "09:00~18:00", "09:00~18:00", "09:00~18:00", "09:00~18:00", "-", "-"]}, {"name": "\uc81c\uc77c\uc57d\uad6d", "lat": "37.32718126825324", "lng": "126.80050066959964", "url": "/info/%EC%A0%9C%EC%9D%BC%EC%95%BD%EA%B5%AD-%EA%B2%BD%EA%B8%B0%EB%8F%84-%EC%95%88%EC%82%B0%EC%8B%9C-%EC%9B%90%EA%B3%A1%EB%8F%99/", "workingTime": ["-", "09:00~13:00", "09:00~13:00", "09:00~13:00", "09:00~13:00", "09:00~13:00", "09:00~13:00", "-"]}, {"name": "\uc724\uc57d\uad6d", "lat": "37.327371732009055", "lng": "126.80017521386392", "url": "/info/%EC%9C%A4%EC%95%BD%EA%B5%AD-%EA%B2%BD%EA%B8%B0%EB%8F%84-%EC%95%88%EC%82%B0%EC%8B%9C-%EC%9B%90%EA%B3%A1%EB%8F%99/", "workingTime": ["-", "09:00~19:30", "09:00~19:30", "09:00~19:30", "09:00~19:30", "09:00~19:30", "09:00~14:00", "-"]}, {"name": "\ud5c8\ube0c\uc57d\uad6d", "lat": "37.3253223289", "lng": "126.7886610183", "url": "/info/%ED%97%88%EB%B8%8C%EC%95%BD%EA%B5%AD-%EA%B2%BD%EA%B8%B0%EB%8F%84-%EC%95%88%EC%82%B0%EC%8B%9C-%EC%9B%90%EA%B3%A1%EB%8F%99/", "workingTime": ["-", "08:00~20:00", "08:00~20:00", "08:00~20:00", "08:00~20:00", "08:00~20:00", "09:00~17:00", "09:00~17:00"]}, {"name": "\uc6d0\uace1\ud587\uc0b4\uc57d\uad6d", "lat": "37.32840119721739", "lng": "126.80170025641587", "url": "/info/%EC%9B%90%EA%B3%A1%ED%96%87%EC%82%B4%EC%95%BD%EA%B5%AD-%EA%B2%BD%EA%B8%B0%EB%8F%84-%EC%95%88%EC%82%B0%EC%8B%9C-%EC%9B%90%EA%B3%A1%EB%8F%99/", "workingTime": ["1,2,3,4,5\uc9f8\uc8fc09:00~13:00", "09:00~19:00", "09:00~19:00", "09:00~19:00", "09:00~19:00", "09:00~19:00", "09:00~16:00", "-"]}, {"name": "\uc6d0\uace1\uba54\ub514\uce7c\uc57d\uad6d", "lat": "37.33188731062559", "lng": "126.79371796963099", "url": "/info/%EC%9B%90%EA%B3%A1%EB%A9%94%EB%94%94%EC%B9%BC%EC%95%BD%EA%B5%AD-%EA%B2%BD%EA%B8%B0%EB%8F%84-%EC%95%88%EC%82%B0%EC%8B%9C-%EC%9B%90%EA%B3%A1%EB%8F%99/", "workingTime": ["09:00~22:00(\uc5f0\ub77d\ud6c4\ubc29\ubb38\uc694\ub9dd)", "09:00~22:00", "09:00~22:00", "09:00~22:00", "09:00~22:00", "09:00~22:00", "09:00~22:00", "-"]}, {"name": "\ub300\uc131\uc57d\uad6d", "lat": "37.331884012875626", "lng": "126.7960718426346", "url": "/info/%EB%8C%80%EC%84%B1%EC%95%BD%EA%B5%AD-%EA%B2%BD%EA%B8%B0%EB%8F%84-%EC%95%88%EC%82%B0%EC%8B%9C-%EC%9B%90%EA%B3%A1%EB%8F%99/", "workingTime": ["09:00~17:00(\uc5f0\ub77d\ud6c4\ubc29\ubb38\uc694\ub9dd)", "09:00~13:00", "09:00~13:00", "09:00~13:00", "09:00~13:00", "09:00~13:00", "09:00~17:00", "-"]}, {"name": "\uc6f0\ube59\uc57d\uad6d", "lat": "37.328213888888889", "lng": "126.789900000000003", "url": "/info/%EC%9B%B0%EB%B9%99%EC%95%BD%EA%B5%AD-%EA%B2%BD%EA%B8%B0%EB%8F%84-%EC%95%88%EC%82%B0%EC%8B%9C-%EC%9B%90%EA%B3%A1%EB%8F%99/", "workingTime": ["12:00~22:00(\uc5f0\ub77d\ud6c4\ubc29\ubb38\uc694\ub9dd)", "09:00~22:00", "09:00~22:00", "09:00~22:00", "09:00~22:00", "09:00~22:00", "09:00~22:00", "-"]}]