[{"name": "\uc81c\uc77c\uc57d\uad6d", "lat": "37.23540264700557", "lng": "127.20707586427059", "url": "/info/%EC%A0%9C%EC%9D%BC%EC%95%BD%EA%B5%AD-%EA%B2%BD%EA%B8%B0%EB%8F%84-%EC%9A%A9%EC%9D%B8%EC%8B%9C-%EA%B9%80%EB%9F%89%EC%9E%A5%EB%8F%99/", "workingTime": ["-", "08:00~19:00", "08:00~19:00", "08:00~19:00", "08:00~19:00", "08:00~19:00", "08:00~16:00", "-"]}, {"name": "\uc6a9\uc778\uc13c\ud0c0\uc57d\uad6d", "lat": "37.23702127374489", "lng": "127.20892849594765", "url": "/info/%EC%9A%A9%EC%9D%B8%EC%84%BC%ED%83%80%EC%95%BD%EA%B5%AD-%EA%B2%BD%EA%B8%B0%EB%8F%84-%EC%9A%A9%EC%9D%B8%EC%8B%9C-%EA%B9%80%EB%9F%89%EC%9E%A5%EB%8F%99/", "workingTime": ["-", "07:00~19:30", "07:00~19:30", "07:00~19:30", "07:00~19:30", "07:00~19:30", "07:00~16:00", "-"]}, {"name": "\uc815\ubb38\uc57d\uad6d", "lat": "37.23125069638219", "lng": "127.21112123384746", "url": "/info/%EC%A0%95%EB%AC%B8%EC%95%BD%EA%B5%AD-%EA%B2%BD%EA%B8%B0%EB%8F%84-%EC%9A%A9%EC%9D%B8%EC%8B%9C-%EA%B9%80%EB%9F%89%EC%9E%A5%EB%8F%99/", "workingTime": ["-", "09:00~19:00", "09:00~19:00", "09:00~19:00", "09:00~19:00", "09:00~19:00", "09:00~14:00", "-"]}, {"name": "\uc2dc\ub124\ub9c8\uc57d\uad6d", "lat": "37.2350876868", "lng": "127.2058173345", "url": "/info/%EC%8B%9C%EB%84%A4%EB%A7%88%EC%95%BD%EA%B5%AD-%EA%B2%BD%EA%B8%B0%EB%8F%84-%EC%9A%A9%EC%9D%B8%EC%8B%9C-%EA%B9%80%EB%9F%89%EC%9E%A5%EB%8F%99/", "workingTime": ["-", "09:00~19:00", "09:00~21:00", "09:00~19:00", "09:00~19:00", "09:00~21:00", "-", "10:00~13:00"]}, {"name": "\uc6b0\ub9ac\uc815\uac10\uc57d\uad6d", "lat": "37.2352272506744", "lng": "127.203789921058", "url": "/info/%EC%9A%B0%EB%A6%AC%EC%A0%95%EA%B0%90%EC%95%BD%EA%B5%AD-%EA%B2%BD%EA%B8%B0%EB%8F%84-%EC%9A%A9%EC%9D%B8%EC%8B%9C-%EA%B9%80%EB%9F%89%EC%9E%A5%EB%8F%99/", "workingTime": ["-", "09:00~18:00", "09:00~18:00", "09:00~18:00", "09:00~18:00", "09:00~18:00", "09:00~13:00", "-"]}, {"name": "\ub2e4\uc815\uc57d\uad6d", "lat": "37.2339005208194", "lng": "127.209284305953", "url": "/info/%EB%8B%A4%EC%A0%95%EC%95%BD%EA%B5%AD-%EA%B2%BD%EA%B8%B0%EB%8F%84-%EC%9A%A9%EC%9D%B8%EC%8B%9C-%EA%B9%80%EB%9F%89%EC%9E%A5%EB%8F%99/", "workingTime": ["-", "09:00~18:00", "09:00~18:00", "09:00~18:00", "09:00~18:00", "09:00~18:00", "-", "-"]}, {"name": "\uc911\uc559\uc57d\uad6d", "lat": "37.2356678678405", "lng": "127.200779489159", "url": "/info/%EC%A4%91%EC%95%99%EC%95%BD%EA%B5%AD-%EA%B2%BD%EA%B8%B0%EB%8F%84-%EC%9A%A9%EC%9D%B8%EC%8B%9C-%EA%B9%80%EB%9F%89%EC%9E%A5%EB%8F%99/", "workingTime": ["-", "08:30~20:30", "08:30~20:30", "08:30~20:30", "08:30~20:30", "08:30~20:30", "08:30~15:00", "-"]}, {"name": "\uc6a9\uc7781\ubc88\uc57d\uad6d", "lat": "37.2358200198265", "lng": "127.201277547652", "url": "/info/%EC%9A%A9%EC%9D%B81%EB%B2%88%EC%95%BD%EA%B5%AD-%EA%B2%BD%EA%B8%B0%EB%8F%84-%EC%9A%A9%EC%9D%B8%EC%8B%9C-%EA%B9%80%EB%9F%89%EC%9E%A5%EB%8F%99/", "workingTime": ["-", "08:30~18:00", "08:30~18:00", "08:30~18:00", "08:30~18:00", "08:30~18:00", "08:30~13:00", "-"]}, {"name": "\uc0c8\uc2f9\uc57d\uad6d", "lat": "37.2353532756", "lng": "127.2085181785", "url": "/info/%EC%83%88%EC%8B%B9%EC%95%BD%EA%B5%AD-%EA%B2%BD%EA%B8%B0%EB%8F%84-%EC%9A%A9%EC%9D%B8%EC%8B%9C-%EA%B9%80%EB%9F%89%EC%9E%A5%EB%8F%99/", "workingTime": ["-", "08:30~19:00", "08:30~19:00", "08:30~19:00", "08:30~19:00", "08:30~19:00", "08:30~16:00", "-"]}, {"name": "\uba85\uc778\uc57d\uad6d", "lat": "37.235478653698436", "lng": "127.20740851677755", "url": "/info/%EB%AA%85%EC%9D%B8%EC%95%BD%EA%B5%AD-%EA%B2%BD%EA%B8%B0%EB%8F%84-%EC%9A%A9%EC%9D%B8%EC%8B%9C-%EA%B9%80%EB%9F%89%EC%9E%A5%EB%8F%99/", "workingTime": ["-", "09:00~19:00", "09:00~19:00", "09:00~19:00", "09:00~19:00", "09:00~19:00", "09:00~16:00", "10:00~13:00"]}, {"name": "\ubb38\uc628\ub204\ub9ac\uc57d\uad6d", "lat": "37.2356915980016", "lng": "127.200972708612", "url": "/info/%EB%AC%B8%EC%98%A8%EB%88%84%EB%A6%AC%EC%95%BD%EA%B5%AD-%EA%B2%BD%EA%B8%B0%EB%8F%84-%EC%9A%A9%EC%9D%B8%EC%8B%9C-%EA%B9%80%EB%9F%89%EC%9E%A5%EB%8F%99/", "workingTime": ["-", "09:00~18:00", "09:00~18:00", "09:00~18:00", "09:00~18:00", "09:00~18:00", "09:00~15:00", "-"]}, {"name": "\ud2bc\ud2bc\uc57d\uad6d", "lat": "37.2357756632941", "lng": "127.208069694623", "url": "/info/%ED%8A%BC%ED%8A%BC%EC%95%BD%EA%B5%AD-%EA%B2%BD%EA%B8%B0%EB%8F%84-%EC%9A%A9%EC%9D%B8%EC%8B%9C-%EA%B9%80%EB%9F%89%EC%9E%A5%EB%8F%99/", "workingTime": ["-", "09:00~18:00", "09:00~18:00", "09:00~18:00", "09:00~18:00", "09:00~18:00", "09:00~13:00", "-"]}, {"name": "\uc6a9\uc778\uc2e4\ub85c\uc554\uc57d\uad6d", "lat": "37.236671939732545", "lng": "127.1982891357878", "url": "/info/%EC%9A%A9%EC%9D%B8%EC%8B%A4%EB%A1%9C%EC%95%94%EC%95%BD%EA%B5%AD-%EA%B2%BD%EA%B8%B0%EB%8F%84-%EC%9A%A9%EC%9D%B8%EC%8B%9C-%EA%B9%80%EB%9F%89%EC%9E%A5%EB%8F%99/", "workingTime": ["-", "09:00~19:00", "09:00~19:00", "09:00~19:00", "09:00~19:00", "09:00~19:00", "09:00~16:00", "-"]}, {"name": "\uacbd\uae30\uc57d\uad6d", "lat": "37.23586378242202", "lng": "127.19810762476203", "url": "/info/%EA%B2%BD%EA%B8%B0%EC%95%BD%EA%B5%AD-%EA%B2%BD%EA%B8%B0%EB%8F%84-%EC%9A%A9%EC%9D%B8%EC%8B%9C-%EA%B9%80%EB%9F%89%EC%9E%A5%EB%8F%99/", "workingTime": ["-", "08:00~20:00", "08:00~20:00", "08:00~20:00", "08:00~20:00", "08:00~20:00", "-", "-"]}, {"name": "\uc635\ud2f0\ub9c8\ubc31\uac15\uc57d\uad6d", "lat": "37.23469453213162", "lng": "127.20328837778379", "url": "/info/%EC%98%B5%ED%8B%B0%EB%A7%88%EB%B0%B1%EA%B0%95%EC%95%BD%EA%B5%AD-%EA%B2%BD%EA%B8%B0%EB%8F%84-%EC%9A%A9%EC%9D%B8%EC%8B%9C-%EA%B9%80%EB%9F%89%EC%9E%A5%EB%8F%99/", "workingTime": ["-", "08:30~20:00", "08:30~20:00", "08:30~20:00", "08:30~20:00", "08:30~20:00", "08:30~16:00", "09:00~13:00"]}, {"name": "\uc6a9\uad11\uc57d\uad6d", "lat": "37.234526517128984", "lng": "127.20930476307714", "url": "/info/%EC%9A%A9%EA%B4%91%EC%95%BD%EA%B5%AD-%EA%B2%BD%EA%B8%B0%EB%8F%84-%EC%9A%A9%EC%9D%B8%EC%8B%9C-%EA%B9%80%EB%9F%89%EC%9E%A5%EB%8F%99/", "workingTime": ["-", "09:00~19:00", "09:00~19:00", "09:00~19:00", "09:00~19:00", "09:00~19:00", "-", "-"]}, {"name": "\uc120\ud55c\uc57d\uad6d", "lat": "37.234723851073", "lng": "127.199762307092", "url": "/info/%EC%84%A0%ED%95%9C%EC%95%BD%EA%B5%AD-%EA%B2%BD%EA%B8%B0%EB%8F%84-%EC%9A%A9%EC%9D%B8%EC%8B%9C-%EA%B9%80%EB%9F%89%EC%9E%A5%EB%8F%99/", "workingTime": ["-", "10:00~18:00", "10:00~18:00", "10:00~18:00", "10:00~18:00", "10:00~18:00", "-", "-"]}, {"name": "\ubbfc\uc57d\uad6d", "lat": "37.234715082778486", "lng": "127.19965527163265", "url": "/info/%EB%AF%BC%EC%95%BD%EA%B5%AD-%EA%B2%BD%EA%B8%B0%EB%8F%84-%EC%9A%A9%EC%9D%B8%EC%8B%9C-%EA%B9%80%EB%9F%89%EC%9E%A5%EB%8F%99/", "workingTime": ["-", "09:00~19:00", "09:00~19:00", "09:00~19:00", "09:00~19:00", "09:00~19:00", "09:00~15:00", "-"]}, {"name": "\uc601\ubbf8\uc57d\uad6d", "lat": "37.2352235156", "lng": "127.2043887601", "url": "/info/%EC%98%81%EB%AF%B8%EC%95%BD%EA%B5%AD-%EA%B2%BD%EA%B8%B0%EB%8F%84-%EC%9A%A9%EC%9D%B8%EC%8B%9C-%EA%B9%80%EB%9F%89%EC%9E%A5%EB%8F%99/", "workingTime": ["-", "09:00~19:00", "09:00~19:00", "09:00~19:00", "09:00~19:00", "09:00~19:00", "09:00~14:00", "09:00~19:00"]}, {"name": "\uc2dc\uc7a5\uc57d\uad6d", "lat": "37.23568451970054", "lng": "127.20664840032704", "url": "/info/%EC%8B%9C%EC%9E%A5%EC%95%BD%EA%B5%AD-%EA%B2%BD%EA%B8%B0%EB%8F%84-%EC%9A%A9%EC%9D%B8%EC%8B%9C-%EA%B9%80%EB%9F%89%EC%9E%A5%EB%8F%99/", "workingTime": ["-", "08:00~10:00", "08:00~10:00", "08:00~10:00", "08:00~10:00", "08:00~10:00", "-", "09:00~21:00"]}, {"name": "\ub2e4\uc778\uc57d\uad6d", "lat": "37.235218034920344", "lng": "127.19480986435701", "url": "/info/%EB%8B%A4%EC%9D%B8%EC%95%BD%EA%B5%AD-%EA%B2%BD%EA%B8%B0%EB%8F%84-%EC%9A%A9%EC%9D%B8%EC%8B%9C-%EA%B9%80%EB%9F%89%EC%9E%A5%EB%8F%99/", "workingTime": ["-", "09:00~20:00", "09:00~20:00", "09:00~20:00", "09:00~20:00", "09:00~20:00", "-", "-"]}, {"name": "\uc628\uc138\uc0c1\uc57d\uad6d", "lat": "37.235239371675", "lng": "127.2092323565941", "url": "/info/%EC%98%A8%EC%84%B8%EC%83%81%EC%95%BD%EA%B5%AD-%EA%B2%BD%EA%B8%B0%EB%8F%84-%EC%9A%A9%EC%9D%B8%EC%8B%9C-%EA%B9%80%EB%9F%89%EC%9E%A5%EB%8F%99/", "workingTime": ["-", "09:00~19:00", "09:00~19:00", "09:00~19:00", "09:00~19:00", "09:00~19:00", "09:00~15:30", "-"]}, {"name": "\ud55c\ube5b\uc57d\uad6d", "lat": "37.23485357657229", "lng": "127.20927496309817", "url": "/info/%ED%95%9C%EB%B9%9B%EC%95%BD%EA%B5%AD-%EA%B2%BD%EA%B8%B0%EB%8F%84-%EC%9A%A9%EC%9D%B8%EC%8B%9C-%EA%B9%80%EB%9F%89%EC%9E%A5%EB%8F%99/", "workingTime": ["-", "09:00~19:00", "09:00~19:00", "09:00~19:00", "09:00~19:00", "09:00~19:00", "09:00~16:00", "-"]}, {"name": "\ubbf8\uc18c\uc57d\uad6d", "lat": "37.235346553243", "lng": "127.20823419378811", "url": "/info/%EB%AF%B8%EC%86%8C%EC%95%BD%EA%B5%AD-%EA%B2%BD%EA%B8%B0%EB%8F%84-%EC%9A%A9%EC%9D%B8%EC%8B%9C-%EA%B9%80%EB%9F%89%EC%9E%A5%EB%8F%99/", "workingTime": ["-", "08:30~19:30", "08:30~19:30", "08:30~19:30", "08:30~19:30", "08:30~19:30", "08:30~15:00", "-"]}, {"name": "\uc6a9\uc778\uc790\ub9e4\uc57d\uad6d", "lat": "37.23435417849787", "lng": "127.19559746681733", "url": "/info/%EC%9A%A9%EC%9D%B8%EC%9E%90%EB%A7%A4%EC%95%BD%EA%B5%AD-%EA%B2%BD%EA%B8%B0%EB%8F%84-%EC%9A%A9%EC%9D%B8%EC%8B%9C-%EA%B9%80%EB%9F%89%EC%9E%A5%EB%8F%99/", "workingTime": ["-", "09:00~20:00", "09:00~20:00", "09:00~20:00", "09:00~20:00", "09:00~20:00", "-", "-"]}, {"name": "\ub354\ud3b8\ud55c\uc57d\uad6d", "lat": "37.234648115178985", "lng": "127.20365245582461", "url": "/info/%EB%8D%94%ED%8E%B8%ED%95%9C%EC%95%BD%EA%B5%AD-%EA%B2%BD%EA%B8%B0%EB%8F%84-%EC%9A%A9%EC%9D%B8%EC%8B%9C-%EA%B9%80%EB%9F%89%EC%9E%A5%EB%8F%99/", "workingTime": ["-", "09:00~20:00", "09:00~20:00", "09:00~20:00", "09:00~20:00", "09:00~20:00", "09:00~16:00", "-"]}, {"name": "\uc774\ud654\uc628\ub204\ub9ac\uc57d\uad6d", "lat": "37.22929972244938", "lng": "127.21175131169541", "url": "/info/%EC%9D%B4%ED%99%94%EC%98%A8%EB%88%84%EB%A6%AC%EC%95%BD%EA%B5%AD-%EA%B2%BD%EA%B8%B0%EB%8F%84-%EC%9A%A9%EC%9D%B8%EC%8B%9C-%EA%B9%80%EB%9F%89%EC%9E%A5%EB%8F%99/", "workingTime": ["-", "09:00~21:00", "09:00~21:00", "09:00~21:00", "09:00~21:00", "09:00~21:00", "09:00~18:00", "10:00~21:00"]}, {"name": "\uc6a9\uc778\ud0dc\ud3c9\uc591\uc57d\uad6d", "lat": "37.231083224150005", "lng": "127.21003897610572", "url": "/info/%EC%9A%A9%EC%9D%B8%ED%83%9C%ED%8F%89%EC%96%91%EC%95%BD%EA%B5%AD-%EA%B2%BD%EA%B8%B0%EB%8F%84-%EC%9A%A9%EC%9D%B8%EC%8B%9C-%EA%B9%80%EB%9F%89%EC%9E%A5%EB%8F%99/", "workingTime": ["-", "09:00~23:00", "09:00~23:00", "09:00~23:00", "09:00~23:00", "09:00~23:00", "-", "-"]}, {"name": "\uc138\uacc4\ub85c\uc57d\uad6d", "lat": "37.23500189200219", "lng": "127.19840740009141", "url": "/info/%EC%84%B8%EA%B3%84%EB%A1%9C%EC%95%BD%EA%B5%AD-%EA%B2%BD%EA%B8%B0%EB%8F%84-%EC%9A%A9%EC%9D%B8%EC%8B%9C-%EA%B9%80%EB%9F%89%EC%9E%A5%EB%8F%99/", "workingTime": ["-", "09:00~21:00", "09:00~21:00", "09:00~21:00", "09:00~21:00", "09:00~21:00", "09:00~21:00", "09:00~18:00"]}, {"name": "\uadf8\ub79c\ub4dc\uc57d\uad6d", "lat": "37.236682282571564", "lng": "127.20430792146726", "url": "/info/%EA%B7%B8%EB%9E%9C%EB%93%9C%EC%95%BD%EA%B5%AD-%EA%B2%BD%EA%B8%B0%EB%8F%84-%EC%9A%A9%EC%9D%B8%EC%8B%9C-%EA%B9%80%EB%9F%89%EC%9E%A5%EB%8F%99/", "workingTime": ["09:00~21:00(\uc5f0\ub77d\ud6c4\ubc29\ubb38\uc694\ub9dd)", "09:00~21:00", "09:00~21:00", "09:00~21:00", "09:00~21:00", "09:00~21:00", "09:00~21:00", "09:00~21:00"]}, {"name": "\uba54\ub514\uc57d\uad6d", "lat": "37.2350494827", "lng": "127.1986409747", "url": "/info/%EB%A9%94%EB%94%94%EC%95%BD%EA%B5%AD-%EA%B2%BD%EA%B8%B0%EB%8F%84-%EC%9A%A9%EC%9D%B8%EC%8B%9C-%EA%B9%80%EB%9F%89%EC%9E%A5%EB%8F%99/", "workingTime": ["-", "09:00~19:30", "09:00~19:30", "09:00~19:30", "09:00~19:30", "09:00~19:30", "09:00~14:30", "-"]}, {"name": "\uc6a9\ud55c\uc57d\uad6d", "lat": "37.235495147092", "lng": "127.20570126124741", "url": "/info/%EC%9A%A9%ED%95%9C%EC%95%BD%EA%B5%AD-%EA%B2%BD%EA%B8%B0%EB%8F%84-%EC%9A%A9%EC%9D%B8%EC%8B%9C-%EA%B9%80%EB%9F%89%EC%9E%A5%EB%8F%99/", "workingTime": ["-", "08:30~20:00", "08:30~20:00", "08:30~20:00", "08:30~20:00", "08:30~20:00", "08:30~20:00", "08:30~20:00"]}]