[{"name": "\uac74\uac15\uc57d\uad6d", "lat": "37.2938955760042", "lng": "127.120751436258", "url": "/info/%EA%B1%B4%EA%B0%95%EC%95%BD%EA%B5%AD-%EA%B2%BD%EA%B8%B0%EB%8F%84-%EC%9A%A9%EC%9D%B8%EC%8B%9C-%EC%96%B8%EB%82%A8%EB%8F%99/", "workingTime": ["-", "10:00~18:00", "10:00~18:00", "10:00~18:00", "10:00~18:00", "10:00~18:00", "-", "-"]}, {"name": "\uc870\uc740\uc57d\uad6d", "lat": "37.29492955368083", "lng": "127.11820481493103", "url": "/info/%EC%A1%B0%EC%9D%80%EC%95%BD%EA%B5%AD-%EA%B2%BD%EA%B8%B0%EB%8F%84-%EC%9A%A9%EC%9D%B8%EC%8B%9C-%EC%96%B8%EB%82%A8%EB%8F%99/", "workingTime": ["-", "09:00~18:00", "09:00~18:00", "09:00~18:00", "09:00~18:00", "09:00~18:00", "09:00~13:00", "-"]}, {"name": "\uc5b8\ub0a8\ud604\ub300\uc0ac\uc57d\uad6d", "lat": "37.2941709392", "lng": "127.1189656554", "url": "/info/%EC%96%B8%EB%82%A8%ED%98%84%EB%8C%80%EC%82%AC%EC%95%BD%EA%B5%AD-%EA%B2%BD%EA%B8%B0%EB%8F%84-%EC%9A%A9%EC%9D%B8%EC%8B%9C-%EC%96%B8%EB%82%A8%EB%8F%99/", "workingTime": ["-", "09:00~20:00", "09:00~20:00", "09:00~20:00", "09:00~20:00", "09:00~20:00", "09:00~16:30", "-"]}, {"name": "\uc140\uba54\ub4dc\uc8fc\uc624\uc57d\uad6d", "lat": "37.293792445886275", "lng": "127.11990341031574", "url": "/info/%EC%85%80%EB%A9%94%EB%93%9C%EC%A3%BC%EC%98%A4%EC%95%BD%EA%B5%AD-%EA%B2%BD%EA%B8%B0%EB%8F%84-%EC%9A%A9%EC%9D%B8%EC%8B%9C-%EC%96%B8%EB%82%A8%EB%8F%99/", "workingTime": ["09:00~22:00(\uc5f0\ub77d\ud6c4\ubc29\ubb38\uc694\ub9dd)", "09:00~22:00", "09:00~22:00", "09:00~22:00", "09:00~22:00", "09:00~22:00", "09:00~22:00", "09:00~22:00"]}, {"name": "\ud55c\ub9c8\ub8e8\uc57d\uad6d", "lat": "37.2934850405222", "lng": "127.120420222827", "url": "/info/%ED%95%9C%EB%A7%88%EB%A3%A8%EC%95%BD%EA%B5%AD-%EA%B2%BD%EA%B8%B0%EB%8F%84-%EC%9A%A9%EC%9D%B8%EC%8B%9C-%EC%96%B8%EB%82%A8%EB%8F%99/", "workingTime": ["-", "09:00~20:00", "09:00~20:00", "09:00~20:00", "09:00~20:00", "09:00~20:00", "-", "-"]}, {"name": "\uae30\ud765\uc11c\uc6b8\uc57d\uad6d", "lat": "37.2933666520894", "lng": "127.121470688063", "url": "/info/%EA%B8%B0%ED%9D%A5%EC%84%9C%EC%9A%B8%EC%95%BD%EA%B5%AD-%EA%B2%BD%EA%B8%B0%EB%8F%84-%EC%9A%A9%EC%9D%B8%EC%8B%9C-%EC%96%B8%EB%82%A8%EB%8F%99/", "workingTime": ["-", "08:30~20:00", "08:30~20:00", "08:30~20:00", "08:30~20:00", "08:30~20:00", "-", "-"]}, {"name": "\uc5b8\ub0a8\uc774\ud654\uc57d\uad6d", "lat": "37.29459620052444", "lng": "127.11999074268661", "url": "/info/%EC%96%B8%EB%82%A8%EC%9D%B4%ED%99%94%EC%95%BD%EA%B5%AD-%EA%B2%BD%EA%B8%B0%EB%8F%84-%EC%9A%A9%EC%9D%B8%EC%8B%9C-%EC%96%B8%EB%82%A8%EB%8F%99/", "workingTime": ["-", "09:00~18:30", "09:00~18:30", "09:00~18:30", "09:00~18:30", "09:00~18:30", "-", "-"]}, {"name": "\ud0c0\uc784\uc57d\uad6d", "lat": "37.294180553207795", "lng": "127.12015212383684", "url": "/info/%ED%83%80%EC%9E%84%EC%95%BD%EA%B5%AD-%EA%B2%BD%EA%B8%B0%EB%8F%84-%EC%9A%A9%EC%9D%B8%EC%8B%9C-%EC%96%B8%EB%82%A8%EB%8F%99/", "workingTime": ["-", "09:00~18:30", "09:00~18:30", "09:00~18:30", "09:00~18:30", "09:00~18:30", "09:00~13:00", "-"]}, {"name": "\ud6a8\uc131\uc628\ub204\ub9ac\uc57d\uad6d", "lat": "37.29311199435674", "lng": "127.12095455970183", "url": "/info/%ED%9A%A8%EC%84%B1%EC%98%A8%EB%88%84%EB%A6%AC%EC%95%BD%EA%B5%AD-%EA%B2%BD%EA%B8%B0%EB%8F%84-%EC%9A%A9%EC%9D%B8%EC%8B%9C-%EC%96%B8%EB%82%A8%EB%8F%99/", "workingTime": ["-", "09:00~21:00", "09:00~21:00", "09:00~21:00", "09:00~21:00", "09:00~21:00", "09:00~18:00", "-"]}, {"name": "\uc5b8\ub0a8\ud504\ub77c\uc790\uc57d\uad6d", "lat": "37.29447380054296", "lng": "127.11985070318448", "url": "/info/%EC%96%B8%EB%82%A8%ED%94%84%EB%9D%BC%EC%9E%90%EC%95%BD%EA%B5%AD-%EA%B2%BD%EA%B8%B0%EB%8F%84-%EC%9A%A9%EC%9D%B8%EC%8B%9C-%EC%96%B8%EB%82%A8%EB%8F%99/", "workingTime": ["-", "09:00~19:00", "09:00~19:00", "09:00~19:00", "09:00~19:00", "09:00~19:00", "09:00~13:00", "-"]}, {"name": "\uad6c\uc131\ud478\ub978\uc57d\uad6d", "lat": "37.293368272", "lng": "127.1214726079", "url": "/info/%EA%B5%AC%EC%84%B1%ED%91%B8%EB%A5%B8%EC%95%BD%EA%B5%AD-%EA%B2%BD%EA%B8%B0%EB%8F%84-%EC%9A%A9%EC%9D%B8%EC%8B%9C-%EC%96%B8%EB%82%A8%EB%8F%99/", "workingTime": ["-", "09:00~21:00", "09:00~21:00", "09:00~21:00", "09:00~21:00", "09:00~21:00", "09:00~17:00", "-"]}]