[{"name": "\uc5f0\uc138\ud55c\uc544\ub984\uc57d\uad6d", "lat": "37.6025671677", "lng": "126.7696423185", "url": "/info/%EC%97%B0%EC%84%B8%ED%95%9C%EC%95%84%EB%A6%84%EC%95%BD%EA%B5%AD-%EA%B2%BD%EA%B8%B0%EB%8F%84-%EA%B9%80%ED%8F%AC%EC%8B%9C-%EA%B3%A0%EC%B4%8C%EC%9D%8D/", "workingTime": ["-", "09:00~18:00", "09:00~18:00", "09:00~18:00", "09:00~18:00", "09:00~18:00", "09:00~13:00", "-"]}, {"name": "\ud5a5\uc0b0\uc6b0\ub9ac\uc57d\uad6d", "lat": "37.6182001350516", "lng": "126.747335319248", "url": "/info/%ED%96%A5%EC%82%B0%EC%9A%B0%EB%A6%AC%EC%95%BD%EA%B5%AD-%EA%B2%BD%EA%B8%B0%EB%8F%84-%EA%B9%80%ED%8F%AC%EC%8B%9C-%EA%B3%A0%EC%B4%8C%EC%9D%8D/", "workingTime": ["-", "09:00~18:00", "09:00~18:00", "09:00~18:00", "09:00~18:00", "09:00~18:00", "09:00~13:00", "-"]}, {"name": "\uace0\ucd0c\uac00\uc744\uc57d\uad6d", "lat": "37.5932156257793", "lng": "126.763900138871", "url": "/info/%EA%B3%A0%EC%B4%8C%EA%B0%80%EC%9D%84%EC%95%BD%EA%B5%AD-%EA%B2%BD%EA%B8%B0%EB%8F%84-%EA%B9%80%ED%8F%AC%EC%8B%9C-%EA%B3%A0%EC%B4%8C%EC%9D%8D/", "workingTime": ["-", "09:00~18:00", "09:00~18:00", "09:00~18:00", "09:00~18:00", "09:00~18:00", "09:00~13:00", "-"]}, {"name": "\uc815\uc6d0\uc57d\uad6d", "lat": "37.5948258734782", "lng": "126.759216615366", "url": "/info/%EC%A0%95%EC%9B%90%EC%95%BD%EA%B5%AD-%EA%B2%BD%EA%B8%B0%EB%8F%84-%EA%B9%80%ED%8F%AC%EC%8B%9C-%EA%B3%A0%EC%B4%8C%EC%9D%8D/", "workingTime": ["-", "09:00~18:00", "09:00~18:00", "09:00~18:00", "09:00~18:00", "09:00~18:00", "-", "-"]}, {"name": "\uac10\uc0ac\uc57d\uad6d", "lat": "37.60042304394895", "lng": "126.7716147969697", "url": "/info/%EA%B0%90%EC%82%AC%EC%95%BD%EA%B5%AD-%EA%B2%BD%EA%B8%B0%EB%8F%84-%EA%B9%80%ED%8F%AC%EC%8B%9C-%EA%B3%A0%EC%B4%8C%EC%9D%8D/", "workingTime": ["-", "09:00~20:30", "09:00~20:30", "09:00~20:30", "09:00~20:30", "09:00~20:30", "09:00~20:30", "09:00~20:30"]}, {"name": "\uba54\ub514\ud31c\uc6b0\ub9ac\uc57d\uad6d", "lat": "37.60126651903932", "lng": "126.769836576228", "url": "/info/%EB%A9%94%EB%94%94%ED%8C%9C%EC%9A%B0%EB%A6%AC%EC%95%BD%EA%B5%AD-%EA%B2%BD%EA%B8%B0%EB%8F%84-%EA%B9%80%ED%8F%AC%EC%8B%9C-%EA%B3%A0%EC%B4%8C%EC%9D%8D/", "workingTime": ["-", "09:00~18:00", "09:00~18:00", "09:00~18:00", "09:00~18:00", "09:00~18:00", "-", "-"]}, {"name": "\uace0\ucd0c\uba54\ub514\uceec\uc13c\ud0c0\uc57d\uad6d", "lat": "37.5934718192772", "lng": "126.763606062054", "url": "/info/%EA%B3%A0%EC%B4%8C%EB%A9%94%EB%94%94%EC%BB%AC%EC%84%BC%ED%83%80%EC%95%BD%EA%B5%AD-%EA%B2%BD%EA%B8%B0%EB%8F%84-%EA%B9%80%ED%8F%AC%EC%8B%9C-%EA%B3%A0%EC%B4%8C%EC%9D%8D/", "workingTime": ["-", "09:00~18:00", "09:00~18:00", "09:00~18:00", "09:00~18:00", "09:00~18:00", "-", "-"]}, {"name": "\uc6b0\ub9ac\uc57d\uad6d", "lat": "37.6013693331852", "lng": "126.77081467598958", "url": "/info/%EC%9A%B0%EB%A6%AC%EC%95%BD%EA%B5%AD-%EA%B2%BD%EA%B8%B0%EB%8F%84-%EA%B9%80%ED%8F%AC%EC%8B%9C-%EA%B3%A0%EC%B4%8C%EC%9D%8D/", "workingTime": ["-", "09:00~18:00", "09:00~18:00", "09:00~18:00", "09:00~18:00", "09:00~18:00", "-", "-"]}, {"name": "\uae08\uc57d\uad6d", "lat": "37.6027152382", "lng": "126.7698004045", "url": "/info/%EA%B8%88%EC%95%BD%EA%B5%AD-%EA%B2%BD%EA%B8%B0%EB%8F%84-%EA%B9%80%ED%8F%AC%EC%8B%9C-%EA%B3%A0%EC%B4%8C%EC%9D%8D/", "workingTime": ["-", "09:00~19:00", "09:00~19:00", "09:00~19:00", "09:00~19:00", "09:00~19:00", "-", "-"]}, {"name": "\uace0\ucd0c\uc57d\uad6d", "lat": "37.602388911537055", "lng": "126.76998862722348", "url": "/info/%EA%B3%A0%EC%B4%8C%EC%95%BD%EA%B5%AD-%EA%B2%BD%EA%B8%B0%EB%8F%84-%EA%B9%80%ED%8F%AC%EC%8B%9C-%EA%B3%A0%EC%B4%8C%EC%9D%8D/", "workingTime": ["-", "09:00~21:00", "09:00~21:00", "09:00~21:00", "09:00~21:00", "09:00~21:00", "09:00~20:00", "-"]}, {"name": "\uc815\ub2e4\uc6b4\uc57d\uad6d", "lat": "37.60159004301299", "lng": "126.77060260992462", "url": "/info/%EC%A0%95%EB%8B%A4%EC%9A%B4%EC%95%BD%EA%B5%AD-%EA%B2%BD%EA%B8%B0%EB%8F%84-%EA%B9%80%ED%8F%AC%EC%8B%9C-%EA%B3%A0%EC%B4%8C%EC%9D%8D/", "workingTime": ["-", "09:00~19:30", "09:00~19:30", "09:00~19:30", "09:00~19:30", "09:00~19:30", "09:00~15:30", "-"]}, {"name": "\ud478\ub978\uc628\ub204\ub9ac\uc57d\uad6d", "lat": "37.596506075644605", "lng": "126.76753834640972", "url": "/info/%ED%91%B8%EB%A5%B8%EC%98%A8%EB%88%84%EB%A6%AC%EC%95%BD%EA%B5%AD-%EA%B2%BD%EA%B8%B0%EB%8F%84-%EA%B9%80%ED%8F%AC%EC%8B%9C-%EA%B3%A0%EC%B4%8C%EC%9D%8D/", "workingTime": ["-", "09:00~21:00", "09:00~21:00", "09:00~21:00", "09:00~21:00", "09:00~21:00", "-", "-"]}, {"name": "\ud654\ud3c9\uc57d\uad6d", "lat": "37.600251446287665", "lng": "126.76771305893103", "url": "/info/%ED%99%94%ED%8F%89%EC%95%BD%EA%B5%AD-%EA%B2%BD%EA%B8%B0%EB%8F%84-%EA%B9%80%ED%8F%AC%EC%8B%9C-%EA%B3%A0%EC%B4%8C%EC%9D%8D/", "workingTime": ["09:00~13:00(\uc5f0\ub77d\ud6c4\ubc29\ubb38\uc694\ub9dd)", "09:00~19:00", "09:00~19:00", "09:00~19:00", "09:00~19:00", "09:00~19:00", "09:00~16:00", "09:00~13:00"]}, {"name": "\uac00\ub78c\uc57d\uad6d", "lat": "37.6000436217", "lng": "126.7710950498", "url": "/info/%EA%B0%80%EB%9E%8C%EC%95%BD%EA%B5%AD-%EA%B2%BD%EA%B8%B0%EB%8F%84-%EA%B9%80%ED%8F%AC%EC%8B%9C-%EA%B3%A0%EC%B4%8C%EC%9D%8D/", "workingTime": ["-", "09:00~21:00", "09:00~21:00", "09:00~19:00", "09:00~21:00", "09:00~21:00", "-", "-"]}]