[{"name": "\ub9d1\uc740\uc57d\uad6d", "lat": "37.5029701790983", "lng": "126.772492937412", "url": "/info/%EB%A7%91%EC%9D%80%EC%95%BD%EA%B5%AD-%EA%B2%BD%EA%B8%B0%EB%8F%84-%EB%B6%80%EC%B2%9C%EC%8B%9C-%EC%A4%91%EB%8F%99/", "workingTime": ["-", "09:00~18:00", "09:00~18:00", "09:00~18:00", "09:00~18:00", "09:00~18:00", "09:00~13:00", "-"]}, {"name": "\uc2dc\ubbfc\uc628\ub204\ub9ac\uc57d\uad6d", "lat": "37.49300234664173", "lng": "126.76416698953278", "url": "/info/%EC%8B%9C%EB%AF%BC%EC%98%A8%EB%88%84%EB%A6%AC%EC%95%BD%EA%B5%AD-%EA%B2%BD%EA%B8%B0%EB%8F%84-%EB%B6%80%EC%B2%9C%EC%8B%9C-%EC%A4%91%EB%8F%99/", "workingTime": ["-", "09:00~22:00", "09:00~22:00", "09:00~22:00", "09:00~22:00", "09:00~22:00", "09:00~19:00", "-"]}, {"name": "\ub85c\uc584\uc57d\uad6d", "lat": "37.50346674473422", "lng": "126.77703933739156", "url": "/info/%EB%A1%9C%EC%96%84%EC%95%BD%EA%B5%AD-%EA%B2%BD%EA%B8%B0%EB%8F%84-%EB%B6%80%EC%B2%9C%EC%8B%9C-%EC%A4%91%EB%8F%99/", "workingTime": ["-", "09:00~19:00", "09:00~19:00", "09:00~19:00", "09:00~19:00", "09:00~19:00", "-", "-"]}, {"name": "\uc911\ub3d9\uba54\ub514\uce7c\uc57d\uad6d", "lat": "37.50410945506686", "lng": "126.77643800722525", "url": "/info/%EC%A4%91%EB%8F%99%EB%A9%94%EB%94%94%EC%B9%BC%EC%95%BD%EA%B5%AD-%EA%B2%BD%EA%B8%B0%EB%8F%84-%EB%B6%80%EC%B2%9C%EC%8B%9C-%EC%A4%91%EB%8F%99/", "workingTime": ["-", "09:00~21:00", "09:00~21:00", "09:00~21:00", "09:00~21:00", "09:00~21:00", "09:00~21:00", "09:00~13:00"]}, {"name": "\uc13c\uc2a4\uc57d\uad6d", "lat": "37.5019009826922", "lng": "126.775994803749", "url": "/info/%EC%84%BC%EC%8A%A4%EC%95%BD%EA%B5%AD-%EA%B2%BD%EA%B8%B0%EB%8F%84-%EB%B6%80%EC%B2%9C%EC%8B%9C-%EC%A4%91%EB%8F%99/", "workingTime": ["-", "09:00~18:00", "09:00~18:00", "09:00~18:00", "09:00~18:00", "09:00~18:00", "-", "-"]}, {"name": "\uc774\uac15\uc57d\uad6d", "lat": "37.502992718722", "lng": "126.762520362737", "url": "/info/%EC%9D%B4%EA%B0%95%EC%95%BD%EA%B5%AD-%EA%B2%BD%EA%B8%B0%EB%8F%84-%EB%B6%80%EC%B2%9C%EC%8B%9C-%EC%A4%91%EB%8F%99/", "workingTime": ["-", "10:00~22:00", "10:00~22:00", "10:00~22:00", "10:00~22:00", "10:00~22:00", "-", "-"]}, {"name": "\uc6b0\ub9ac\uc88b\uc740\uc57d\uad6d", "lat": "37.5029057564875", "lng": "126.77319533212", "url": "/info/%EC%9A%B0%EB%A6%AC%EC%A2%8B%EC%9D%80%EC%95%BD%EA%B5%AD-%EA%B2%BD%EA%B8%B0%EB%8F%84-%EB%B6%80%EC%B2%9C%EC%8B%9C-%EC%A4%91%EB%8F%99/", "workingTime": ["-", "08:30~20:00", "08:30~20:00", "08:30~18:00", "08:30~18:00", "08:30~20:00", "08:30~13:00", "-"]}, {"name": "\ud790\uc2a4\uc6b0\ub9ac\uc57d\uad6d", "lat": "37.5032053014414", "lng": "126.768162751102", "url": "/info/%ED%9E%90%EC%8A%A4%EC%9A%B0%EB%A6%AC%EC%95%BD%EA%B5%AD-%EA%B2%BD%EA%B8%B0%EB%8F%84-%EB%B6%80%EC%B2%9C%EC%8B%9C-%EC%A4%91%EB%8F%99/", "workingTime": ["-", "09:00~18:00", "09:00~18:00", "09:00~18:00", "09:00~18:00", "09:00~18:00", "09:00~13:00", "-"]}, {"name": "\uc13c\ud2b8\ub7f4\uc2dc\ud2f0\uc57d\uad6d", "lat": "37.5053136620333", "lng": "126.76263413838", "url": "/info/%EC%84%BC%ED%8A%B8%EB%9F%B4%EC%8B%9C%ED%8B%B0%EC%95%BD%EA%B5%AD-%EA%B2%BD%EA%B8%B0%EB%8F%84-%EB%B6%80%EC%B2%9C%EC%8B%9C-%EC%A4%91%EB%8F%99/", "workingTime": ["-", "09:00~18:00", "09:00~18:00", "09:00~18:00", "09:00~18:00", "09:00~18:00", "09:00~13:00", "-"]}, {"name": "\uc911\ub3d9\ud574\ub9d1\uc740\uc57d\uad6d", "lat": "37.4972513651822", "lng": "126.76186480373086", "url": "/info/%EC%A4%91%EB%8F%99%ED%95%B4%EB%A7%91%EC%9D%80%EC%95%BD%EA%B5%AD-%EA%B2%BD%EA%B8%B0%EB%8F%84-%EB%B6%80%EC%B2%9C%EC%8B%9C-%EC%A4%91%EB%8F%99/", "workingTime": ["-", "09:00~19:30", "09:00~19:30", "09:00~19:30", "09:00~19:30", "09:00~19:30", "09:00~14:00", "-"]}, {"name": "\ub77c\uc628\uc628\ub204\ub9ac\uc57d\uad6d", "lat": "37.5032053014414", "lng": "126.768162751102", "url": "/info/%EB%9D%BC%EC%98%A8%EC%98%A8%EB%88%84%EB%A6%AC%EC%95%BD%EA%B5%AD-%EA%B2%BD%EA%B8%B0%EB%8F%84-%EB%B6%80%EC%B2%9C%EC%8B%9C-%EC%A4%91%EB%8F%99/", "workingTime": ["1,2,3,4,5\uc9f8\uc8fc11:00~16:00", "09:00~20:00", "09:00~20:00", "09:00~20:00", "09:00~20:00", "09:00~20:00", "09:00~16:00", "11:00~16:00"]}, {"name": "\ud558\ub098\ub85c\uc57d\uad6d", "lat": "37.50285421315", "lng": "126.769284029652", "url": "/info/%ED%95%98%EB%82%98%EB%A1%9C%EC%95%BD%EA%B5%AD-%EA%B2%BD%EA%B8%B0%EB%8F%84-%EB%B6%80%EC%B2%9C%EC%8B%9C-%EC%A4%91%EB%8F%99/", "workingTime": ["-", "09:00~21:00", "09:00~21:00", "09:00~21:00", "09:00~21:00", "09:00~21:00", "09:00~21:00", "09:00~21:00"]}, {"name": "\ud3b8\ud55c\uc6b0\ub9ac\uc57d\uad6d", "lat": "37.5025796581472", "lng": "126.769228101662", "url": "/info/%ED%8E%B8%ED%95%9C%EC%9A%B0%EB%A6%AC%EC%95%BD%EA%B5%AD-%EA%B2%BD%EA%B8%B0%EB%8F%84-%EB%B6%80%EC%B2%9C%EC%8B%9C-%EC%A4%91%EB%8F%99/", "workingTime": ["-", "09:00~18:00", "09:00~18:00", "09:00~18:00", "09:00~18:00", "09:00~18:00", "09:00~13:00", "-"]}, {"name": "\uc704\ube0c\uc57d\uad6d", "lat": "37.501403402615864", "lng": "126.77720942291915", "url": "/info/%EC%9C%84%EB%B8%8C%EC%95%BD%EA%B5%AD-%EA%B2%BD%EA%B8%B0%EB%8F%84-%EB%B6%80%EC%B2%9C%EC%8B%9C-%EC%A4%91%EB%8F%99/", "workingTime": ["-", "09:00~20:00", "09:00~20:00", "09:00~20:00", "09:00~20:00", "09:00~20:00", "-", "-"]}, {"name": "\uace0\uc6b4\ubbf8\uc18c\uc57d\uad6d", "lat": "37.5032272627233", "lng": "126.782211591621", "url": "/info/%EA%B3%A0%EC%9A%B4%EB%AF%B8%EC%86%8C%EC%95%BD%EA%B5%AD-%EA%B2%BD%EA%B8%B0%EB%8F%84-%EB%B6%80%EC%B2%9C%EC%8B%9C-%EC%A4%91%EB%8F%99/", "workingTime": ["-", "09:00~20:30", "09:00~20:30", "09:00~20:30", "09:00~20:30", "09:00~20:30", "09:00~13:30", "-"]}, {"name": "\uac15\ub0a8\uc2dc\uc7a5\uc57d\uad6d", "lat": "37.5049702836082", "lng": "126.78047865439707", "url": "/info/%EA%B0%95%EB%82%A8%EC%8B%9C%EC%9E%A5%EC%95%BD%EA%B5%AD-%EA%B2%BD%EA%B8%B0%EB%8F%84-%EB%B6%80%EC%B2%9C%EC%8B%9C-%EC%A4%91%EB%8F%99/", "workingTime": ["1,2,3,4,5\uc9f8\uc8fc08:00~22:00", "08:00~22:00", "08:00~22:00", "08:00~22:00", "08:00~22:00", "08:00~22:00", "08:00~22:00", "08:00~22:00"]}, {"name": "\ud6a8\uc778\uc57d\uad6d", "lat": "37.50156425702872", "lng": "126.76978912508937", "url": "/info/%ED%9A%A8%EC%9D%B8%EC%95%BD%EA%B5%AD-%EA%B2%BD%EA%B8%B0%EB%8F%84-%EB%B6%80%EC%B2%9C%EC%8B%9C-%EC%A4%91%EB%8F%99/", "workingTime": ["-", "09:00~20:00", "09:00~20:00", "09:00~20:00", "09:00~20:00", "09:00~20:00", "09:00~16:00", "-"]}, {"name": "\ud587\ube5b\uc57d\uad6d", "lat": "37.5015930027132", "lng": "126.776080995052", "url": "/info/%ED%96%87%EB%B9%9B%EC%95%BD%EA%B5%AD-%EA%B2%BD%EA%B8%B0%EB%8F%84-%EB%B6%80%EC%B2%9C%EC%8B%9C-%EC%A4%91%EB%8F%99/", "workingTime": ["-", "09:00~21:00", "09:00~21:00", "09:00~21:00", "09:00~21:00", "09:00~21:00", "09:00~18:00", "-"]}, {"name": "\ub538\uae30\uc57d\uad6d", "lat": "37.5051863485", "lng": "126.7635767542", "url": "/info/%EB%94%B8%EA%B8%B0%EC%95%BD%EA%B5%AD-%EA%B2%BD%EA%B8%B0%EB%8F%84-%EB%B6%80%EC%B2%9C%EC%8B%9C-%EC%A4%91%EB%8F%99/", "workingTime": ["-", "09:00~19:00", "09:00~19:00", "09:00~19:00", "09:00~19:00", "09:00~19:00", "09:00~15:30", "-"]}, {"name": "\uc774\ud654\uadf8\ub9b0\uc57d\uad6d", "lat": "37.4984423848844", "lng": "126.77682820509943", "url": "/info/%EC%9D%B4%ED%99%94%EA%B7%B8%EB%A6%B0%EC%95%BD%EA%B5%AD-%EA%B2%BD%EA%B8%B0%EB%8F%84-%EB%B6%80%EC%B2%9C%EC%8B%9C-%EC%A4%91%EB%8F%99/", "workingTime": ["-", "09:00~20:00", "09:00~20:00", "09:00~20:00", "09:00~20:00", "09:00~20:00", "09:30~16:00", "-"]}, {"name": "\uac00\ub9bc\uc57d\uad6d", "lat": "37.497672310171424", "lng": "126.76814106397876", "url": "/info/%EA%B0%80%EB%A6%BC%EC%95%BD%EA%B5%AD-%EA%B2%BD%EA%B8%B0%EB%8F%84-%EB%B6%80%EC%B2%9C%EC%8B%9C-%EC%A4%91%EB%8F%99/", "workingTime": ["-", "09:00~21:30", "09:00~21:30", "09:00~21:30", "09:00~21:30", "09:00~21:30", "09:00~20:00", "-"]}, {"name": "\uc815\uc57d\uad6d", "lat": "37.500347939577914", "lng": "126.77510684506282", "url": "/info/%EC%A0%95%EC%95%BD%EA%B5%AD-%EA%B2%BD%EA%B8%B0%EB%8F%84-%EB%B6%80%EC%B2%9C%EC%8B%9C-%EC%A4%91%EB%8F%99/", "workingTime": ["-", "09:00~18:30", "09:00~18:30", "09:00~18:30", "09:00~18:30", "09:00~18:30", "09:00~13:00", "-"]}, {"name": "\uc740\uc57d\uad6d", "lat": "37.5161019863", "lng": "126.7704241581", "url": "/info/%EC%9D%80%EC%95%BD%EA%B5%AD-%EA%B2%BD%EA%B8%B0%EB%8F%84-%EB%B6%80%EC%B2%9C%EC%8B%9C-%EC%A4%91%EB%8F%99/", "workingTime": ["-", "09:00~19:00", "09:00~19:00", "09:00~19:00", "09:00~19:00", "09:00~19:00", "-", "-"]}, {"name": "\uc57d\ub300\uc885\ub85c\uc57d\uad6d", "lat": "37.517766985870615", "lng": "126.77040097925206", "url": "/info/%EC%95%BD%EB%8C%80%EC%A2%85%EB%A1%9C%EC%95%BD%EA%B5%AD-%EA%B2%BD%EA%B8%B0%EB%8F%84-%EB%B6%80%EC%B2%9C%EC%8B%9C-%EC%A4%91%EB%8F%99/", "workingTime": ["-", "09:00~22:00", "09:00~22:00", "09:00~22:00", "09:00~22:00", "09:00~22:00", "-", "-"]}, {"name": "\ub2e4\uc6b4\uc57d\uad6d", "lat": "37.48752573151133", "lng": "126.77042120011484", "url": "/info/%EB%8B%A4%EC%9A%B4%EC%95%BD%EA%B5%AD-%EA%B2%BD%EA%B8%B0%EB%8F%84-%EB%B6%80%EC%B2%9C%EC%8B%9C-%EC%A4%91%EB%8F%99/", "workingTime": ["-", "09:00~19:30", "09:00~19:30", "09:00~19:30", "09:00~19:30", "09:00~19:30", "09:00~13:30", "-"]}, {"name": "\uc774\uc548\uc57d\uad6d", "lat": "37.5030683739057", "lng": "126.771411913047", "url": "/info/%EC%9D%B4%EC%95%88%EC%95%BD%EA%B5%AD-%EA%B2%BD%EA%B8%B0%EB%8F%84-%EB%B6%80%EC%B2%9C%EC%8B%9C-%EC%A4%91%EB%8F%99/", "workingTime": ["1,2,3,4,5\uc9f8\uc8fc09:00~22:00", "09:00~22:00", "09:00~22:00", "09:00~22:00", "09:00~22:00", "09:00~22:00", "09:00~22:00", "09:00~22:00"]}, {"name": "\ub098\ub77c\uc57d\uad6d", "lat": "37.5049421853282", "lng": "126.765388769805", "url": "/info/%EB%82%98%EB%9D%BC%EC%95%BD%EA%B5%AD-%EA%B2%BD%EA%B8%B0%EB%8F%84-%EB%B6%80%EC%B2%9C%EC%8B%9C-%EC%A4%91%EB%8F%99/", "workingTime": ["-", "10:00~18:00", "10:00~18:00", "10:00~18:00", "10:00~18:00", "10:00~18:00", "-", "-"]}, {"name": "\ub354\ub098\uc740\uc57d\uad6d", "lat": "37.5047157240626", "lng": "126.767236344123", "url": "/info/%EB%8D%94%EB%82%98%EC%9D%80%EC%95%BD%EA%B5%AD-%EA%B2%BD%EA%B8%B0%EB%8F%84-%EB%B6%80%EC%B2%9C%EC%8B%9C-%EC%A4%91%EB%8F%99/", "workingTime": ["-", "08:30~19:00", "08:30~19:00", "08:30~19:00", "08:30~19:00", "08:30~19:00", "08:30~15:00", "-"]}, {"name": "\ud0dc\uc6d0\uc628\ub204\ub9ac\uc57d\uad6d", "lat": "37.4882085608489", "lng": "126.76485598773489", "url": "/info/%ED%83%9C%EC%9B%90%EC%98%A8%EB%88%84%EB%A6%AC%EC%95%BD%EA%B5%AD-%EA%B2%BD%EA%B8%B0%EB%8F%84-%EB%B6%80%EC%B2%9C%EC%8B%9C-%EC%A4%91%EB%8F%99/", "workingTime": ["-", "09:00~19:00", "09:00~19:00", "09:00~19:00", "09:00~19:00", "09:00~19:00", "09:00~17:00", "-"]}, {"name": "\ud2bc\ud2bc\uc57d\uad6d", "lat": "37.5161894366753", "lng": "126.769895874898", "url": "/info/%ED%8A%BC%ED%8A%BC%EC%95%BD%EA%B5%AD-%EA%B2%BD%EA%B8%B0%EB%8F%84-%EB%B6%80%EC%B2%9C%EC%8B%9C-%EC%A4%91%EB%8F%99/", "workingTime": ["-", "09:00~19:00", "09:00~19:00", "09:00~19:00", "09:00~19:00", "09:00~19:00", "09:00~14:00", "-"]}, {"name": "\ubd80\ucc9c\uc0ac\ub791\uc57d\uad6d", "lat": "37.49746353736682", "lng": "126.76208125422897", "url": "/info/%EB%B6%80%EC%B2%9C%EC%82%AC%EB%9E%91%EC%95%BD%EA%B5%AD-%EA%B2%BD%EA%B8%B0%EB%8F%84-%EB%B6%80%EC%B2%9C%EC%8B%9C-%EC%A4%91%EB%8F%99/", "workingTime": ["-", "09:00~18:30", "09:00~18:30", "09:00~18:30", "09:00~18:30", "09:00~18:30", "-", "-"]}, {"name": "\uc911\ub3d9\ud2bc\ud2bc\uc57d\uad6d", "lat": "37.50854778521316", "lng": "126.7630278067041", "url": "/info/%EC%A4%91%EB%8F%99%ED%8A%BC%ED%8A%BC%EC%95%BD%EA%B5%AD-%EA%B2%BD%EA%B8%B0%EB%8F%84-%EB%B6%80%EC%B2%9C%EC%8B%9C-%EC%A4%91%EB%8F%99/", "workingTime": ["-", "09:00~19:00", "09:00~19:00", "09:00~19:00", "09:00~19:00", "09:00~19:00", "09:00~14:00", "-"]}, {"name": "\uba54\ub514\ud31c\ud3ec\ub3c4\ub9c8\uc744\uc57d\uad6d", "lat": "37.4999266907", "lng": "126.759314041", "url": "/info/%EB%A9%94%EB%94%94%ED%8C%9C%ED%8F%AC%EB%8F%84%EB%A7%88%EC%9D%84%EC%95%BD%EA%B5%AD-%EA%B2%BD%EA%B8%B0%EB%8F%84-%EB%B6%80%EC%B2%9C%EC%8B%9C-%EC%A4%91%EB%8F%99/", "workingTime": ["-", "09:00~21:30", "09:00~21:30", "09:00~21:30", "09:00~21:30", "09:00~21:30", "09:00~21:30", "-"]}, {"name": "\ub300\ud559\uc57d\uad6d", "lat": "37.49738383935459", "lng": "126.76187795331796", "url": "/info/%EB%8C%80%ED%95%99%EC%95%BD%EA%B5%AD-%EA%B2%BD%EA%B8%B0%EB%8F%84-%EB%B6%80%EC%B2%9C%EC%8B%9C-%EC%A4%91%EB%8F%99/", "workingTime": ["-", "09:00~18:20", "09:00~18:20", "09:00~18:20", "09:00~18:20", "09:00~18:20", "09:00~13:00", "-"]}, {"name": "\ud330\ub9ac\uc2a4\uc57d\uad6d", "lat": "37.48861100187178", "lng": "126.76588521462045", "url": "/info/%ED%8C%B0%EB%A6%AC%EC%8A%A4%EC%95%BD%EA%B5%AD-%EA%B2%BD%EA%B8%B0%EB%8F%84-%EB%B6%80%EC%B2%9C%EC%8B%9C-%EC%A4%91%EB%8F%99/", "workingTime": ["-", "09:00~21:00", "09:00~21:00", "09:00~21:00", "09:00~21:00", "09:00~21:00", "09:00~19:00", "-"]}, {"name": "\ub3d9\uacbd\uc57d\uad6d", "lat": "37.51585932401987", "lng": "126.76981411006463", "url": "/info/%EB%8F%99%EA%B2%BD%EC%95%BD%EA%B5%AD-%EA%B2%BD%EA%B8%B0%EB%8F%84-%EB%B6%80%EC%B2%9C%EC%8B%9C-%EC%A4%91%EB%8F%99/", "workingTime": ["-", "09:00~21:00", "09:00~21:00", "09:00~21:00", "09:00~21:00", "09:00~21:00", "09:00~19:00", "-"]}, {"name": "\uc57d\ub300\ud070\uc57d\uad6d", "lat": "37.51638479818402", "lng": "126.77037467315102", "url": "/info/%EC%95%BD%EB%8C%80%ED%81%B0%EC%95%BD%EA%B5%AD-%EA%B2%BD%EA%B8%B0%EB%8F%84-%EB%B6%80%EC%B2%9C%EC%8B%9C-%EC%A4%91%EB%8F%99/", "workingTime": ["-", "09:00~21:00", "09:00~21:00", "09:00~21:00", "09:00~21:00", "09:00~21:00", "09:00~21:00", "09:00~21:00"]}, {"name": "\ud55c\ube5b\uc57d\uad6d", "lat": "37.5172534562511", "lng": "126.76995914019346", "url": "/info/%ED%95%9C%EB%B9%9B%EC%95%BD%EA%B5%AD-%EA%B2%BD%EA%B8%B0%EB%8F%84-%EB%B6%80%EC%B2%9C%EC%8B%9C-%EC%A4%91%EB%8F%99/", "workingTime": ["-", "09:00~21:00", "09:00~21:00", "09:00~21:00", "09:00~21:00", "09:00~21:00", "-", "-"]}, {"name": "\uc0ac\ub791\uc57d\uad6d", "lat": "37.50877770803963", "lng": "126.76994896002324", "url": "/info/%EC%82%AC%EB%9E%91%EC%95%BD%EA%B5%AD-%EA%B2%BD%EA%B8%B0%EB%8F%84-%EB%B6%80%EC%B2%9C%EC%8B%9C-%EC%A4%91%EB%8F%99/", "workingTime": ["-", "09:00~19:00", "09:00~19:00", "09:00~19:00", "09:00~19:00", "09:00~19:00", "09:00~13:00", "-"]}, {"name": "\ud30c\ub791\uc0c8\uc57d\uad6d", "lat": "37.50453299999649", "lng": "126.76898370297546", "url": "/info/%ED%8C%8C%EB%9E%91%EC%83%88%EC%95%BD%EA%B5%AD-%EA%B2%BD%EA%B8%B0%EB%8F%84-%EB%B6%80%EC%B2%9C%EC%8B%9C-%EC%A4%91%EB%8F%99/", "workingTime": ["-", "09:00~21:00", "09:00~21:00", "09:00~21:00", "09:00~21:00", "09:00~21:00", "09:00~17:00", "-"]}, {"name": "\ubd80\ucc9c\ubcf4\ub8e1\uc57d\uad6d", "lat": "37.50500962584942", "lng": "126.77647036255528", "url": "/info/%EB%B6%80%EC%B2%9C%EB%B3%B4%EB%A3%A1%EC%95%BD%EA%B5%AD-%EA%B2%BD%EA%B8%B0%EB%8F%84-%EB%B6%80%EC%B2%9C%EC%8B%9C-%EC%A4%91%EB%8F%99/", "workingTime": ["-", "09:00~20:00", "09:00~18:40", "09:00~18:40", "09:00~20:00", "09:00~18:40", "09:00~15:30", "-"]}, {"name": "\uc911\ub3d9\ub3d9\uc11c\uc57d\uad6d", "lat": "37.49903234110343", "lng": "126.77551112194513", "url": "/info/%EC%A4%91%EB%8F%99%EB%8F%99%EC%84%9C%EC%95%BD%EA%B5%AD-%EA%B2%BD%EA%B8%B0%EB%8F%84-%EB%B6%80%EC%B2%9C%EC%8B%9C-%EC%A4%91%EB%8F%99/", "workingTime": ["-", "10:00~19:00", "10:00~19:00", "10:00~19:00", "10:00~19:00", "10:00~19:00", "-", "-"]}, {"name": "\uc1a1\uc564\ub4dc\uae40\uc57d\uad6d", "lat": "37.504504929692274", "lng": "126.76891253887791", "url": "/info/%EC%86%A1%EC%95%A4%EB%93%9C%EA%B9%80%EC%95%BD%EA%B5%AD-%EA%B2%BD%EA%B8%B0%EB%8F%84-%EB%B6%80%EC%B2%9C%EC%8B%9C-%EC%A4%91%EB%8F%99/", "workingTime": ["-", "09:00~19:00", "09:00~19:00", "09:00~19:00", "09:00~19:00", "09:00~19:00", "09:00~16:00", "-"]}, {"name": "\ud654\uc778\uc57d\uad6d", "lat": "37.49512507643323", "lng": "126.78170515504875", "url": "/info/%ED%99%94%EC%9D%B8%EC%95%BD%EA%B5%AD-%EA%B2%BD%EA%B8%B0%EB%8F%84-%EB%B6%80%EC%B2%9C%EC%8B%9C-%EC%A4%91%EB%8F%99/", "workingTime": ["-", "09:00~18:30", "09:00~18:30", "09:00~18:30", "09:00~18:30", "09:00~18:30", "09:00~12:00", "-"]}, {"name": "\ub85c\uc988\ud31c\uc57d\uad6d", "lat": "37.49485331567927", "lng": "126.77259820940982", "url": "/info/%EB%A1%9C%EC%A6%88%ED%8C%9C%EC%95%BD%EA%B5%AD-%EA%B2%BD%EA%B8%B0%EB%8F%84-%EB%B6%80%EC%B2%9C%EC%8B%9C-%EC%A4%91%EB%8F%99/", "workingTime": ["1,2,3,4,5\uc9f8\uc8fc09:00~13:00", "09:00~19:00", "09:00~19:00", "09:00~19:00", "09:00~19:00", "09:00~19:00", "09:00~17:00", "09:00~13:00"]}, {"name": "\uc911\ub3d921\uc138\uae30\uc57d\uad6d", "lat": "37.50378780329139", "lng": "126.77643781488132", "url": "/info/%EC%A4%91%EB%8F%9921%EC%84%B8%EA%B8%B0%EC%95%BD%EA%B5%AD-%EA%B2%BD%EA%B8%B0%EB%8F%84-%EB%B6%80%EC%B2%9C%EC%8B%9C-%EC%A4%91%EB%8F%99/", "workingTime": ["-", "09:00~21:00", "09:00~21:00", "09:00~21:00", "09:00~21:00", "09:00~21:00", "09:00~17:00", "-"]}, {"name": "\uc911\ub3d9\ud604\ub300\uc57d\uad6d", "lat": "37.503927190452075", "lng": "126.76111072366292", "url": "/info/%EC%A4%91%EB%8F%99%ED%98%84%EB%8C%80%EC%95%BD%EA%B5%AD-%EA%B2%BD%EA%B8%B0%EB%8F%84-%EB%B6%80%EC%B2%9C%EC%8B%9C-%EC%A4%91%EB%8F%99/", "workingTime": ["-", "09:00~20:00", "09:00~20:00", "09:00~20:00", "09:00~20:00", "09:00~20:00", "09:00~18:00", "-"]}, {"name": "\uc790\uc5f0\ub2f4\uc740\ud55c\uc57d\uad6d", "lat": "37.50536763959981", "lng": "126.76232760695194", "url": "/info/%EC%9E%90%EC%97%B0%EB%8B%B4%EC%9D%80%ED%95%9C%EC%95%BD%EA%B5%AD-%EA%B2%BD%EA%B8%B0%EB%8F%84-%EB%B6%80%EC%B2%9C%EC%8B%9C-%EC%A4%91%EB%8F%99/", "workingTime": ["-", "09:00~18:00", "09:00~18:00", "09:00~18:00", "09:00~18:00", "09:00~18:00", "-", "-"]}, {"name": "\ub4dc\ub9bc\uc57d\uad6d", "lat": "37.50485384857877", "lng": "126.76673774483814", "url": "/info/%EB%93%9C%EB%A6%BC%EC%95%BD%EA%B5%AD-%EA%B2%BD%EA%B8%B0%EB%8F%84-%EB%B6%80%EC%B2%9C%EC%8B%9C-%EC%A4%91%EB%8F%99/", "workingTime": ["-", "09:00~19:30", "09:00~19:00", "09:00~19:00", "09:00~19:30", "09:00~19:30", "08:30~14:00", "09:00~17:00"]}, {"name": "\uccad\uc544\uc57d\uad6d", "lat": "37.488722598697684", "lng": "126.7658215440975", "url": "/info/%EC%B2%AD%EC%95%84%EC%95%BD%EA%B5%AD-%EA%B2%BD%EA%B8%B0%EB%8F%84-%EB%B6%80%EC%B2%9C%EC%8B%9C-%EC%A4%91%EB%8F%99/", "workingTime": ["-", "09:00~19:00", "09:00~21:00", "09:00~14:00", "09:00~19:00", "09:00~19:00", "09:00~14:00", "-"]}, {"name": "\uc911\ub3d9\uc11c\uc6b8\uc57d\uad6d", "lat": "37.501528159434336", "lng": "126.76898730655009", "url": "/info/%EC%A4%91%EB%8F%99%EC%84%9C%EC%9A%B8%EC%95%BD%EA%B5%AD-%EA%B2%BD%EA%B8%B0%EB%8F%84-%EB%B6%80%EC%B2%9C%EC%8B%9C-%EC%A4%91%EB%8F%99/", "workingTime": ["-", "09:00~19:00", "09:00~19:00", "09:00~19:00", "09:00~19:00", "09:00~19:00", "-", "-"]}, {"name": "\uc2dc\uccad\uc815\uc57d\uad6d", "lat": "37.504698060983884", "lng": "126.76723811590614", "url": "/info/%EC%8B%9C%EC%B2%AD%EC%A0%95%EC%95%BD%EA%B5%AD-%EA%B2%BD%EA%B8%B0%EB%8F%84-%EB%B6%80%EC%B2%9C%EC%8B%9C-%EC%A4%91%EB%8F%99/", "workingTime": ["-", "09:00~20:00", "09:00~20:00", "09:00~20:00", "09:00~20:00", "09:00~20:00", "09:00~18:00", "-"]}, {"name": "\ud3c9\ud654\uc57d\uad6d", "lat": "37.5011837287", "lng": "126.7716369424", "url": "/info/%ED%8F%89%ED%99%94%EC%95%BD%EA%B5%AD-%EA%B2%BD%EA%B8%B0%EB%8F%84-%EB%B6%80%EC%B2%9C%EC%8B%9C-%EC%A4%91%EB%8F%99/", "workingTime": ["-", "09:00~20:00", "09:00~20:00", "09:00~20:00", "09:00~20:00", "09:00~20:00", "09:00~14:00", "-"]}, {"name": "\uc911\ub3d9\uc6b0\ub9ac\ub4e4\uc57d\uad6d", "lat": "37.496280732865564", "lng": "126.76534181896412", "url": "/info/%EC%A4%91%EB%8F%99%EC%9A%B0%EB%A6%AC%EB%93%A4%EC%95%BD%EA%B5%AD-%EA%B2%BD%EA%B8%B0%EB%8F%84-%EB%B6%80%EC%B2%9C%EC%8B%9C-%EC%A4%91%EB%8F%99/", "workingTime": ["-", "09:00~21:30", "09:00~21:30", "09:00~21:30", "09:00~21:30", "09:00~21:30", "08:30~21:00", "09:00~13:00"]}, {"name": "\uc0d8\ud130\uc57d\uad6d", "lat": "37.51046860687146", "lng": "126.76559484161422", "url": "/info/%EC%83%98%ED%84%B0%EC%95%BD%EA%B5%AD-%EA%B2%BD%EA%B8%B0%EB%8F%84-%EB%B6%80%EC%B2%9C%EC%8B%9C-%EC%A4%91%EB%8F%99/", "workingTime": ["-", "09:00~21:00", "09:00~21:00", "09:00~21:00", "09:00~21:00", "09:00~21:00", "09:00~15:00", "-"]}, {"name": "\uc911\uc559\uc628\ub204\ub9ac\uc57d\uad6d", "lat": "37.5024232313", "lng": "126.7623595387", "url": "/info/%EC%A4%91%EC%95%99%EC%98%A8%EB%88%84%EB%A6%AC%EC%95%BD%EA%B5%AD-%EA%B2%BD%EA%B8%B0%EB%8F%84-%EB%B6%80%EC%B2%9C%EC%8B%9C-%EC%A4%91%EB%8F%99/", "workingTime": ["19:00~23:00(\uc5f0\ub77d\ud6c4\ubc29\ubb38\uc694\ub9dd)", "09:00~23:00", "09:00~23:00", "09:00~23:00", "09:00~23:00", "09:00~23:00", "09:00~23:00", "11:00~23:00"]}, {"name": "\ub098\ubb34\uc544\ub798\ud55c\uc57d\uad6d", "lat": "37.500988454809864", "lng": "126.7731665257926", "url": "/info/%EB%82%98%EB%AC%B4%EC%95%84%EB%9E%98%ED%95%9C%EC%95%BD%EA%B5%AD-%EA%B2%BD%EA%B8%B0%EB%8F%84-%EB%B6%80%EC%B2%9C%EC%8B%9C-%EC%A4%91%EB%8F%99/", "workingTime": ["-", "10:00~19:00", "10:00~19:00", "10:00~19:00", "10:00~19:00", "10:00~19:00", "11:00~16:00", "-"]}, {"name": "\uc2dc\ud2f0\ud504\ub77c\uc790\uc57d\uad6d", "lat": "37.50528602041856", "lng": "126.76296121080878", "url": "/info/%EC%8B%9C%ED%8B%B0%ED%94%84%EB%9D%BC%EC%9E%90%EC%95%BD%EA%B5%AD-%EA%B2%BD%EA%B8%B0%EB%8F%84-%EB%B6%80%EC%B2%9C%EC%8B%9C-%EC%A4%91%EB%8F%99/", "workingTime": ["-", "09:00~19:00", "09:00~19:00", "09:00~19:00", "09:00~19:00", "09:00~19:00", "09:00~13:00", "14:00~17:00"]}, {"name": "\uc911\ub3d9\ud55c\uc6b0\ub9ac\uc57d\uad6d", "lat": "37.5007896112076", "lng": "126.77425621011053", "url": "/info/%EC%A4%91%EB%8F%99%ED%95%9C%EC%9A%B0%EB%A6%AC%EC%95%BD%EA%B5%AD-%EA%B2%BD%EA%B8%B0%EB%8F%84-%EB%B6%80%EC%B2%9C%EC%8B%9C-%EC%A4%91%EB%8F%99/", "workingTime": ["-", "09:00~21:00", "09:00~21:00", "09:00~21:00", "09:00~21:00", "09:00~21:00", "09:00~16:00", "-"]}, {"name": "\ub3d9\uc131\uc57d\uad6d", "lat": "37.49748193980647", "lng": "126.76227117960232", "url": "/info/%EB%8F%99%EC%84%B1%EC%95%BD%EA%B5%AD-%EA%B2%BD%EA%B8%B0%EB%8F%84-%EB%B6%80%EC%B2%9C%EC%8B%9C-%EC%A4%91%EB%8F%99/", "workingTime": ["-", "08:30~19:00", "08:30~19:00", "08:30~19:00", "08:30~19:00", "08:30~19:00", "08:30~17:00", "-"]}, {"name": "\uc790\uc5f0\uc57d\uad6d", "lat": "37.502376315546115", "lng": "126.76233143465946", "url": "/info/%EC%9E%90%EC%97%B0%EC%95%BD%EA%B5%AD-%EA%B2%BD%EA%B8%B0%EB%8F%84-%EB%B6%80%EC%B2%9C%EC%8B%9C-%EC%A4%91%EB%8F%99/", "workingTime": ["-", "09:00~21:00", "09:00~21:00", "09:00~21:00", "09:00~21:00", "09:00~21:00", "-", "09:00~18:00"]}, {"name": "\uae08\ubcf4\uc57d\uad6d", "lat": "37.50083934980855", "lng": "126.77435218742772", "url": "/info/%EA%B8%88%EB%B3%B4%EC%95%BD%EA%B5%AD-%EA%B2%BD%EA%B8%B0%EB%8F%84-%EB%B6%80%EC%B2%9C%EC%8B%9C-%EC%A4%91%EB%8F%99/", "workingTime": ["-", "09:00~20:00", "09:00~20:00", "09:00~20:00", "09:00~20:00", "09:00~20:00", "10:00~15:00", "-"]}, {"name": "\uba54\ub514\uc548\uc57d\uad6d", "lat": "37.494726750476325", "lng": "126.76758482676502", "url": "/info/%EB%A9%94%EB%94%94%EC%95%88%EC%95%BD%EA%B5%AD-%EA%B2%BD%EA%B8%B0%EB%8F%84-%EB%B6%80%EC%B2%9C%EC%8B%9C-%EC%A4%91%EB%8F%99/", "workingTime": ["-", "09:30~20:00", "09:30~20:00", "09:30~20:00", "09:30~20:00", "09:30~20:00", "-", "-"]}, {"name": "\uc131\uc6b4\uc57d\uad6d", "lat": "37.503289988419596", "lng": "126.77810859250614", "url": "/info/%EC%84%B1%EC%9A%B4%EC%95%BD%EA%B5%AD-%EA%B2%BD%EA%B8%B0%EB%8F%84-%EB%B6%80%EC%B2%9C%EC%8B%9C-%EC%A4%91%EB%8F%99/", "workingTime": ["-", "09:00~19:30", "09:00~19:30", "09:00~19:30", "09:00~19:30", "09:00~19:30", "09:00~17:00", "-"]}, {"name": "\uad7f\ubaa8\ub2dd\uc57d\uad6d", "lat": "37.50405546646864", "lng": "126.76396938928454", "url": "/info/%EA%B5%BF%EB%AA%A8%EB%8B%9D%EC%95%BD%EA%B5%AD-%EA%B2%BD%EA%B8%B0%EB%8F%84-%EB%B6%80%EC%B2%9C%EC%8B%9C-%EC%A4%91%EB%8F%99/", "workingTime": ["10:00~23:00(\uc5f0\ub77d\ud6c4\ubc29\ubb38\uc694\ub9dd)", "10:00~23:00", "10:00~23:00", "10:00~23:00", "10:00~23:00", "10:00~23:00", "10:00~23:00", "10:00~23:00"]}, {"name": "\uc911\ub3d9\uc885\ub85c\uc57d\uad6d", "lat": "37.496221099394276", "lng": "126.77618350300841", "url": "/info/%EC%A4%91%EB%8F%99%EC%A2%85%EB%A1%9C%EC%95%BD%EA%B5%AD-%EA%B2%BD%EA%B8%B0%EB%8F%84-%EB%B6%80%EC%B2%9C%EC%8B%9C-%EC%A4%91%EB%8F%99/", "workingTime": ["-", "09:00~22:00", "09:00~22:00", "09:00~22:00", "09:00~22:00", "09:00~22:00", "09:00~21:00", "-"]}, {"name": "\ub85c\ub380\uc57d\uad6d", "lat": "37.50159584582855", "lng": "126.77605983839326", "url": "/info/%EB%A1%9C%EB%8E%80%EC%95%BD%EA%B5%AD-%EA%B2%BD%EA%B8%B0%EB%8F%84-%EB%B6%80%EC%B2%9C%EC%8B%9C-%EC%A4%91%EB%8F%99/", "workingTime": ["-", "09:30~22:00", "09:30~22:00", "09:30~22:00", "09:30~22:00", "09:30~22:00", "09:30~17:00", "-"]}, {"name": "\uc740\ud558\uc57d\uad6d", "lat": "37.505074937092736", "lng": "126.76453966329493", "url": "/info/%EC%9D%80%ED%95%98%EC%95%BD%EA%B5%AD-%EA%B2%BD%EA%B8%B0%EB%8F%84-%EB%B6%80%EC%B2%9C%EC%8B%9C-%EC%A4%91%EB%8F%99/", "workingTime": ["-", "09:00~21:00", "09:00~21:00", "09:00~21:00", "09:00~21:00", "09:00~21:00", "09:00~16:00", "-"]}, {"name": "\uc81c\uc77c\uc885\ud569\uc57d\uad6d", "lat": "37.49667044565263", "lng": "126.7627523633949", "url": "/info/%EC%A0%9C%EC%9D%BC%EC%A2%85%ED%95%A9%EC%95%BD%EA%B5%AD-%EA%B2%BD%EA%B8%B0%EB%8F%84-%EB%B6%80%EC%B2%9C%EC%8B%9C-%EC%A4%91%EB%8F%99/", "workingTime": ["-", "09:30~19:00", "09:30~19:00", "09:30~19:00", "09:30~19:00", "09:30~19:00", "09:30~16:00", "-"]}, {"name": "\ud070\uc57d\uad6d", "lat": "37.48998482969548", "lng": "126.76805643089713", "url": "/info/%ED%81%B0%EC%95%BD%EA%B5%AD-%EA%B2%BD%EA%B8%B0%EB%8F%84-%EB%B6%80%EC%B2%9C%EC%8B%9C-%EC%A4%91%EB%8F%99/", "workingTime": ["-", "09:00~20:00", "09:00~20:00", "09:00~20:00", "09:00~20:00", "09:00~20:00", "09:00~16:00", "-"]}, {"name": "\ud478\ub974\uc9c0\uc624\uc57d\uad6d", "lat": "37.48450637735332", "lng": "126.76424735487734", "url": "/info/%ED%91%B8%EB%A5%B4%EC%A7%80%EC%98%A4%EC%95%BD%EA%B5%AD-%EA%B2%BD%EA%B8%B0%EB%8F%84-%EB%B6%80%EC%B2%9C%EC%8B%9C-%EC%A4%91%EB%8F%99/", "workingTime": ["-", "08:30~21:00", "08:30~21:00", "08:30~21:00", "08:30~21:00", "08:30~21:00", "08:30~20:00", "-"]}, {"name": "\ud604\uc57d\uad6d", "lat": "37.49489844537394", "lng": "126.77170131426041", "url": "/info/%ED%98%84%EC%95%BD%EA%B5%AD-%EA%B2%BD%EA%B8%B0%EB%8F%84-%EB%B6%80%EC%B2%9C%EC%8B%9C-%EC%A4%91%EB%8F%99/", "workingTime": ["-", "09:00~20:00", "09:00~21:30", "09:00~20:00", "09:00~20:00", "09:00~21:30", "-", "-"]}, {"name": "\ubd80\ucc9c\uc774\uc57d\uad6d", "lat": "37.49272237398472", "lng": "126.76655608562686", "url": "/info/%EB%B6%80%EC%B2%9C%EC%9D%B4%EC%95%BD%EA%B5%AD-%EA%B2%BD%EA%B8%B0%EB%8F%84-%EB%B6%80%EC%B2%9C%EC%8B%9C-%EC%A4%91%EB%8F%99/", "workingTime": ["-", "08:30~19:00", "08:30~19:00", "08:30~19:00", "08:30~19:00", "08:30~19:00", "-", "-"]}, {"name": "\uba54\ub514\uc628\uc911\ub3d9\uc57d\uad6d", "lat": "37.5051617561431", "lng": "126.76389804814192", "url": "/info/%EB%A9%94%EB%94%94%EC%98%A8%EC%A4%91%EB%8F%99%EC%95%BD%EA%B5%AD-%EA%B2%BD%EA%B8%B0%EB%8F%84-%EB%B6%80%EC%B2%9C%EC%8B%9C-%EC%A4%91%EB%8F%99/", "workingTime": ["-", "09:00~20:00", "09:00~20:00", "09:00~20:00", "09:00~20:00", "09:00~20:00", "09:00~17:00", "09:00~13:00"]}, {"name": "\ubd80\ucc9c\uc911\ub3d9\uc57d\uad6d", "lat": "37.50270600340345", "lng": "126.77423347636969", "url": "/info/%EB%B6%80%EC%B2%9C%EC%A4%91%EB%8F%99%EC%95%BD%EA%B5%AD-%EA%B2%BD%EA%B8%B0%EB%8F%84-%EB%B6%80%EC%B2%9C%EC%8B%9C-%EC%A4%91%EB%8F%99/", "workingTime": ["-", "09:00~20:30", "09:00~20:30", "09:00~20:30", "09:00~20:30", "09:00~20:30", "09:00~20:00", "-"]}, {"name": "\uc885\ud569\uba54\ub514\uce7c\uc57d\uad6d", "lat": "37.49559941971614", "lng": "126.7670854249065", "url": "/info/%EC%A2%85%ED%95%A9%EB%A9%94%EB%94%94%EC%B9%BC%EC%95%BD%EA%B5%AD-%EA%B2%BD%EA%B8%B0%EB%8F%84-%EB%B6%80%EC%B2%9C%EC%8B%9C-%EC%A4%91%EB%8F%99/", "workingTime": ["-", "09:00~21:00", "09:00~21:00", "09:00~21:00", "09:00~21:00", "09:00~21:00", "09:00~13:00", "-"]}, {"name": "\ud558\ub098\ub85c\uc774\ud654\uc57d\uad6d", "lat": "37.500284661036396", "lng": "126.77642113860443", "url": "/info/%ED%95%98%EB%82%98%EB%A1%9C%EC%9D%B4%ED%99%94%EC%95%BD%EA%B5%AD-%EA%B2%BD%EA%B8%B0%EB%8F%84-%EB%B6%80%EC%B2%9C%EC%8B%9C-%EC%A4%91%EB%8F%99/", "workingTime": ["-", "09:00~20:00", "09:00~20:00", "09:00~20:00", "09:00~20:00", "09:00~20:00", "09:00~18:00", "-"]}]