[{"name": "\uc6b4\uc815\uc0ac\ub791\uc57d\uad6d", "lat": "37.7281814497", "lng": "126.7352231513", "url": "/info/%EC%9A%B4%EC%A0%95%EC%82%AC%EB%9E%91%EC%95%BD%EA%B5%AD-%EA%B2%BD%EA%B8%B0%EB%8F%84-%ED%8C%8C%EC%A3%BC%EC%8B%9C-%EB%AA%A9%EB%8F%99%EB%8F%99/", "workingTime": ["1,2,3,4,5\uc9f8\uc8fc09:00~14:00", "09:00~21:00", "09:00~21:00", "09:00~21:00", "09:00~21:00", "09:00~21:00", "09:00~17:00", "09:00~14:00"]}, {"name": "\ud558\ub298\uc57d\uad6d", "lat": "37.7295831462", "lng": "126.7367382236", "url": "/info/%ED%95%98%EB%8A%98%EC%95%BD%EA%B5%AD-%EA%B2%BD%EA%B8%B0%EB%8F%84-%ED%8C%8C%EC%A3%BC%EC%8B%9C-%EB%AA%A9%EB%8F%99%EB%8F%99/", "workingTime": ["1,2,3,4,5\uc9f8\uc8fc10:00~18:00", "10:00~21:00", "10:00~21:00", "10:00~21:00", "10:00~21:00", "10:00~21:00", "10:00~18:00", "10:00~18:00"]}, {"name": "\ucc38\uc57d\uc0ac\uc544\uc774\uc232\uc57d\uad6d", "lat": "37.7292528412534", "lng": "126.734484151282", "url": "/info/%EC%B0%B8%EC%95%BD%EC%82%AC%EC%95%84%EC%9D%B4%EC%88%B2%EC%95%BD%EA%B5%AD-%EA%B2%BD%EA%B8%B0%EB%8F%84-%ED%8C%8C%EC%A3%BC%EC%8B%9C-%EB%AA%A9%EB%8F%99%EB%8F%99/", "workingTime": ["-", "09:00~18:00", "09:00~18:00", "09:00~18:00", "09:00~18:00", "09:00~18:00", "-", "-"]}, {"name": "\uad50\ud558\ud478\ub978\uc57d\uad6d", "lat": "37.72534310930565", "lng": "126.75079488796469", "url": "/info/%EA%B5%90%ED%95%98%ED%91%B8%EB%A5%B8%EC%95%BD%EA%B5%AD-%EA%B2%BD%EA%B8%B0%EB%8F%84-%ED%8C%8C%EC%A3%BC%EC%8B%9C-%EB%AA%A9%EB%8F%99%EB%8F%99/", "workingTime": ["-", "09:00~19:30", "09:00~19:30", "09:00~19:30", "09:00~19:30", "09:00~19:30", "09:00~13:00", "09:00~13:00"]}, {"name": "\uc2e0\uc6b0\uc57d\uad6d", "lat": "37.7284693847104", "lng": "126.735899451546", "url": "/info/%EC%8B%A0%EC%9A%B0%EC%95%BD%EA%B5%AD-%EA%B2%BD%EA%B8%B0%EB%8F%84-%ED%8C%8C%EC%A3%BC%EC%8B%9C-%EB%AA%A9%EB%8F%99%EB%8F%99/", "workingTime": ["-", "10:00~18:00", "10:00~18:00", "10:00~18:00", "10:00~18:00", "10:00~18:00", "-", "-"]}, {"name": "\uc0b0\ub0b4\uc57d\uad6d", "lat": "37.7286129935", "lng": "126.7332160654", "url": "/info/%EC%82%B0%EB%82%B4%EC%95%BD%EA%B5%AD-%EA%B2%BD%EA%B8%B0%EB%8F%84-%ED%8C%8C%EC%A3%BC%EC%8B%9C-%EB%AA%A9%EB%8F%99%EB%8F%99/", "workingTime": ["-", "09:00~20:00", "09:00~20:00", "09:00~20:00", "09:00~20:00", "09:00~20:00", "09:00~16:00", "-"]}, {"name": "\ub2e4\ub098\uc628\ub204\ub9ac\uc57d\uad6d", "lat": "37.7184804558026", "lng": "126.737809985756", "url": "/info/%EB%8B%A4%EB%82%98%EC%98%A8%EB%88%84%EB%A6%AC%EC%95%BD%EA%B5%AD-%EA%B2%BD%EA%B8%B0%EB%8F%84-%ED%8C%8C%EC%A3%BC%EC%8B%9C-%EB%AA%A9%EB%8F%99%EB%8F%99/", "workingTime": ["-", "10:00~18:00", "10:00~18:00", "10:00~18:00", "10:00~18:00", "10:00~18:00", "-", "-"]}, {"name": "\ub808\ubaac\uc57d\uad6d", "lat": "37.7205087221671", "lng": "126.744375287496", "url": "/info/%EB%A0%88%EB%AA%AC%EC%95%BD%EA%B5%AD-%EA%B2%BD%EA%B8%B0%EB%8F%84-%ED%8C%8C%EC%A3%BC%EC%8B%9C-%EB%AA%A9%EB%8F%99%EB%8F%99/", "workingTime": ["-", "10:00~18:00", "10:00~18:00", "10:00~18:00", "10:00~18:00", "10:00~18:00", "-", "-"]}, {"name": "\ubbfc\ud2b8\uc57d\uad6d", "lat": "37.7229368094568", "lng": "126.738651335904", "url": "/info/%EB%AF%BC%ED%8A%B8%EC%95%BD%EA%B5%AD-%EA%B2%BD%EA%B8%B0%EB%8F%84-%ED%8C%8C%EC%A3%BC%EC%8B%9C-%EB%AA%A9%EB%8F%99%EB%8F%99/", "workingTime": ["-", "09:00~18:00", "09:00~18:00", "09:00~18:00", "09:00~18:00", "09:00~18:00", "-", "-"]}, {"name": "\uc6b4\uc815\uc77c\ubc88\uc57d\uad6d", "lat": "37.7276351585525", "lng": "126.733927631718", "url": "/info/%EC%9A%B4%EC%A0%95%EC%9D%BC%EB%B2%88%EC%95%BD%EA%B5%AD-%EA%B2%BD%EA%B8%B0%EB%8F%84-%ED%8C%8C%EC%A3%BC%EC%8B%9C-%EB%AA%A9%EB%8F%99%EB%8F%99/", "workingTime": ["-", "09:00~18:00", "09:00~18:00", "09:00~18:00", "09:00~18:00", "09:00~18:00", "-", "-"]}, {"name": "\uc6d4\ub4dc\uc57d\uad6d", "lat": "37.72703460343784", "lng": "126.74304881773871", "url": "/info/%EC%9B%94%EB%93%9C%EC%95%BD%EA%B5%AD-%EA%B2%BD%EA%B8%B0%EB%8F%84-%ED%8C%8C%EC%A3%BC%EC%8B%9C-%EB%AA%A9%EB%8F%99%EB%8F%99/", "workingTime": ["-", "09:00~20:00", "09:00~20:00", "09:00~20:00", "09:00~20:00", "09:00~20:00", "09:00~15:00", "-"]}, {"name": "\uc218\uc628\ub204\ub9ac\uc57d\uad6d", "lat": "37.7287102246", "lng": "126.7363873929", "url": "/info/%EC%88%98%EC%98%A8%EB%88%84%EB%A6%AC%EC%95%BD%EA%B5%AD-%EA%B2%BD%EA%B8%B0%EB%8F%84-%ED%8C%8C%EC%A3%BC%EC%8B%9C-%EB%AA%A9%EB%8F%99%EB%8F%99/", "workingTime": ["-", "09:00~21:00", "09:00~21:00", "09:00~21:00", "09:00~21:00", "09:00~21:00", "09:00~21:00", "-"]}]