[{"name": "\ubc31\ud654\uc810\uc57d\uad6d", "lat": "37.27393818368194", "lng": "127.45000893531903", "url": "/info/%EB%B0%B1%ED%99%94%EC%A0%90%EC%95%BD%EA%B5%AD-%EA%B2%BD%EA%B8%B0%EB%8F%84-%EC%9D%B4%EC%B2%9C%EC%8B%9C-%EC%A4%91%EB%A6%AC%EB%8F%99/", "workingTime": ["1,2,3,4,5\uc9f8\uc8fc10:00~22:00", "09:00~22:00", "09:00~22:00", "09:00~22:00", "09:00~22:00", "09:00~22:00", "09:00~22:00", "09:00~22:00"]}, {"name": "\ub9c8\ub9ac\uc57d\uad6d", "lat": "37.275219444444446", "lng": "127.448022222222221", "url": "/info/%EB%A7%88%EB%A6%AC%EC%95%BD%EA%B5%AD-%EA%B2%BD%EA%B8%B0%EB%8F%84-%EC%9D%B4%EC%B2%9C%EC%8B%9C-%EC%A4%91%EB%A6%AC%EB%8F%99/", "workingTime": ["-", "09:00~17:00", "09:00~17:00", "09:00~17:00", "09:00~17:00", "09:00~17:00", "-", "-"]}, {"name": "\uc0b0\ub9bc\uc57d\uad6d", "lat": "37.2790378836", "lng": "127.4452854276", "url": "/info/%EC%82%B0%EB%A6%BC%EC%95%BD%EA%B5%AD-%EA%B2%BD%EA%B8%B0%EB%8F%84-%EC%9D%B4%EC%B2%9C%EC%8B%9C-%EC%A4%91%EB%A6%AC%EB%8F%99/", "workingTime": ["-", "08:40~19:40", "08:40~19:40", "08:40~19:40", "08:40~14:40", "08:40~19:40", "08:40~14:40", "-"]}, {"name": "\uace0\ub824\uc0dd\uc57d\uad6d", "lat": "37.279249999999998", "lng": "127.437713888888894", "url": "/info/%EA%B3%A0%EB%A0%A4%EC%83%9D%EC%95%BD%EA%B5%AD-%EA%B2%BD%EA%B8%B0%EB%8F%84-%EC%9D%B4%EC%B2%9C%EC%8B%9C-%EC%A4%91%EB%A6%AC%EB%8F%99/", "workingTime": ["-", "09:00~19:00", "09:00~19:00", "09:00~19:00", "09:00~19:00", "09:00~19:00", "09:00~14:00", "-"]}, {"name": "\ucd5c\uc57d\uad6d", "lat": "37.2775058766", "lng": "127.4463092387", "url": "/info/%EC%B5%9C%EC%95%BD%EA%B5%AD-%EA%B2%BD%EA%B8%B0%EB%8F%84-%EC%9D%B4%EC%B2%9C%EC%8B%9C-%EC%A4%91%EB%A6%AC%EB%8F%99/", "workingTime": ["-", "09:00~13:00", "09:00~13:00", "09:00~13:00", "09:00~13:00", "09:00~13:00", "09:00~16:00", "-"]}, {"name": "\ubbf8\uc18c\uc57d\uad6d", "lat": "37.27500205535513", "lng": "127.44888775555506", "url": "/info/%EB%AF%B8%EC%86%8C%EC%95%BD%EA%B5%AD-%EA%B2%BD%EA%B8%B0%EB%8F%84-%EC%9D%B4%EC%B2%9C%EC%8B%9C-%EC%A4%91%EB%A6%AC%EB%8F%99/", "workingTime": ["-", "09:00~18:30", "09:00~18:30", "09:00~18:30", "09:00~18:30", "09:00~18:30", "09:00~14:00", "-"]}, {"name": "\ub179\uc2ed\uc790\uc57d\uad6d", "lat": "37.27744903071899", "lng": "127.44655514906253", "url": "/info/%EB%85%B9%EC%8B%AD%EC%9E%90%EC%95%BD%EA%B5%AD-%EA%B2%BD%EA%B8%B0%EB%8F%84-%EC%9D%B4%EC%B2%9C%EC%8B%9C-%EC%A4%91%EB%A6%AC%EB%8F%99/", "workingTime": ["-", "10:00~18:00", "10:00~18:00", "10:00~18:00", "10:00~18:00", "10:00~18:00", "09:00~18:00", "-"]}, {"name": "\ud55c\ubcc4\uc57d\uad6d", "lat": "37.277794532244805", "lng": "127.44380146151506", "url": "/info/%ED%95%9C%EB%B3%84%EC%95%BD%EA%B5%AD-%EA%B2%BD%EA%B8%B0%EB%8F%84-%EC%9D%B4%EC%B2%9C%EC%8B%9C-%EC%A4%91%EB%A6%AC%EB%8F%99/", "workingTime": ["-", "09:00~14:00", "09:00~14:00", "09:00~14:00", "09:00~14:00", "09:00~14:00", "08:30~15:00", "-"]}, {"name": "\uace8\ub4dc\uc57d\uad6d", "lat": "37.278441483860526", "lng": "127.4457419603812", "url": "/info/%EA%B3%A8%EB%93%9C%EC%95%BD%EA%B5%AD-%EA%B2%BD%EA%B8%B0%EB%8F%84-%EC%9D%B4%EC%B2%9C%EC%8B%9C-%EC%A4%91%EB%A6%AC%EB%8F%99/", "workingTime": ["-", "09:00~21:00", "09:00~21:00", "09:00~21:00", "09:00~21:00", "09:00~21:00", "-", "08:30~22:00"]}, {"name": "\uba54\ub514\uc6d0\uc57d\uad6d", "lat": "37.27619060353291", "lng": "127.44767075244849", "url": "/info/%EB%A9%94%EB%94%94%EC%9B%90%EC%95%BD%EA%B5%AD-%EA%B2%BD%EA%B8%B0%EB%8F%84-%EC%9D%B4%EC%B2%9C%EC%8B%9C-%EC%A4%91%EB%A6%AC%EB%8F%99/", "workingTime": ["-", "09:00~17:00", "09:00~17:00", "09:00~17:00", "09:00~17:00", "09:00~17:00", "-", "-"]}, {"name": "\uc0c8\ubaa8\ubc94\uc57d\uad6d", "lat": "37.27784744886316", "lng": "127.44699047238764", "url": "/info/%EC%83%88%EB%AA%A8%EB%B2%94%EC%95%BD%EA%B5%AD-%EA%B2%BD%EA%B8%B0%EB%8F%84-%EC%9D%B4%EC%B2%9C%EC%8B%9C-%EC%A4%91%EB%A6%AC%EB%8F%99/", "workingTime": ["09:00~09:30(\uc5f0\ub77d\ud6c4\ubc29\ubb38\uc694\ub9dd)", "09:00~21:00", "09:00~21:00", "09:00~21:00", "09:00~21:00", "09:00~21:00", "18:30~19:00", "08:00~22:00"]}, {"name": "\uc2a4\ud0c0\uc57d\uad6d", "lat": "37.2765504289", "lng": "127.4464028209", "url": "/info/%EC%8A%A4%ED%83%80%EC%95%BD%EA%B5%AD-%EA%B2%BD%EA%B8%B0%EB%8F%84-%EC%9D%B4%EC%B2%9C%EC%8B%9C-%EC%A4%91%EB%A6%AC%EB%8F%99/", "workingTime": ["-", "09:00~20:00", "09:00~20:00", "09:00~20:00", "09:00~20:00", "09:00~20:00", "09:00~16:00", "-"]}, {"name": "\uc815\ub2e4\uc6b4\uc57d\uad6d", "lat": "37.27634428250039", "lng": "127.44705828637905", "url": "/info/%EC%A0%95%EB%8B%A4%EC%9A%B4%EC%95%BD%EA%B5%AD-%EA%B2%BD%EA%B8%B0%EB%8F%84-%EC%9D%B4%EC%B2%9C%EC%8B%9C-%EC%A4%91%EB%A6%AC%EB%8F%99/", "workingTime": ["-", "09:00~17:30", "09:00~17:30", "09:00~17:30", "09:00~17:30", "09:00~17:30", "08:30~17:30", "-"]}, {"name": "\ud478\ub978\uc57d\uad6d", "lat": "37.27496416422343", "lng": "127.44794764565313", "url": "/info/%ED%91%B8%EB%A5%B8%EC%95%BD%EA%B5%AD-%EA%B2%BD%EA%B8%B0%EB%8F%84-%EC%9D%B4%EC%B2%9C%EC%8B%9C-%EC%A4%91%EB%A6%AC%EB%8F%99/", "workingTime": ["-", "09:00~17:00", "09:00~17:00", "09:00~17:00", "09:00~17:00", "09:00~17:00", "09:00~17:00", "-"]}, {"name": "\ud574\uc624\ub984\uc57d\uad6d", "lat": "37.2777610498", "lng": "127.4465001744", "url": "/info/%ED%95%B4%EC%98%A4%EB%A6%84%EC%95%BD%EA%B5%AD-%EA%B2%BD%EA%B8%B0%EB%8F%84-%EC%9D%B4%EC%B2%9C%EC%8B%9C-%EC%A4%91%EB%A6%AC%EB%8F%99/", "workingTime": ["-", "09:00~16:00", "09:00~16:00", "09:00~16:00", "09:00~16:00", "09:00~16:00", "09:00~13:00", "-"]}, {"name": "\ud589\ubcf5\ub4dc\ub9bc\uc57d\uad6d", "lat": "37.27844870894432", "lng": "127.44573749273039", "url": "/info/%ED%96%89%EB%B3%B5%EB%93%9C%EB%A6%BC%EC%95%BD%EA%B5%AD-%EA%B2%BD%EA%B8%B0%EB%8F%84-%EC%9D%B4%EC%B2%9C%EC%8B%9C-%EC%A4%91%EB%A6%AC%EB%8F%99/", "workingTime": ["-", "09:00~13:00", "09:00~13:00", "09:00~13:00", "09:00~13:00", "09:00~13:00", "-", "10:00~14:00"]}, {"name": "\ub77c\uc628\uc57d\uad6d", "lat": "37.27844336246092", "lng": "127.4457183126666", "url": "/info/%EB%9D%BC%EC%98%A8%EC%95%BD%EA%B5%AD-%EA%B2%BD%EA%B8%B0%EB%8F%84-%EC%9D%B4%EC%B2%9C%EC%8B%9C-%EC%A4%91%EB%A6%AC%EB%8F%99/", "workingTime": ["-", "09:00~13:00", "09:00~13:00", "09:00~13:00", "09:00~13:00", "09:00~13:00", "-", "-"]}, {"name": "\ub354\ub4dc\ub9bc\uc57d\uad6d", "lat": "37.2758027568", "lng": "127.4468313753", "url": "/info/%EB%8D%94%EB%93%9C%EB%A6%BC%EC%95%BD%EA%B5%AD-%EA%B2%BD%EA%B8%B0%EB%8F%84-%EC%9D%B4%EC%B2%9C%EC%8B%9C-%EC%A4%91%EB%A6%AC%EB%8F%99/", "workingTime": ["-", "09:00~18:00", "09:00~18:00", "09:00~18:00", "09:00~18:00", "09:00~18:00", "-", "-"]}]