[{"name": "\ubc1d\uc740\uc57d\uad6d", "lat": "37.73959616243367", "lng": "127.0518843799731", "url": "/info/%EB%B0%9D%EC%9D%80%EC%95%BD%EA%B5%AD-%EA%B2%BD%EA%B8%B0%EB%8F%84-%EC%9D%98%EC%A0%95%EB%B6%80%EC%8B%9C-%EC%9D%98%EC%A0%95%EB%B6%80%EB%8F%99/", "workingTime": ["-", "08:00~18:00", "08:00~18:00", "08:00~18:00", "08:00~18:00", "08:00~18:00", "08:00~15:00", "-"]}, {"name": "\uc81c\uc911\uc57d\uad6d", "lat": "37.7388579406558", "lng": "127.051398744058", "url": "/info/%EC%A0%9C%EC%A4%91%EC%95%BD%EA%B5%AD-%EA%B2%BD%EA%B8%B0%EB%8F%84-%EC%9D%98%EC%A0%95%EB%B6%80%EC%8B%9C-%EC%9D%98%EC%A0%95%EB%B6%80%EB%8F%99/", "workingTime": ["-", "08:00~19:30", "08:00~19:30", "08:00~19:30", "08:00~19:30", "08:00~19:30", "08:00~16:00", "-"]}, {"name": "\ub300\uc77c\uc57d\uad6d", "lat": "37.7399208898219", "lng": "127.05136363943991", "url": "/info/%EB%8C%80%EC%9D%BC%EC%95%BD%EA%B5%AD-%EA%B2%BD%EA%B8%B0%EB%8F%84-%EC%9D%98%EC%A0%95%EB%B6%80%EC%8B%9C-%EC%9D%98%EC%A0%95%EB%B6%80%EB%8F%99/", "workingTime": ["09:00~18:00(\uc5f0\ub77d\ud6c4\ubc29\ubb38\uc694\ub9dd)", "07:30~19:30", "07:30~19:30", "07:30~19:30", "07:30~19:30", "07:30~19:30", "07:30~18:00", "07:00~19:00"]}, {"name": "\uc218\ud37c\uc57d\uad6d", "lat": "37.738117658719005", "lng": "127.05192421146488", "url": "/info/%EC%88%98%ED%8D%BC%EC%95%BD%EA%B5%AD-%EA%B2%BD%EA%B8%B0%EB%8F%84-%EC%9D%98%EC%A0%95%EB%B6%80%EC%8B%9C-%EC%9D%98%EC%A0%95%EB%B6%80%EB%8F%99/", "workingTime": ["-", "08:00~20:00", "08:00~20:00", "08:00~20:00", "08:00~20:00", "08:00~20:00", "08:00~20:00", "10:00~18:00"]}, {"name": "\uc2e0\uc6d0\uc57d\uad6d", "lat": "37.740856661845385", "lng": "127.05179678591371", "url": "/info/%EC%8B%A0%EC%9B%90%EC%95%BD%EA%B5%AD-%EA%B2%BD%EA%B8%B0%EB%8F%84-%EC%9D%98%EC%A0%95%EB%B6%80%EC%8B%9C-%EC%9D%98%EC%A0%95%EB%B6%80%EB%8F%99/", "workingTime": ["1,2,3,4,5\uc9f8\uc8fc08:00~20:00", "08:00~22:00", "08:00~22:00", "08:00~22:00", "08:00~22:00", "08:00~22:00", "08:00~21:30", "08:00~20:00"]}, {"name": "\uc131\ubaa8\uc57d\uad6d", "lat": "37.73857628361016", "lng": "127.04288471183794", "url": "/info/%EC%84%B1%EB%AA%A8%EC%95%BD%EA%B5%AD-%EA%B2%BD%EA%B8%B0%EB%8F%84-%EC%9D%98%EC%A0%95%EB%B6%80%EC%8B%9C-%EC%9D%98%EC%A0%95%EB%B6%80%EB%8F%99/", "workingTime": ["5\uc9f8\uc8fc09:00~18:00", "09:00~21:00", "09:00~21:00", "09:00~21:00", "09:00~21:00", "09:00~21:00", "09:00~21:00", "09:00~18:00"]}, {"name": "\uc815\ub2e4\uc6b4\uc57d\uad6d", "lat": "37.7386784983935", "lng": "127.044213723101", "url": "/info/%EC%A0%95%EB%8B%A4%EC%9A%B4%EC%95%BD%EA%B5%AD-%EA%B2%BD%EA%B8%B0%EB%8F%84-%EC%9D%98%EC%A0%95%EB%B6%80%EC%8B%9C-%EC%9D%98%EC%A0%95%EB%B6%80%EB%8F%99/", "workingTime": ["-", "09:00~20:00", "09:00~20:00", "09:00~20:00", "09:00~20:00", "09:00~20:00", "09:00~14:30", "-"]}, {"name": "\uc13c\ud2b8\ub7f4\uc57d\uad6d", "lat": "37.7379775899", "lng": "127.0440914603", "url": "/info/%EC%84%BC%ED%8A%B8%EB%9F%B4%EC%95%BD%EA%B5%AD-%EA%B2%BD%EA%B8%B0%EB%8F%84-%EC%9D%98%EC%A0%95%EB%B6%80%EC%8B%9C-%EC%9D%98%EC%A0%95%EB%B6%80%EB%8F%99/", "workingTime": ["1,2,3,4,5\uc9f8\uc8fc22:00~25:00", "22:00~25:00", "22:00~25:00", "22:00~25:00", "22:00~25:00", "22:00~25:00", "22:00~25:00", "22:00~25:00"]}, {"name": "\uc544\ub9ac\ub791\uc57d\uad6d", "lat": "37.7433749611712", "lng": "127.047458463603", "url": "/info/%EC%95%84%EB%A6%AC%EB%9E%91%EC%95%BD%EA%B5%AD-%EA%B2%BD%EA%B8%B0%EB%8F%84-%EC%9D%98%EC%A0%95%EB%B6%80%EC%8B%9C-%EC%9D%98%EC%A0%95%EB%B6%80%EB%8F%99/", "workingTime": ["-", "08:00~18:00", "08:00~18:00", "08:00~18:00", "08:00~18:00", "08:00~18:00", "-", "-"]}, {"name": "\uc2e0\uc9c4\uc57d\uad6d", "lat": "37.74471653119672", "lng": "127.04942246934104", "url": "/info/%EC%8B%A0%EC%A7%84%EC%95%BD%EA%B5%AD-%EA%B2%BD%EA%B8%B0%EB%8F%84-%EC%9D%98%EC%A0%95%EB%B6%80%EC%8B%9C-%EC%9D%98%EC%A0%95%EB%B6%80%EB%8F%99/", "workingTime": ["-", "08:30~22:00", "08:30~22:00", "08:30~22:00", "08:30~22:00", "08:30~22:00", "08:30~22:00", "08:30~22:00"]}, {"name": "\uc9c4\uc628\ub204\ub9ac\uc57d\uad6d", "lat": "37.7412322748356", "lng": "127.043299768718", "url": "/info/%EC%A7%84%EC%98%A8%EB%88%84%EB%A6%AC%EC%95%BD%EA%B5%AD-%EA%B2%BD%EA%B8%B0%EB%8F%84-%EC%9D%98%EC%A0%95%EB%B6%80%EC%8B%9C-%EC%9D%98%EC%A0%95%EB%B6%80%EB%8F%99/", "workingTime": ["-", "09:00~18:00", "09:00~18:00", "09:00~18:00", "09:00~18:00", "09:00~18:00", "-", "-"]}, {"name": "\uc18c\ub9dd\uc57d\uad6d", "lat": "37.7405595190709", "lng": "127.04928242534666", "url": "/info/%EC%86%8C%EB%A7%9D%EC%95%BD%EA%B5%AD-%EA%B2%BD%EA%B8%B0%EB%8F%84-%EC%9D%98%EC%A0%95%EB%B6%80%EC%8B%9C-%EC%9D%98%EC%A0%95%EB%B6%80%EB%8F%99/", "workingTime": ["-", "09:00~19:00", "09:00~19:00", "09:00~19:00", "09:00~19:00", "09:00~19:00", "09:00~16:00", "-"]}, {"name": "\ucc38\uc57d\uad6d", "lat": "37.7475885189", "lng": "127.0456856761", "url": "/info/%EC%B0%B8%EC%95%BD%EA%B5%AD-%EA%B2%BD%EA%B8%B0%EB%8F%84-%EC%9D%98%EC%A0%95%EB%B6%80%EC%8B%9C-%EC%9D%98%EC%A0%95%EB%B6%80%EB%8F%99/", "workingTime": ["-", "09:00~20:00", "09:00~20:00", "09:00~20:00", "09:00~20:00", "09:00~20:00", "09:00~16:00", "-"]}, {"name": "\uc5f0\uc138\uc57d\uad6d", "lat": "37.74221534876671", "lng": "127.05173873498978", "url": "/info/%EC%97%B0%EC%84%B8%EC%95%BD%EA%B5%AD-%EA%B2%BD%EA%B8%B0%EB%8F%84-%EC%9D%98%EC%A0%95%EB%B6%80%EC%8B%9C-%EC%9D%98%EC%A0%95%EB%B6%80%EB%8F%99/", "workingTime": ["-", "09:00~20:30", "09:00~20:30", "09:00~18:30", "09:00~20:30", "09:00~20:30", "09:00~15:30", "-"]}, {"name": "\uc120\uc57d\uad6d", "lat": "37.73804396367849", "lng": "127.04938738033452", "url": "/info/%EC%84%A0%EC%95%BD%EA%B5%AD-%EA%B2%BD%EA%B8%B0%EB%8F%84-%EC%9D%98%EC%A0%95%EB%B6%80%EC%8B%9C-%EC%9D%98%EC%A0%95%EB%B6%80%EB%8F%99/", "workingTime": ["-", "10:00~20:00", "10:00~20:00", "10:00~20:00", "10:00~20:00", "10:00~20:00", "10:00~20:00", "-"]}, {"name": "\uc758\uc815\ubd80\uc57d\uad6d", "lat": "37.7387719935114", "lng": "127.04452089288", "url": "/info/%EC%9D%98%EC%A0%95%EB%B6%80%EC%95%BD%EA%B5%AD-%EA%B2%BD%EA%B8%B0%EB%8F%84-%EC%9D%98%EC%A0%95%EB%B6%80%EC%8B%9C-%EC%9D%98%EC%A0%95%EB%B6%80%EB%8F%99/", "workingTime": ["-", "09:00~18:00", "09:00~18:00", "09:00~18:00", "09:00~18:00", "09:00~18:00", "-", "-"]}, {"name": "\uc624\ucf00\uc774\uc57d\uad6d", "lat": "37.733391390855", "lng": "127.047546616297", "url": "/info/%EC%98%A4%EC%BC%80%EC%9D%B4%EC%95%BD%EA%B5%AD-%EA%B2%BD%EA%B8%B0%EB%8F%84-%EC%9D%98%EC%A0%95%EB%B6%80%EC%8B%9C-%EC%9D%98%EC%A0%95%EB%B6%80%EB%8F%99/", "workingTime": ["-", "09:00~18:00", "09:00~18:00", "09:00~18:00", "09:00~18:00", "09:00~18:00", "09:00~13:00", "-"]}, {"name": "\uba54\ub514\uce7c\uc57d\uad6d", "lat": "37.741988894375666", "lng": "127.0503770962144", "url": "/info/%EB%A9%94%EB%94%94%EC%B9%BC%EC%95%BD%EA%B5%AD-%EA%B2%BD%EA%B8%B0%EB%8F%84-%EC%9D%98%EC%A0%95%EB%B6%80%EC%8B%9C-%EC%9D%98%EC%A0%95%EB%B6%80%EB%8F%99/", "workingTime": ["-", "09:00~18:30", "09:00~18:30", "09:00~18:30", "09:00~18:30", "09:00~18:30", "-", "-"]}, {"name": "\uc0c1\uc6d0\uc57d\uad6d", "lat": "37.739245607783", "lng": "127.047583828857", "url": "/info/%EC%83%81%EC%9B%90%EC%95%BD%EA%B5%AD-%EA%B2%BD%EA%B8%B0%EB%8F%84-%EC%9D%98%EC%A0%95%EB%B6%80%EC%8B%9C-%EC%9D%98%EC%A0%95%EB%B6%80%EB%8F%99/", "workingTime": ["-", "09:00~18:00", "09:00~18:00", "09:00~18:00", "09:00~18:00", "09:00~18:00", "-", "-"]}, {"name": "\uc0ac\uac70\ub9ac\uc57d\uad6d", "lat": "37.7471503804242", "lng": "127.045911428328", "url": "/info/%EC%82%AC%EA%B1%B0%EB%A6%AC%EC%95%BD%EA%B5%AD-%EA%B2%BD%EA%B8%B0%EB%8F%84-%EC%9D%98%EC%A0%95%EB%B6%80%EC%8B%9C-%EC%9D%98%EC%A0%95%EB%B6%80%EB%8F%99/", "workingTime": ["-", "09:00~21:00", "09:00~21:00", "09:00~21:00", "09:00~21:00", "09:00~21:00", "-", "-"]}, {"name": "\uc13c\ud130\uc57d\uad6d", "lat": "37.7414201010037", "lng": "127.049969382991", "url": "/info/%EC%84%BC%ED%84%B0%EC%95%BD%EA%B5%AD-%EA%B2%BD%EA%B8%B0%EB%8F%84-%EC%9D%98%EC%A0%95%EB%B6%80%EC%8B%9C-%EC%9D%98%EC%A0%95%EB%B6%80%EB%8F%99/", "workingTime": ["1,2,3,4,5\uc9f8\uc8fc09:00~23:00", "09:00~23:00", "09:00~23:00", "09:00~23:00", "09:00~23:00", "09:00~23:00", "09:00~23:00", "09:00~23:00"]}, {"name": "\ub178\uc544\uc57d\uad6d", "lat": "37.7388712800926", "lng": "127.048407250817", "url": "/info/%EB%85%B8%EC%95%84%EC%95%BD%EA%B5%AD-%EA%B2%BD%EA%B8%B0%EB%8F%84-%EC%9D%98%EC%A0%95%EB%B6%80%EC%8B%9C-%EC%9D%98%EC%A0%95%EB%B6%80%EB%8F%99/", "workingTime": ["-", "09:00~18:00", "09:00~18:00", "09:00~18:00", "09:00~18:00", "09:00~18:00", "-", "-"]}, {"name": "\uc131\ubaa8\uc628\ub204\ub9ac\uc57d\uad6d", "lat": "37.7414380187125", "lng": "127.049570030189", "url": "/info/%EC%84%B1%EB%AA%A8%EC%98%A8%EB%88%84%EB%A6%AC%EC%95%BD%EA%B5%AD-%EA%B2%BD%EA%B8%B0%EB%8F%84-%EC%9D%98%EC%A0%95%EB%B6%80%EC%8B%9C-%EC%9D%98%EC%A0%95%EB%B6%80%EB%8F%99/", "workingTime": ["-", "09:00~22:20", "09:00~22:20", "09:00~22:20", "09:00~22:20", "09:00~22:20", "-", "-"]}, {"name": "\ub4dc\ub9bc\uc57d\uad6d", "lat": "37.738718302784356", "lng": "127.04838945272876", "url": "/info/%EB%93%9C%EB%A6%BC%EC%95%BD%EA%B5%AD-%EA%B2%BD%EA%B8%B0%EB%8F%84-%EC%9D%98%EC%A0%95%EB%B6%80%EC%8B%9C-%EC%9D%98%EC%A0%95%EB%B6%80%EB%8F%99/", "workingTime": ["-", "09:00~18:30", "09:00~18:30", "09:00~18:30", "09:00~18:30", "09:00~18:30", "09:00~14:30", "-"]}, {"name": "\ubbf8\uac74\uba54\ub514\uceec\uc57d\uad6d", "lat": "37.74971881530701", "lng": "127.04462038122983", "url": "/info/%EB%AF%B8%EA%B1%B4%EB%A9%94%EB%94%94%EC%BB%AC%EC%95%BD%EA%B5%AD-%EA%B2%BD%EA%B8%B0%EB%8F%84-%EC%9D%98%EC%A0%95%EB%B6%80%EC%8B%9C-%EC%9D%98%EC%A0%95%EB%B6%80%EB%8F%99/", "workingTime": ["1,2,3,4,5\uc9f8\uc8fc09:00~21:00", "09:00~21:00", "09:00~21:00", "09:00~21:00", "09:00~21:00", "09:00~21:00", "09:00~21:00", "09:00~21:00"]}, {"name": "\uc2dc\uc7a5\ubcf4\uac74\uc57d\uad6d", "lat": "37.7410631606", "lng": "127.0513816622", "url": "/info/%EC%8B%9C%EC%9E%A5%EB%B3%B4%EA%B1%B4%EC%95%BD%EA%B5%AD-%EA%B2%BD%EA%B8%B0%EB%8F%84-%EC%9D%98%EC%A0%95%EB%B6%80%EC%8B%9C-%EC%9D%98%EC%A0%95%EB%B6%80%EB%8F%99/", "workingTime": ["-", "08:30~09:00", "08:30~09:00", "08:30~09:00", "08:30~09:00", "08:30~09:00", "-", "08:30~21:30"]}, {"name": "\uc774\ub808\uc57d\uad6d", "lat": "37.74725244947393", "lng": "127.04572066467966", "url": "/info/%EC%9D%B4%EB%A0%88%EC%95%BD%EA%B5%AD-%EA%B2%BD%EA%B8%B0%EB%8F%84-%EC%9D%98%EC%A0%95%EB%B6%80%EC%8B%9C-%EC%9D%98%EC%A0%95%EB%B6%80%EB%8F%99/", "workingTime": ["-", "09:00~19:00", "09:00~19:00", "09:00~19:00", "09:00~19:00", "09:00~19:00", "09:00~16:00", "-"]}, {"name": "\uad6d\uc81c\uc57d\uad6d", "lat": "37.742008268129666", "lng": "127.04710161172669", "url": "/info/%EA%B5%AD%EC%A0%9C%EC%95%BD%EA%B5%AD-%EA%B2%BD%EA%B8%B0%EB%8F%84-%EC%9D%98%EC%A0%95%EB%B6%80%EC%8B%9C-%EC%9D%98%EC%A0%95%EB%B6%80%EB%8F%99/", "workingTime": ["-", "09:00~20:30", "09:00~20:30", "09:00~20:30", "09:00~20:30", "09:00~20:30", "09:00~20:30", "-"]}, {"name": "\uae38\uc57d\uad6d", "lat": "37.749386973507285", "lng": "127.04538270842832", "url": "/info/%EA%B8%B8%EC%95%BD%EA%B5%AD-%EA%B2%BD%EA%B8%B0%EB%8F%84-%EC%9D%98%EC%A0%95%EB%B6%80%EC%8B%9C-%EC%9D%98%EC%A0%95%EB%B6%80%EB%8F%99/", "workingTime": ["-", "09:00~19:00", "09:00~19:00", "09:00~19:00", "09:00~19:00", "09:00~19:00", "09:00~14:00", "-"]}, {"name": "\ud0dc\ud3c9\uc591\uc57d\uad6d", "lat": "37.7406412625", "lng": "127.0519395677", "url": "/info/%ED%83%9C%ED%8F%89%EC%96%91%EC%95%BD%EA%B5%AD-%EA%B2%BD%EA%B8%B0%EB%8F%84-%EC%9D%98%EC%A0%95%EB%B6%80%EC%8B%9C-%EC%9D%98%EC%A0%95%EB%B6%80%EB%8F%99/", "workingTime": ["3\uc9f8\uc8fc09:00~20:00", "08:30~20:20", "08:30~20:20", "08:30~20:20", "08:30~20:20", "08:30~20:20", "09:00~20:00", "09:00~20:00"]}, {"name": "\uad7f\ubaa8\ub2dd\uc57d\uad6d", "lat": "37.74685889113749", "lng": "127.04529379717306", "url": "/info/%EA%B5%BF%EB%AA%A8%EB%8B%9D%EC%95%BD%EA%B5%AD-%EA%B2%BD%EA%B8%B0%EB%8F%84-%EC%9D%98%EC%A0%95%EB%B6%80%EC%8B%9C-%EC%9D%98%EC%A0%95%EB%B6%80%EB%8F%99/", "workingTime": ["-", "09:00~19:00", "09:00~19:00", "09:00~19:00", "09:00~19:00", "09:00~19:00", "09:00~13:00", "-"]}, {"name": "\uc81c\uc77c\uc57d\uad6d", "lat": "37.74163090393118", "lng": "127.04195613307918", "url": "/info/%EC%A0%9C%EC%9D%BC%EC%95%BD%EA%B5%AD-%EA%B2%BD%EA%B8%B0%EB%8F%84-%EC%9D%98%EC%A0%95%EB%B6%80%EC%8B%9C-%EC%9D%98%EC%A0%95%EB%B6%80%EB%8F%99/", "workingTime": ["-", "08:30~18:30", "08:30~18:30", "08:30~18:30", "08:30~18:30", "08:30~18:30", "-", "-"]}, {"name": "\uad11\uc77c\uc57d\uad6d", "lat": "37.741259355958476", "lng": "127.04979684342117", "url": "/info/%EA%B4%91%EC%9D%BC%EC%95%BD%EA%B5%AD-%EA%B2%BD%EA%B8%B0%EB%8F%84-%EC%9D%98%EC%A0%95%EB%B6%80%EC%8B%9C-%EC%9D%98%EC%A0%95%EB%B6%80%EB%8F%99/", "workingTime": ["1,3,4,5\uc9f8\uc8fc08:30~20:30", "08:30~20:30", "08:30~20:30", "08:30~20:30", "08:30~20:30", "08:30~20:30", "08:30~20:30", "-"]}, {"name": "\uc9c4\uc131\uc57d\uad6d", "lat": "37.740272027122", "lng": "127.04751554198049", "url": "/info/%EC%A7%84%EC%84%B1%EC%95%BD%EA%B5%AD-%EA%B2%BD%EA%B8%B0%EB%8F%84-%EC%9D%98%EC%A0%95%EB%B6%80%EC%8B%9C-%EC%9D%98%EC%A0%95%EB%B6%80%EB%8F%99/", "workingTime": ["1,2,3,4,5\uc9f8\uc8fc10:00~19:00", "09:00~21:00", "09:00~21:00", "09:00~21:00", "09:00~21:00", "09:00~21:00", "09:00~19:00", "10:00~19:00"]}, {"name": "\ubbfc\uc57d\uad6d", "lat": "37.73803299980521", "lng": "127.04038497180665", "url": "/info/%EB%AF%BC%EC%95%BD%EA%B5%AD-%EA%B2%BD%EA%B8%B0%EB%8F%84-%EC%9D%98%EC%A0%95%EB%B6%80%EC%8B%9C-%EC%9D%98%EC%A0%95%EB%B6%80%EB%8F%99/", "workingTime": ["-", "09:00~19:00", "09:00~19:00", "09:00~19:00", "09:00~19:00", "09:00~19:00", "09:00~16:00", "-"]}, {"name": "\uae08\ud654\uc57d\uad6d", "lat": "37.73553216714923", "lng": "127.03965307262747", "url": "/info/%EA%B8%88%ED%99%94%EC%95%BD%EA%B5%AD-%EA%B2%BD%EA%B8%B0%EB%8F%84-%EC%9D%98%EC%A0%95%EB%B6%80%EC%8B%9C-%EC%9D%98%EC%A0%95%EB%B6%80%EB%8F%99/", "workingTime": ["-", "09:00~20:00", "09:00~20:00", "09:00~20:00", "09:00~20:00", "09:00~20:00", "09:00~15:00", "-"]}, {"name": "\uc81c\uc77c\ud31c\uc57d\uad6d", "lat": "37.73831332315561", "lng": "127.05195250291516", "url": "/info/%EC%A0%9C%EC%9D%BC%ED%8C%9C%EC%95%BD%EA%B5%AD-%EA%B2%BD%EA%B8%B0%EB%8F%84-%EC%9D%98%EC%A0%95%EB%B6%80%EC%8B%9C-%EC%9D%98%EC%A0%95%EB%B6%80%EB%8F%99/", "workingTime": ["-", "09:00~19:00", "09:00~19:00", "09:00~19:00", "09:00~19:00", "09:00~19:00", "-", "-"]}, {"name": "\uacf5\uc6d0\uba54\ub514\uce7c\uc57d\uad6d", "lat": "37.74007721234835", "lng": "127.0477822246786", "url": "/info/%EA%B3%B5%EC%9B%90%EB%A9%94%EB%94%94%EC%B9%BC%EC%95%BD%EA%B5%AD-%EA%B2%BD%EA%B8%B0%EB%8F%84-%EC%9D%98%EC%A0%95%EB%B6%80%EC%8B%9C-%EC%9D%98%EC%A0%95%EB%B6%80%EB%8F%99/", "workingTime": ["-", "08:30~19:10", "08:30~19:10", "08:30~21:00", "08:30~19:10", "08:30~19:10", "08:30~16:00", "-"]}, {"name": "\uc2a4\ud0c0\uc57d\uad6d", "lat": "37.74419837452907", "lng": "127.05174236348056", "url": "/info/%EC%8A%A4%ED%83%80%EC%95%BD%EA%B5%AD-%EA%B2%BD%EA%B8%B0%EB%8F%84-%EC%9D%98%EC%A0%95%EB%B6%80%EC%8B%9C-%EC%9D%98%EC%A0%95%EB%B6%80%EB%8F%99/", "workingTime": ["-", "09:00~19:00", "09:00~19:00", "09:00~19:00", "09:00~19:00", "09:00~19:00", "09:00~14:00", "-"]}, {"name": "\ud504\ub77c\uc784\uc885\ub85c\uc57d\uad6d", "lat": "37.74655790284812", "lng": "127.04549979336366", "url": "/info/%ED%94%84%EB%9D%BC%EC%9E%84%EC%A2%85%EB%A1%9C%EC%95%BD%EA%B5%AD-%EA%B2%BD%EA%B8%B0%EB%8F%84-%EC%9D%98%EC%A0%95%EB%B6%80%EC%8B%9C-%EC%9D%98%EC%A0%95%EB%B6%80%EB%8F%99/", "workingTime": ["-", "09:00~20:30", "09:00~20:30", "09:00~20:30", "09:00~20:30", "09:00~20:30", "09:00~17:00", "-"]}, {"name": "\ud5ec\uc2a4\ud31c\uc57d\uad6d", "lat": "37.74236760999107", "lng": "127.05174451383993", "url": "/info/%ED%97%AC%EC%8A%A4%ED%8C%9C%EC%95%BD%EA%B5%AD-%EA%B2%BD%EA%B8%B0%EB%8F%84-%EC%9D%98%EC%A0%95%EB%B6%80%EC%8B%9C-%EC%9D%98%EC%A0%95%EB%B6%80%EB%8F%99/", "workingTime": ["-", "09:00~18:30", "09:00~18:30", "09:00~18:30", "09:00~18:30", "09:00~18:30", "09:00~16:00", "-"]}, {"name": "\ub300\uc601\uc57d\uad6d", "lat": "37.7409989552", "lng": "127.0498340881", "url": "/info/%EB%8C%80%EC%98%81%EC%95%BD%EA%B5%AD-%EA%B2%BD%EA%B8%B0%EB%8F%84-%EC%9D%98%EC%A0%95%EB%B6%80%EC%8B%9C-%EC%9D%98%EC%A0%95%EB%B6%80%EB%8F%99/", "workingTime": ["2,3\uc9f8\uc8fc09:00~21:00", "09:00~21:00", "09:00~21:00", "09:00~21:00", "09:00~21:00", "09:00~21:00", "09:00~21:00", "-"]}, {"name": "\uad6d\ubbfc\uc57d\uad6d", "lat": "37.74866277029958", "lng": "127.04489739957333", "url": "/info/%EA%B5%AD%EB%AF%BC%EC%95%BD%EA%B5%AD-%EA%B2%BD%EA%B8%B0%EB%8F%84-%EC%9D%98%EC%A0%95%EB%B6%80%EC%8B%9C-%EC%9D%98%EC%A0%95%EB%B6%80%EB%8F%99/", "workingTime": ["-", "09:00~21:00", "09:00~21:00", "09:00~21:00", "09:00~21:00", "09:00~21:00", "09:00~18:00", "-"]}, {"name": "\ubcf4\ub8e1\uc57d\uad6d", "lat": "37.7410818482", "lng": "127.0498250673", "url": "/info/%EB%B3%B4%EB%A3%A1%EC%95%BD%EA%B5%AD-%EA%B2%BD%EA%B8%B0%EB%8F%84-%EC%9D%98%EC%A0%95%EB%B6%80%EC%8B%9C-%EC%9D%98%EC%A0%95%EB%B6%80%EB%8F%99/", "workingTime": ["2,3\uc9f8\uc8fc09:00~21:00", "08:30~21:00", "08:30~21:00", "08:30~21:00", "08:30~21:00", "08:30~21:00", "08:30~21:00", "-"]}, {"name": "\uc218\uc815\uc57d\uad6d", "lat": "37.737835605903", "lng": "127.04995338060377", "url": "/info/%EC%88%98%EC%A0%95%EC%95%BD%EA%B5%AD-%EA%B2%BD%EA%B8%B0%EB%8F%84-%EC%9D%98%EC%A0%95%EB%B6%80%EC%8B%9C-%EC%9D%98%EC%A0%95%EB%B6%80%EB%8F%99/", "workingTime": ["-", "09:00~20:00", "09:00~20:00", "09:00~20:00", "09:00~20:00", "09:00~20:00", "09:00~17:00", "09:00~21:00"]}, {"name": "\ucc38\uc870\uc740\uc57d\uad6d", "lat": "37.740209044", "lng": "127.0513765336", "url": "/info/%EC%B0%B8%EC%A1%B0%EC%9D%80%EC%95%BD%EA%B5%AD-%EA%B2%BD%EA%B8%B0%EB%8F%84-%EC%9D%98%EC%A0%95%EB%B6%80%EC%8B%9C-%EC%9D%98%EC%A0%95%EB%B6%80%EB%8F%99/", "workingTime": ["-", "08:30~18:30", "08:30~18:30", "08:30~18:30", "08:30~18:30", "08:30~18:30", "08:30~15:00", "-"]}, {"name": "\uc9c4\uc2ec\uc57d\uad6d", "lat": "37.743942923800006", "lng": "127.0507664318", "url": "/info/%EC%A7%84%EC%8B%AC%EC%95%BD%EA%B5%AD-%EA%B2%BD%EA%B8%B0%EB%8F%84-%EC%9D%98%EC%A0%95%EB%B6%80%EC%8B%9C-%EC%9D%98%EC%A0%95%EB%B6%80%EB%8F%99/", "workingTime": ["-", "09:00~21:00", "09:00~21:00", "09:00~21:00", "09:00~21:00", "09:00~21:00", "09:00~16:00", "-"]}, {"name": "\uc2e0\uc131\ubaa8\uc57d\uad6d", "lat": "37.7357435494", "lng": "127.0431054134", "url": "/info/%EC%8B%A0%EC%84%B1%EB%AA%A8%EC%95%BD%EA%B5%AD-%EA%B2%BD%EA%B8%B0%EB%8F%84-%EC%9D%98%EC%A0%95%EB%B6%80%EC%8B%9C-%EC%9D%98%EC%A0%95%EB%B6%80%EB%8F%99/", "workingTime": ["-", "09:00~18:30", "09:00~18:30", "09:00~18:30", "09:00~18:30", "09:00~18:30", "09:00~14:00", "-"]}, {"name": "\ucca0\uc778\uc57d\uad6d", "lat": "37.73877028085924", "lng": "127.04452304744022", "url": "/info/%EC%B2%A0%EC%9D%B8%EC%95%BD%EA%B5%AD-%EA%B2%BD%EA%B8%B0%EB%8F%84-%EC%9D%98%EC%A0%95%EB%B6%80%EC%8B%9C-%EC%9D%98%EC%A0%95%EB%B6%80%EB%8F%99/", "workingTime": ["-", "09:30~21:00", "09:30~21:00", "09:30~21:00", "09:30~21:00", "09:30~21:00", "09:30~19:00", "-"]}, {"name": "\ud478\ub978\uc0d8\uc57d\uad6d", "lat": "37.7385524952", "lng": "127.0387141991", "url": "/info/%ED%91%B8%EB%A5%B8%EC%83%98%EC%95%BD%EA%B5%AD-%EA%B2%BD%EA%B8%B0%EB%8F%84-%EC%9D%98%EC%A0%95%EB%B6%80%EC%8B%9C-%EC%9D%98%EC%A0%95%EB%B6%80%EB%8F%99/", "workingTime": ["-", "08:00~19:00", "08:00~19:00", "08:00~19:00", "08:00~19:00", "08:00~19:00", "09:00~15:00", "-"]}, {"name": "\ud558\ub098\uc57d\uad6d", "lat": "37.7336006755879", "lng": "127.04867653855484", "url": "/info/%ED%95%98%EB%82%98%EC%95%BD%EA%B5%AD-%EA%B2%BD%EA%B8%B0%EB%8F%84-%EC%9D%98%EC%A0%95%EB%B6%80%EC%8B%9C-%EC%9D%98%EC%A0%95%EB%B6%80%EB%8F%99/", "workingTime": ["-", "09:00~18:30", "09:00~18:30", "09:00~18:30", "09:00~18:30", "09:00~18:30", "09:00~15:30", "-"]}, {"name": "\uc720\ud55c\uc57d\uad6d", "lat": "37.738343480921884", "lng": "127.04843458923373", "url": "/info/%EC%9C%A0%ED%95%9C%EC%95%BD%EA%B5%AD-%EA%B2%BD%EA%B8%B0%EB%8F%84-%EC%9D%98%EC%A0%95%EB%B6%80%EC%8B%9C-%EC%9D%98%EC%A0%95%EB%B6%80%EB%8F%99/", "workingTime": ["-", "09:00~20:00", "09:00~20:00", "09:00~19:00", "09:00~20:00", "09:00~20:00", "09:00~19:00", "-"]}, {"name": "\uc218\uc628\ub204\ub9ac\uc57d\uad6d", "lat": "37.749177880557674", "lng": "127.04554595318601", "url": "/info/%EC%88%98%EC%98%A8%EB%88%84%EB%A6%AC%EC%95%BD%EA%B5%AD-%EA%B2%BD%EA%B8%B0%EB%8F%84-%EC%9D%98%EC%A0%95%EB%B6%80%EC%8B%9C-%EC%9D%98%EC%A0%95%EB%B6%80%EB%8F%99/", "workingTime": ["-", "09:00~18:00", "09:00~18:00", "09:00~18:00", "09:00~18:00", "09:00~18:00", "-", "-"]}]