[{"name": "365\uc790\uc5f0\uc57d\uad6d", "lat": "37.24613828426053", "lng": "127.05520496466256", "url": "/info/365%EC%9E%90%EC%97%B0%EC%95%BD%EA%B5%AD-%EA%B2%BD%EA%B8%B0%EB%8F%84-%EC%88%98%EC%9B%90%EC%8B%9C-%EC%98%81%ED%86%B5%EB%8F%99/", "workingTime": ["1,2,3,4,5\uc9f8\uc8fc10:00~20:00", "09:00~21:00", "09:00~21:00", "09:00~21:00", "09:00~21:00", "09:00~21:00", "09:00~20:00", "10:00~20:00"]}, {"name": "\ub77c\uc5d8\uc57d\uad6d", "lat": "37.246306564267", "lng": "127.059938523998", "url": "/info/%EB%9D%BC%EC%97%98%EC%95%BD%EA%B5%AD-%EA%B2%BD%EA%B8%B0%EB%8F%84-%EC%88%98%EC%9B%90%EC%8B%9C-%EC%98%81%ED%86%B5%EB%8F%99/", "workingTime": ["-", "09:00~18:00", "09:00~18:00", "09:00~18:00", "09:00~18:00", "09:00~18:00", "09:00~13:00", "-"]}, {"name": "\uc601\ud1b5\uc57d\uad6d", "lat": "37.25181136164447", "lng": "127.06226522493546", "url": "/info/%EC%98%81%ED%86%B5%EC%95%BD%EA%B5%AD-%EA%B2%BD%EA%B8%B0%EB%8F%84-%EC%88%98%EC%9B%90%EC%8B%9C-%EC%98%81%ED%86%B5%EB%8F%99/", "workingTime": ["-", "09:00~21:00", "09:00~21:00", "09:00~21:00", "09:00~21:00", "09:00~21:00", "-", "09:00~16:00"]}, {"name": "\ubbf8\ub798\ud31c\uc601\ud1b5\uc57d\uad6d", "lat": "37.25205872306345", "lng": "127.0710258682576", "url": "/info/%EB%AF%B8%EB%9E%98%ED%8C%9C%EC%98%81%ED%86%B5%EC%95%BD%EA%B5%AD-%EA%B2%BD%EA%B8%B0%EB%8F%84-%EC%88%98%EC%9B%90%EC%8B%9C-%EC%98%81%ED%86%B5%EB%8F%99/", "workingTime": ["1,2,3,4,5\uc9f8\uc8fc09:30~13:30", "09:00~19:00", "09:00~19:00", "09:00~19:00", "09:00~19:00", "09:00~19:00", "09:00~15:00", "09:00~13:30"]}, {"name": "\ubc18\uac00\uc6cc,\uc57d\uad6d", "lat": "37.2479777730091", "lng": "127.076031384497", "url": "/info/%EB%B0%98%EA%B0%80%EC%9B%8C%2C%EC%95%BD%EA%B5%AD-%EA%B2%BD%EA%B8%B0%EB%8F%84-%EC%88%98%EC%9B%90%EC%8B%9C-%EC%98%81%ED%86%B5%EB%8F%99/", "workingTime": ["1,2,3,4,5\uc9f8\uc8fc12:00~22:00", "10:00~22:00", "10:00~22:00", "10:00~22:00", "10:00~22:00", "10:00~22:00", "10:00~22:00", "10:00~22:00"]}, {"name": "\ud589\ubcf5\ud55c\uc6b0\ub9ac\uc57d\uad6d", "lat": "37.24530043420315", "lng": "127.05997144073683", "url": "/info/%ED%96%89%EB%B3%B5%ED%95%9C%EC%9A%B0%EB%A6%AC%EC%95%BD%EA%B5%AD-%EA%B2%BD%EA%B8%B0%EB%8F%84-%EC%88%98%EC%9B%90%EC%8B%9C-%EC%98%81%ED%86%B5%EB%8F%99/", "workingTime": ["-", "09:30~19:30", "09:30~19:30", "09:30~19:30", "09:30~19:30", "09:30~19:30", "10:30~16:00", "-"]}, {"name": "\uc601\ud1b5\ubbf8\ub8e8\uc57d\uad6d", "lat": "37.254484134021", "lng": "127.075022075792", "url": "/info/%EC%98%81%ED%86%B5%EB%AF%B8%EB%A3%A8%EC%95%BD%EA%B5%AD-%EA%B2%BD%EA%B8%B0%EB%8F%84-%EC%88%98%EC%9B%90%EC%8B%9C-%EC%98%81%ED%86%B5%EB%8F%99/", "workingTime": ["-", "09:30~19:00", "09:30~19:00", "09:30~19:00", "09:30~19:00", "09:30~19:00", "09:00~15:30", "-"]}, {"name": "\ubbf8\uc18c\uc57d\uad6d", "lat": "37.253326613842965", "lng": "127.07233458871886", "url": "/info/%EB%AF%B8%EC%86%8C%EC%95%BD%EA%B5%AD-%EA%B2%BD%EA%B8%B0%EB%8F%84-%EC%88%98%EC%9B%90%EC%8B%9C-%EC%98%81%ED%86%B5%EB%8F%99/", "workingTime": ["-", "10:00~19:30", "10:00~19:30", "10:00~19:30", "10:00~19:30", "10:00~19:30", "09:30~15:30", "-"]}, {"name": "\ub124\uc624\uba54\ub514\uce7c\uc57d\uad6d", "lat": "37.251994475363915", "lng": "127.0711942067069", "url": "/info/%EB%84%A4%EC%98%A4%EB%A9%94%EB%94%94%EC%B9%BC%EC%95%BD%EA%B5%AD-%EA%B2%BD%EA%B8%B0%EB%8F%84-%EC%88%98%EC%9B%90%EC%8B%9C-%EC%98%81%ED%86%B5%EB%8F%99/", "workingTime": ["-", "09:00~19:00", "09:00~19:00", "09:00~19:00", "09:00~19:00", "09:00~19:00", "09:00~15:00", "-"]}, {"name": "\uc601\ud1b5\uba54\ub514\uce7c\uc57d\uad6d", "lat": "37.2520623435", "lng": "127.071021343", "url": "/info/%EC%98%81%ED%86%B5%EB%A9%94%EB%94%94%EC%B9%BC%EC%95%BD%EA%B5%AD-%EA%B2%BD%EA%B8%B0%EB%8F%84-%EC%88%98%EC%9B%90%EC%8B%9C-%EC%98%81%ED%86%B5%EB%8F%99/", "workingTime": ["1,2,3,4\uc9f8\uc8fc15:00~20:30", "09:00~21:30", "09:00~21:30", "09:00~21:30", "09:00~21:30", "09:00~21:30", "09:00~20:30", "15:00~20:30"]}, {"name": "\ub2e4\uc815\uc57d\uad6d", "lat": "37.2664900976852", "lng": "127.081659795171", "url": "/info/%EB%8B%A4%EC%A0%95%EC%95%BD%EA%B5%AD-%EA%B2%BD%EA%B8%B0%EB%8F%84-%EC%88%98%EC%9B%90%EC%8B%9C-%EC%98%81%ED%86%B5%EB%8F%99/", "workingTime": ["-", "10:00~18:00", "10:00~18:00", "10:00~18:00", "10:00~18:00", "10:00~18:00", "-", "-"]}, {"name": "\ud30c\ud06c\uc790\uc5f0\uc57d\uad6d", "lat": "37.2517808748298", "lng": "127.07746040642", "url": "/info/%ED%8C%8C%ED%81%AC%EC%9E%90%EC%97%B0%EC%95%BD%EA%B5%AD-%EA%B2%BD%EA%B8%B0%EB%8F%84-%EC%88%98%EC%9B%90%EC%8B%9C-%EC%98%81%ED%86%B5%EB%8F%99/", "workingTime": ["-", "10:00~18:00", "10:00~18:00", "10:00~18:00", "10:00~18:00", "10:00~18:00", "-", "-"]}, {"name": "\uc5f0\uc218\uc57d\uad6d", "lat": "37.25074067288218", "lng": "127.06394321572833", "url": "/info/%EC%97%B0%EC%88%98%EC%95%BD%EA%B5%AD-%EA%B2%BD%EA%B8%B0%EB%8F%84-%EC%88%98%EC%9B%90%EC%8B%9C-%EC%98%81%ED%86%B5%EB%8F%99/", "workingTime": ["-", "09:00~19:00", "09:00~19:00", "09:00~19:00", "09:00~19:00", "09:00~19:00", "09:00~13:00", "-"]}, {"name": "\uc0c8\ub85c\uc6b4\uc57d\uad6d", "lat": "37.2559361671782", "lng": "127.074734153872", "url": "/info/%EC%83%88%EB%A1%9C%EC%9A%B4%EC%95%BD%EA%B5%AD-%EA%B2%BD%EA%B8%B0%EB%8F%84-%EC%88%98%EC%9B%90%EC%8B%9C-%EC%98%81%ED%86%B5%EB%8F%99/", "workingTime": ["-", "09:00~18:00", "09:00~18:00", "09:00~13:00", "09:00~18:00", "09:00~18:00", "-", "-"]}, {"name": "\uba54\ub514\ud31c\uc6b0\ub9ac\ub4e4\uc57d\uad6d", "lat": "37.251751460984224", "lng": "127.0725224682032", "url": "/info/%EB%A9%94%EB%94%94%ED%8C%9C%EC%9A%B0%EB%A6%AC%EB%93%A4%EC%95%BD%EA%B5%AD-%EA%B2%BD%EA%B8%B0%EB%8F%84-%EC%88%98%EC%9B%90%EC%8B%9C-%EC%98%81%ED%86%B5%EB%8F%99/", "workingTime": ["1,2,3,4,5\uc9f8\uc8fc10:00~23:00", "10:00~23:00", "10:00~23:00", "10:00~23:00", "10:00~23:00", "10:00~23:00", "10:00~23:00", "-"]}, {"name": "\uba54\ub514\ud31c\ub2e4\uc19c\uc57d\uad6d", "lat": "37.26668482453558", "lng": "127.08162361048352", "url": "/info/%EB%A9%94%EB%94%94%ED%8C%9C%EB%8B%A4%EC%86%9C%EC%95%BD%EA%B5%AD-%EA%B2%BD%EA%B8%B0%EB%8F%84-%EC%88%98%EC%9B%90%EC%8B%9C-%EC%98%81%ED%86%B5%EB%8F%99/", "workingTime": ["-", "09:00~20:00", "09:00~20:00", "09:00~20:00", "09:00~20:00", "09:00~20:00", "09:00~16:00", "-"]}, {"name": "\ub2e4\uc6d0\uc57d\uad6d", "lat": "37.250628875332694", "lng": "127.06407387283396", "url": "/info/%EB%8B%A4%EC%9B%90%EC%95%BD%EA%B5%AD-%EA%B2%BD%EA%B8%B0%EB%8F%84-%EC%88%98%EC%9B%90%EC%8B%9C-%EC%98%81%ED%86%B5%EB%8F%99/", "workingTime": ["-", "08:30~19:00", "08:30~19:00", "08:30~19:00", "08:30~19:00", "08:30~19:00", "08:30~16:00", "-"]}, {"name": "\uc544\uc774\ub9d8\uc57d\uad6d", "lat": "37.26652375542015", "lng": "127.08107447679922", "url": "/info/%EC%95%84%EC%9D%B4%EB%A7%98%EC%95%BD%EA%B5%AD-%EA%B2%BD%EA%B8%B0%EB%8F%84-%EC%88%98%EC%9B%90%EC%8B%9C-%EC%98%81%ED%86%B5%EB%8F%99/", "workingTime": ["-", "09:00~20:00", "09:00~20:00", "09:00~20:00", "09:00~20:00", "09:00~20:00", "09:00~16:00", "-"]}, {"name": "\uc6d0\uad11\ud55c\uc57d\uad6d", "lat": "37.25194570272443", "lng": "127.0743817959855", "url": "/info/%EC%9B%90%EA%B4%91%ED%95%9C%EC%95%BD%EA%B5%AD-%EA%B2%BD%EA%B8%B0%EB%8F%84-%EC%88%98%EC%9B%90%EC%8B%9C-%EC%98%81%ED%86%B5%EB%8F%99/", "workingTime": ["-", "09:30~19:30", "09:30~19:30", "09:30~19:30", "09:30~19:30", "09:30~19:30", "-", "-"]}, {"name": "\uc9c4\uc57d\uad6d", "lat": "37.24860849931086", "lng": "127.06659076178394", "url": "/info/%EC%A7%84%EC%95%BD%EA%B5%AD-%EA%B2%BD%EA%B8%B0%EB%8F%84-%EC%88%98%EC%9B%90%EC%8B%9C-%EC%98%81%ED%86%B5%EB%8F%99/", "workingTime": ["-", "09:00~19:30", "09:00~19:30", "09:00~19:30", "09:00~19:30", "09:00~19:30", "09:00~17:00", "-"]}, {"name": "\ud55c\ub9bc\uc57d\uad6d", "lat": "37.267419073800006", "lng": "127.0830809947", "url": "/info/%ED%95%9C%EB%A6%BC%EC%95%BD%EA%B5%AD-%EA%B2%BD%EA%B8%B0%EB%8F%84-%EC%88%98%EC%9B%90%EC%8B%9C-%EC%98%81%ED%86%B5%EB%8F%99/", "workingTime": ["-", "09:00~20:00", "09:00~20:00", "09:00~20:00", "09:00~20:00", "09:00~20:00", "09:00~16:00", "-"]}, {"name": "\uc601\ud1b5\uc8fc\ubbfc\uc57d\uad6d", "lat": "37.260133738978325", "lng": "127.07531857089803", "url": "/info/%EC%98%81%ED%86%B5%EC%A3%BC%EB%AF%BC%EC%95%BD%EA%B5%AD-%EA%B2%BD%EA%B8%B0%EB%8F%84-%EC%88%98%EC%9B%90%EC%8B%9C-%EC%98%81%ED%86%B5%EB%8F%99/", "workingTime": ["-", "09:00~20:00", "09:00~20:00", "09:00~20:00", "09:00~20:00", "09:00~20:00", "09:00~18:00", "-"]}, {"name": "\uc774\uce35\uc57d\uad6d", "lat": "37.255934544244866", "lng": "127.07473584312541", "url": "/info/%EC%9D%B4%EC%B8%B5%EC%95%BD%EA%B5%AD-%EA%B2%BD%EA%B8%B0%EB%8F%84-%EC%88%98%EC%9B%90%EC%8B%9C-%EC%98%81%ED%86%B5%EB%8F%99/", "workingTime": ["-", "09:00~21:00", "09:00~21:00", "09:00~21:00", "09:00~21:00", "09:00~21:00", "-", "-"]}, {"name": "\uc2e0\ub098\ubb34\uc2e4\uc57d\uad6d", "lat": "37.25353627481246", "lng": "127.06620892564379", "url": "/info/%EC%8B%A0%EB%82%98%EB%AC%B4%EC%8B%A4%EC%95%BD%EA%B5%AD-%EA%B2%BD%EA%B8%B0%EB%8F%84-%EC%88%98%EC%9B%90%EC%8B%9C-%EC%98%81%ED%86%B5%EB%8F%99/", "workingTime": ["-", "09:00~19:00", "09:00~19:00", "09:00~19:00", "09:00~19:00", "09:00~19:00", "09:00~14:00", "-"]}, {"name": "\ud0dc\uc7a5\uc628\ub204\ub9ac\uc57d\uad6d", "lat": "37.24614535563772", "lng": "127.0554980136298", "url": "/info/%ED%83%9C%EC%9E%A5%EC%98%A8%EB%88%84%EB%A6%AC%EC%95%BD%EA%B5%AD-%EA%B2%BD%EA%B8%B0%EB%8F%84-%EC%88%98%EC%9B%90%EC%8B%9C-%EC%98%81%ED%86%B5%EB%8F%99/", "workingTime": ["09:00~11:00(\uc5f0\ub77d\ud6c4\ubc29\ubb38\uc694\ub9dd)", "08:00~19:00", "08:00~19:00", "08:00~19:00", "08:00~19:00", "08:00~19:00", "08:00~16:00", "-"]}, {"name": "\uc601\ud1b5\uc911\uc559\uc57d\uad6d", "lat": "37.252767268050945", "lng": "127.0734477377373", "url": "/info/%EC%98%81%ED%86%B5%EC%A4%91%EC%95%99%EC%95%BD%EA%B5%AD-%EA%B2%BD%EA%B8%B0%EB%8F%84-%EC%88%98%EC%9B%90%EC%8B%9C-%EC%98%81%ED%86%B5%EB%8F%99/", "workingTime": ["-", "09:00~19:30", "09:00~19:30", "09:00~19:30", "09:00~19:30", "09:00~19:30", "09:00~17:30", "-"]}, {"name": "\uc2dc\uc628\ub204\ub9ac\uc57d\uad6d", "lat": "37.2529348729", "lng": "127.0763019321", "url": "/info/%EC%8B%9C%EC%98%A8%EB%88%84%EB%A6%AC%EC%95%BD%EA%B5%AD-%EA%B2%BD%EA%B8%B0%EB%8F%84-%EC%88%98%EC%9B%90%EC%8B%9C-%EC%98%81%ED%86%B5%EB%8F%99/", "workingTime": ["-", "09:00~22:00", "09:00~22:00", "09:00~22:00", "09:00~22:00", "09:00~22:00", "-", "-"]}, {"name": "\uccad\uba85\uc628\ub204\ub9ac\uc57d\uad6d", "lat": "37.25243970854933", "lng": "127.0739945230469", "url": "/info/%EC%B2%AD%EB%AA%85%EC%98%A8%EB%88%84%EB%A6%AC%EC%95%BD%EA%B5%AD-%EA%B2%BD%EA%B8%B0%EB%8F%84-%EC%88%98%EC%9B%90%EC%8B%9C-%EC%98%81%ED%86%B5%EB%8F%99/", "workingTime": ["-", "09:00~19:00", "09:00~19:00", "09:00~19:00", "09:00~19:00", "09:00~19:00", "09:00~16:00", "-"]}, {"name": "\ud669\uace8\uc628\ub204\ub9ac\uc57d\uad6d", "lat": "37.264125700415434", "lng": "127.0775726580124", "url": "/info/%ED%99%A9%EA%B3%A8%EC%98%A8%EB%88%84%EB%A6%AC%EC%95%BD%EA%B5%AD-%EA%B2%BD%EA%B8%B0%EB%8F%84-%EC%88%98%EC%9B%90%EC%8B%9C-%EC%98%81%ED%86%B5%EB%8F%99/", "workingTime": ["09:00~12:00(\uc5f0\ub77d\ud6c4\ubc29\ubb38\uc694\ub9dd)", "09:00~20:30", "09:00~20:30", "09:00~20:30", "09:00~20:30", "09:00~20:30", "09:00~16:00", "09:00~12:30"]}, {"name": "\ud478\ub978\ub098\ubb34 \ud55c\uc57d\uad6d", "lat": "37.25276883430001", "lng": "127.0709002696", "url": "/info/%ED%91%B8%EB%A5%B8%EB%82%98%EB%AC%B4+%ED%95%9C%EC%95%BD%EA%B5%AD-%EA%B2%BD%EA%B8%B0%EB%8F%84-%EC%88%98%EC%9B%90%EC%8B%9C-%EC%98%81%ED%86%B5%EB%8F%99/", "workingTime": ["-", "09:00~19:00", "09:00~19:00", "09:00~19:00", "09:00~19:00", "09:00~19:00", "09:00~17:00", "-"]}, {"name": "\uba54\ub514\uce7c\uc218\uc57d\uad6d", "lat": "37.2525632464", "lng": "127.0769147471", "url": "/info/%EB%A9%94%EB%94%94%EC%B9%BC%EC%88%98%EC%95%BD%EA%B5%AD-%EA%B2%BD%EA%B8%B0%EB%8F%84-%EC%88%98%EC%9B%90%EC%8B%9C-%EC%98%81%ED%86%B5%EB%8F%99/", "workingTime": ["-", "09:00~22:00", "09:00~22:00", "09:00~22:00", "09:00~22:00", "09:00~22:00", "09:00~21:00", "-"]}, {"name": "\uc774\ub808\uc57d\uad6d", "lat": "37.2462164627", "lng": "127.0575718963", "url": "/info/%EC%9D%B4%EB%A0%88%EC%95%BD%EA%B5%AD-%EA%B2%BD%EA%B8%B0%EB%8F%84-%EC%88%98%EC%9B%90%EC%8B%9C-%EC%98%81%ED%86%B5%EB%8F%99/", "workingTime": ["-", "09:30~20:00", "09:30~19:00", "09:30~19:00", "09:30~19:00", "09:30~20:00", "09:30~15:00", "-"]}, {"name": "\uc601\ud1b5 \ubbf8\uc18c\uc57d\uad6d", "lat": "37.25232549389039", "lng": "127.07672513858873", "url": "/info/%EC%98%81%ED%86%B5+%EB%AF%B8%EC%86%8C%EC%95%BD%EA%B5%AD-%EA%B2%BD%EA%B8%B0%EB%8F%84-%EC%88%98%EC%9B%90%EC%8B%9C-%EC%98%81%ED%86%B5%EB%8F%99/", "workingTime": ["-", "09:00~19:00", "09:00~19:00", "09:00~19:00", "09:00~19:00", "09:00~19:00", "09:00~18:00", "-"]}, {"name": "\ud2bc\ud2bc\uc57d\uad6d", "lat": "37.24657684930631", "lng": "127.05760825750164", "url": "/info/%ED%8A%BC%ED%8A%BC%EC%95%BD%EA%B5%AD-%EA%B2%BD%EA%B8%B0%EB%8F%84-%EC%88%98%EC%9B%90%EC%8B%9C-%EC%98%81%ED%86%B5%EB%8F%99/", "workingTime": ["-", "09:00~18:30", "09:00~18:30", "09:00~18:30", "09:00~18:30", "09:00~18:30", "09:00~14:00", "-"]}, {"name": "\ub4dc\ub9bc\ud53c\uc544\uc57d\uad6d", "lat": "37.255934544244866", "lng": "127.07473584312541", "url": "/info/%EB%93%9C%EB%A6%BC%ED%94%BC%EC%95%84%EC%95%BD%EA%B5%AD-%EA%B2%BD%EA%B8%B0%EB%8F%84-%EC%88%98%EC%9B%90%EC%8B%9C-%EC%98%81%ED%86%B5%EB%8F%99/", "workingTime": ["-", "09:00~19:00", "09:00~19:00", "09:00~19:00", "09:00~19:00", "09:00~19:00", "-", "-"]}, {"name": "\uc870\uc740\uc57d\uad6d", "lat": "37.246234364559186", "lng": "127.05778833165894", "url": "/info/%EC%A1%B0%EC%9D%80%EC%95%BD%EA%B5%AD-%EA%B2%BD%EA%B8%B0%EB%8F%84-%EC%88%98%EC%9B%90%EC%8B%9C-%EC%98%81%ED%86%B5%EB%8F%99/", "workingTime": ["-", "09:00~19:00", "09:00~19:00", "09:00~19:00", "09:00~19:00", "09:00~19:00", "09:00~16:00", "-"]}, {"name": "\uad7f\ubaa8\ub2dd\uc57d\uad6d", "lat": "37.25161291477628", "lng": "127.07506974616754", "url": "/info/%EA%B5%BF%EB%AA%A8%EB%8B%9D%EC%95%BD%EA%B5%AD-%EA%B2%BD%EA%B8%B0%EB%8F%84-%EC%88%98%EC%9B%90%EC%8B%9C-%EC%98%81%ED%86%B5%EB%8F%99/", "workingTime": ["10:00~22:00(\uc5f0\ub77d\ud6c4\ubc29\ubb38\uc694\ub9dd)", "09:30~22:00", "09:30~22:00", "09:30~22:00", "09:30~22:00", "09:30~22:00", "09:30~22:00", "-"]}, {"name": "\uc2dc\ud2f0\uc57d\uad6d", "lat": "37.25388391364418", "lng": "127.07448585193231", "url": "/info/%EC%8B%9C%ED%8B%B0%EC%95%BD%EA%B5%AD-%EA%B2%BD%EA%B8%B0%EB%8F%84-%EC%88%98%EC%9B%90%EC%8B%9C-%EC%98%81%ED%86%B5%EB%8F%99/", "workingTime": ["-", "09:00~19:00", "09:00~19:00", "09:00~19:00", "09:00~19:00", "09:00~19:00", "-", "-"]}, {"name": "\ud0a4\ub77c\uc57d\uad6d", "lat": "37.25593094656422", "lng": "127.07470429688374", "url": "/info/%ED%82%A4%EB%9D%BC%EC%95%BD%EA%B5%AD-%EA%B2%BD%EA%B8%B0%EB%8F%84-%EC%88%98%EC%9B%90%EC%8B%9C-%EC%98%81%ED%86%B5%EB%8F%99/", "workingTime": ["-", "09:00~18:30", "09:00~18:30", "09:00~18:30", "09:00~18:30", "09:00~18:30", "-", "-"]}]