[{"name": "\uc77c\uc0b0\uc544\uc774\uc57d\uad6d", "lat": "37.6729571866", "lng": "126.7779987911", "url": "/info/%EC%9D%BC%EC%82%B0%EC%95%84%EC%9D%B4%EC%95%BD%EA%B5%AD-%EA%B2%BD%EA%B8%B0%EB%8F%84-%EA%B3%A0%EC%96%91%EC%8B%9C-%EC%A0%95%EB%B0%9C%EC%82%B0%EB%8F%99/", "workingTime": ["1,2,3,4,5\uc9f8\uc8fc09:00~13:00", "09:00~21:00", "09:00~21:00", "09:00~21:00", "09:00~21:00", "09:00~21:00", "09:00~18:00", "09:00~13:00"]}, {"name": "\uc724\uc57d\uad6d", "lat": "37.67366741726757", "lng": "126.77772462205539", "url": "/info/%EC%9C%A4%EC%95%BD%EA%B5%AD-%EA%B2%BD%EA%B8%B0%EB%8F%84-%EA%B3%A0%EC%96%91%EC%8B%9C-%EC%A0%95%EB%B0%9C%EC%82%B0%EB%8F%99/", "workingTime": ["-", "09:00~21:00", "09:00~21:00", "09:00~21:00", "09:00~21:00", "09:00~21:00", "09:00~16:00", "-"]}, {"name": "\ub3d9\uc758\uc0d8\ubb3c\uc57d\uad6d", "lat": "37.67052100764734", "lng": "126.77329647417112", "url": "/info/%EB%8F%99%EC%9D%98%EC%83%98%EB%AC%BC%EC%95%BD%EA%B5%AD-%EA%B2%BD%EA%B8%B0%EB%8F%84-%EA%B3%A0%EC%96%91%EC%8B%9C-%EC%A0%95%EB%B0%9C%EC%82%B0%EB%8F%99/", "workingTime": ["1,2,3,4,5\uc9f8\uc8fc09:00~12:00", "09:00~22:00", "09:00~22:00", "09:00~22:00", "09:00~22:00", "09:00~22:00", "09:00~22:00", "09:00~22:00"]}, {"name": "\uacbd\ud76c\ucc38\ud55c\uc57d\uad6d", "lat": "37.6711657628818", "lng": "126.773679990584", "url": "/info/%EA%B2%BD%ED%9D%AC%EC%B0%B8%ED%95%9C%EC%95%BD%EA%B5%AD-%EA%B2%BD%EA%B8%B0%EB%8F%84-%EA%B3%A0%EC%96%91%EC%8B%9C-%EC%A0%95%EB%B0%9C%EC%82%B0%EB%8F%99/", "workingTime": ["-", "10:00~19:00", "10:00~19:00", "10:00~19:00", "10:00~19:00", "10:00~19:00", "-", "-"]}, {"name": "\ubc14\ub85c\uc57d\uad6d", "lat": "37.67353566049025", "lng": "126.77666404948201", "url": "/info/%EB%B0%94%EB%A1%9C%EC%95%BD%EA%B5%AD-%EA%B2%BD%EA%B8%B0%EB%8F%84-%EA%B3%A0%EC%96%91%EC%8B%9C-%EC%A0%95%EB%B0%9C%EC%82%B0%EB%8F%99/", "workingTime": ["-", "09:00~20:00", "09:00~20:00", "09:00~20:00", "09:00~20:00", "09:00~20:00", "09:00~16:00", "-"]}, {"name": "\uc720\uc2b9\uc57d\uad6d", "lat": "37.6740435856", "lng": "126.7769481725", "url": "/info/%EC%9C%A0%EC%8A%B9%EC%95%BD%EA%B5%AD-%EA%B2%BD%EA%B8%B0%EB%8F%84-%EA%B3%A0%EC%96%91%EC%8B%9C-%EC%A0%95%EB%B0%9C%EC%82%B0%EB%8F%99/", "workingTime": ["-", "09:00~14:00", "09:00~14:00", "09:00~14:00", "09:00~14:00", "09:00~14:00", "-", "-"]}]