[{"name": "\ub2e4\uc0b0\uc57d\uad6d", "lat": "37.48444256559671", "lng": "126.7934997411489", "url": "/info/%EB%8B%A4%EC%82%B0%EC%95%BD%EA%B5%AD-%EA%B2%BD%EA%B8%B0%EB%8F%84-%EB%B6%80%EC%B2%9C%EC%8B%9C-%EC%86%8C%EC%82%AC%EB%8F%99/", "workingTime": ["1,2,3,4,5\uc9f8\uc8fc10:00~18:00", "09:00~20:00", "09:00~20:00", "09:00~20:00", "09:00~20:00", "09:00~20:00", "09:00~20:00", "10:00~18:00"]}, {"name": "\uc885\ub85c\uc57d\uad6d", "lat": "37.47315453718083", "lng": "126.80386095613454", "url": "/info/%EC%A2%85%EB%A1%9C%EC%95%BD%EA%B5%AD-%EA%B2%BD%EA%B8%B0%EB%8F%84-%EB%B6%80%EC%B2%9C%EC%8B%9C-%EC%86%8C%EC%82%AC%EB%8F%99/", "workingTime": ["1,2,3,4,5\uc9f8\uc8fc10:00~20:00", "09:00~21:00", "09:00~21:00", "09:00~21:00", "09:00~21:00", "09:00~21:00", "09:00~21:00", "10:00~20:00"]}, {"name": "\uba54\ub514\ud31c\uc131\ubaa8\uc57d\uad6d", "lat": "37.48609457051106", "lng": "126.79161460547277", "url": "/info/%EB%A9%94%EB%94%94%ED%8C%9C%EC%84%B1%EB%AA%A8%EC%95%BD%EA%B5%AD-%EA%B2%BD%EA%B8%B0%EB%8F%84-%EB%B6%80%EC%B2%9C%EC%8B%9C-%EC%86%8C%EC%82%AC%EB%8F%99/", "workingTime": ["-", "08:30~18:30", "08:30~18:30", "08:30~18:30", "08:30~18:30", "08:30~18:30", "-", "-"]}, {"name": "\uc628\ub204\ub9ac\uc131\ubaa8\uc57d\uad6d", "lat": "37.48632492371782", "lng": "126.79246537377483", "url": "/info/%EC%98%A8%EB%88%84%EB%A6%AC%EC%84%B1%EB%AA%A8%EC%95%BD%EA%B5%AD-%EA%B2%BD%EA%B8%B0%EB%8F%84-%EB%B6%80%EC%B2%9C%EC%8B%9C-%EC%86%8C%EC%82%AC%EB%8F%99/", "workingTime": ["-", "08:00~18:30", "08:00~18:30", "08:00~18:30", "08:00~18:30", "08:00~18:30", "08:00~13:30", "-"]}, {"name": "\uc6b0\ub9ac\uc131\ubaa8\uc57d\uad6d", "lat": "37.48601600351966", "lng": "126.79202413110283", "url": "/info/%EC%9A%B0%EB%A6%AC%EC%84%B1%EB%AA%A8%EC%95%BD%EA%B5%AD-%EA%B2%BD%EA%B8%B0%EB%8F%84-%EB%B6%80%EC%B2%9C%EC%8B%9C-%EC%86%8C%EC%82%AC%EB%8F%99/", "workingTime": ["-", "08:15~18:15", "08:15~18:15", "08:15~18:15", "08:15~18:15", "08:15~18:15", "-", "-"]}, {"name": "\uc131\ubaa8\uc11c\uc6b8\uc57d\uad6d", "lat": "37.48629501739218", "lng": "126.79287587566421", "url": "/info/%EC%84%B1%EB%AA%A8%EC%84%9C%EC%9A%B8%EC%95%BD%EA%B5%AD-%EA%B2%BD%EA%B8%B0%EB%8F%84-%EB%B6%80%EC%B2%9C%EC%8B%9C-%EC%86%8C%EC%82%AC%EB%8F%99/", "workingTime": ["-", "08:00~13:00", "08:00~13:00", "08:00~13:00", "08:00~13:00", "08:00~13:00", "-", "-"]}, {"name": "\uc88b\uc740\uc6b0\ub9ac\uc57d\uad6d", "lat": "37.47286984310558", "lng": "126.80333376330574", "url": "/info/%EC%A2%8B%EC%9D%80%EC%9A%B0%EB%A6%AC%EC%95%BD%EA%B5%AD-%EA%B2%BD%EA%B8%B0%EB%8F%84-%EB%B6%80%EC%B2%9C%EC%8B%9C-%EC%86%8C%EC%82%AC%EB%8F%99/", "workingTime": ["-", "09:00~21:00", "09:00~21:00", "09:00~21:00", "09:00~21:00", "09:00~21:00", "09:00~02:00", "09:00~20:00"]}, {"name": "\uc18c\uc0ac\uc911\uc559\uc57d\uad6d", "lat": "37.48483342758282", "lng": "126.79238156894783", "url": "/info/%EC%86%8C%EC%82%AC%EC%A4%91%EC%95%99%EC%95%BD%EA%B5%AD-%EA%B2%BD%EA%B8%B0%EB%8F%84-%EB%B6%80%EC%B2%9C%EC%8B%9C-%EC%86%8C%EC%82%AC%EB%8F%99/", "workingTime": ["-", "09:00~21:30", "09:00~21:30", "09:00~21:30", "09:00~21:30", "09:00~21:30", "09:00~21:30", "-"]}, {"name": "\uc131\uac00\uba54\ub514\uce7c\uc57d\uad6d", "lat": "37.48583530512805", "lng": "126.79174196184249", "url": "/info/%EC%84%B1%EA%B0%80%EB%A9%94%EB%94%94%EC%B9%BC%EC%95%BD%EA%B5%AD-%EA%B2%BD%EA%B8%B0%EB%8F%84-%EB%B6%80%EC%B2%9C%EC%8B%9C-%EC%86%8C%EC%82%AC%EB%8F%99/", "workingTime": ["-", "09:00~14:00", "09:00~14:00", "09:00~14:00", "09:00~14:00", "09:00~14:00", "-", "-"]}, {"name": "\uc131\uac00\uc815\ubb38\uc57d\uad6d", "lat": "37.486166475157745", "lng": "126.79151490540889", "url": "/info/%EC%84%B1%EA%B0%80%EC%A0%95%EB%AC%B8%EC%95%BD%EA%B5%AD-%EA%B2%BD%EA%B8%B0%EB%8F%84-%EB%B6%80%EC%B2%9C%EC%8B%9C-%EC%86%8C%EC%82%AC%EB%8F%99/", "workingTime": ["-", "08:30~19:00", "08:30~19:00", "08:30~19:00", "08:30~19:00", "08:30~19:00", "08:30~14:00", "-"]}, {"name": "\uc628\ub204\ub9ac\uc131\ubaa8\uc57d\uad6d", "lat": "37.4863140103832", "lng": "126.79240773887942", "url": "/info/%EC%98%A8%EB%88%84%EB%A6%AC%EC%84%B1%EB%AA%A8%EC%95%BD%EA%B5%AD-%EA%B2%BD%EA%B8%B0%EB%8F%84-%EB%B6%80%EC%B2%9C%EC%8B%9C-%EC%86%8C%EC%82%AC%EB%8F%99/", "workingTime": ["-", "08:00~19:00", "08:00~19:00", "08:00~19:00", "08:00~19:00", "08:00~19:00", "08:00~14:00", "-"]}]