[{"name": "\ucd5c\uc774\ub300\ud559\uc57d\uad6d", "lat": "37.281838189835", "lng": "127.432974501379", "url": "/info/%EC%B5%9C%EC%9D%B4%EB%8C%80%ED%95%99%EC%95%BD%EA%B5%AD-%EA%B2%BD%EA%B8%B0%EB%8F%84-%EC%9D%B4%EC%B2%9C%EC%8B%9C-%EA%B4%80%EA%B3%A0%EB%8F%99/", "workingTime": ["-", "08:30~18:30", "08:30~18:30", "08:30~18:30", "08:30~18:30", "08:30~18:30", "-", "-"]}, {"name": "\uc774\ucc9c\uc628\ub204\ub9ac\uc57d\uad6d", "lat": "37.2815567840481", "lng": "127.439287622395", "url": "/info/%EC%9D%B4%EC%B2%9C%EC%98%A8%EB%88%84%EB%A6%AC%EC%95%BD%EA%B5%AD-%EA%B2%BD%EA%B8%B0%EB%8F%84-%EC%9D%B4%EC%B2%9C%EC%8B%9C-%EA%B4%80%EA%B3%A0%EB%8F%99/", "workingTime": ["-", "09:00~20:00", "09:00~20:00", "09:00~20:00", "09:00~20:00", "09:00~20:00", "09:00~19:00", "-"]}, {"name": "\uac00\uae4c\uc6b4\ub300\ud559\uc57d\uad6d", "lat": "37.28305762016824", "lng": "127.43529121845226", "url": "/info/%EA%B0%80%EA%B9%8C%EC%9A%B4%EB%8C%80%ED%95%99%EC%95%BD%EA%B5%AD-%EA%B2%BD%EA%B8%B0%EB%8F%84-%EC%9D%B4%EC%B2%9C%EC%8B%9C-%EA%B4%80%EA%B3%A0%EB%8F%99/", "workingTime": ["-", "08:30~18:00", "08:30~18:00", "08:30~18:00", "08:30~18:00", "08:30~18:00", "-", "-"]}, {"name": "\ub3d9\uc131\uc57d\uad6d", "lat": "37.28195636732551", "lng": "127.43972770566657", "url": "/info/%EB%8F%99%EC%84%B1%EC%95%BD%EA%B5%AD-%EA%B2%BD%EA%B8%B0%EB%8F%84-%EC%9D%B4%EC%B2%9C%EC%8B%9C-%EA%B4%80%EA%B3%A0%EB%8F%99/", "workingTime": ["-", "08:30~18:00", "08:30~18:00", "08:30~18:00", "08:30~18:00", "08:30~18:00", "09:00~20:00", "-"]}, {"name": "\uc0c8\uc774\ucc9c\uc57d\uad6d", "lat": "37.282114574077255", "lng": "127.43298546399683", "url": "/info/%EC%83%88%EC%9D%B4%EC%B2%9C%EC%95%BD%EA%B5%AD-%EA%B2%BD%EA%B8%B0%EB%8F%84-%EC%9D%B4%EC%B2%9C%EC%8B%9C-%EA%B4%80%EA%B3%A0%EB%8F%99/", "workingTime": ["-", "08:30~18:00", "08:30~18:00", "08:30~18:00", "08:30~18:00", "08:30~18:00", "-", "-"]}]