[{"name": "\ub3d9\uc0b0\uc57d\uad6d", "lat": "36.9451074833", "lng": "127.0518929867", "url": "/info/%EB%8F%99%EC%82%B0%EC%95%BD%EA%B5%AD-%EA%B2%BD%EA%B8%B0%EB%8F%84-%ED%8F%89%ED%83%9D%EC%8B%9C-%ED%8C%BD%EC%84%B1%EC%9D%8D/", "workingTime": ["08:00~21:00(\uc5f0\ub77d\ud6c4\ubc29\ubb38\uc694\ub9dd)", "08:00~21:00", "08:00~21:00", "08:00~21:00", "08:00~21:00", "08:00~21:00", "08:00~21:00", "-"]}, {"name": "\uc548\uc815\uc57d\uad6d", "lat": "36.96103712299362", "lng": "127.047093415851", "url": "/info/%EC%95%88%EC%A0%95%EC%95%BD%EA%B5%AD-%EA%B2%BD%EA%B8%B0%EB%8F%84-%ED%8F%89%ED%83%9D%EC%8B%9C-%ED%8C%BD%EC%84%B1%EC%9D%8D/", "workingTime": ["-", "09:00~15:00", "09:00~15:00", "09:00~15:00", "09:00~15:00", "09:00~15:00", "09:00~15:00", "-"]}, {"name": "\uc2e0\uc9c4\uc57d\uad6d", "lat": "36.96110924562741", "lng": "127.04700363015222", "url": "/info/%EC%8B%A0%EC%A7%84%EC%95%BD%EA%B5%AD-%EA%B2%BD%EA%B8%B0%EB%8F%84-%ED%8F%89%ED%83%9D%EC%8B%9C-%ED%8C%BD%EC%84%B1%EC%9D%8D/", "workingTime": ["-", "09:00~19:30", "09:00~19:30", "09:00~19:30", "09:00~19:30", "09:00~19:30", "09:00~15:00", "-"]}, {"name": "\ubc14\ub978\uc190\uc57d\uad6d", "lat": "36.961250000000000", "lng": "127.046705555555562", "url": "/info/%EB%B0%94%EB%A5%B8%EC%86%90%EC%95%BD%EA%B5%AD-%EA%B2%BD%EA%B8%B0%EB%8F%84-%ED%8F%89%ED%83%9D%EC%8B%9C-%ED%8C%BD%EC%84%B1%EC%9D%8D/", "workingTime": ["-", "09:00~20:30", "09:00~20:30", "09:00~20:30", "09:00~20:30", "09:00~20:30", "09:00~19:00", "09:00~19:00"]}, {"name": "\ud55c\ub9c8\uc74c\uc57d\uad6d", "lat": "36.96446605195257", "lng": "127.0603909680979", "url": "/info/%ED%95%9C%EB%A7%88%EC%9D%8C%EC%95%BD%EA%B5%AD-%EA%B2%BD%EA%B8%B0%EB%8F%84-%ED%8F%89%ED%83%9D%EC%8B%9C-%ED%8C%BD%EC%84%B1%EC%9D%8D/", "workingTime": ["12:00~17:00(\uc5f0\ub77d\ud6c4\ubc29\ubb38\uc694\ub9dd)", "09:00~21:00", "09:00~21:00", "09:00~21:00", "09:00~21:00", "09:00~21:00", "09:00~20:00", "09:00~12:00"]}, {"name": "\uc0ac\ub791\uc628\ub204\ub9ac\uc57d\uad6d", "lat": "36.96323698886978", "lng": "127.05873098093755", "url": "/info/%EC%82%AC%EB%9E%91%EC%98%A8%EB%88%84%EB%A6%AC%EC%95%BD%EA%B5%AD-%EA%B2%BD%EA%B8%B0%EB%8F%84-%ED%8F%89%ED%83%9D%EC%8B%9C-%ED%8C%BD%EC%84%B1%EC%9D%8D/", "workingTime": ["-", "09:00~14:00", "09:00~14:00", "09:00~14:00", "09:00~14:00", "09:00~14:00", "09:00~14:00", "-"]}, {"name": "\uc218\uc815\uc57d\uad6d", "lat": "36.96085722326272", "lng": "127.04628483668418", "url": "/info/%EC%88%98%EC%A0%95%EC%95%BD%EA%B5%AD-%EA%B2%BD%EA%B8%B0%EB%8F%84-%ED%8F%89%ED%83%9D%EC%8B%9C-%ED%8C%BD%EC%84%B1%EC%9D%8D/", "workingTime": ["-", "09:00~21:00", "09:00~21:00", "09:00~21:00", "09:00~21:00", "09:00~21:00", "09:00~20:30", "09:00~22:00"]}]