[{"name": "\uc2e0\ud765\uc81c\uc77c\uc57d\uad6d", "lat": "37.442466581056", "lng": "127.150604106193", "url": "/info/%EC%8B%A0%ED%9D%A5%EC%A0%9C%EC%9D%BC%EC%95%BD%EA%B5%AD-%EA%B2%BD%EA%B8%B0%EB%8F%84-%EC%84%B1%EB%82%A8%EC%8B%9C-%EC%8B%A0%ED%9D%A5%EB%8F%99/", "workingTime": ["-", "09:00~18:00", "09:00~18:00", "09:00~18:00", "09:00~18:00", "09:00~18:00", "-", "-"]}, {"name": "\ud3ec\ub808\uc2a4\ud2f0\uc544\ud2bc\ud2bc\uc57d\uad6d", "lat": "37.4510900877003", "lng": "127.147173393044", "url": "/info/%ED%8F%AC%EB%A0%88%EC%8A%A4%ED%8B%B0%EC%95%84%ED%8A%BC%ED%8A%BC%EC%95%BD%EA%B5%AD-%EA%B2%BD%EA%B8%B0%EB%8F%84-%EC%84%B1%EB%82%A8%EC%8B%9C-%EC%8B%A0%ED%9D%A5%EB%8F%99/", "workingTime": ["-", "09:00~19:00", "09:00~19:00", "09:00~19:00", "09:00~19:00", "09:00~19:00", "09:00~14:00", "-"]}, {"name": "\uc2e0\ud765\uc720\uba85\uc57d\uad6d", "lat": "37.4424780197555", "lng": "127.142990106993", "url": "/info/%EC%8B%A0%ED%9D%A5%EC%9C%A0%EB%AA%85%EC%95%BD%EA%B5%AD-%EA%B2%BD%EA%B8%B0%EB%8F%84-%EC%84%B1%EB%82%A8%EC%8B%9C-%EC%8B%A0%ED%9D%A5%EB%8F%99/", "workingTime": ["-", "09:00~18:00", "09:00~18:00", "09:00~18:00", "09:00~18:00", "09:00~18:00", "09:00~13:00", "-"]}, {"name": "\ub86f\ub370\uc2dc\ub124\ub9c8\uc57d\uad6d", "lat": "37.4413240031714", "lng": "127.146446763662", "url": "/info/%EB%A1%AF%EB%8D%B0%EC%8B%9C%EB%84%A4%EB%A7%88%EC%95%BD%EA%B5%AD-%EA%B2%BD%EA%B8%B0%EB%8F%84-%EC%84%B1%EB%82%A8%EC%8B%9C-%EC%8B%A0%ED%9D%A5%EB%8F%99/", "workingTime": ["-", "09:00~19:00", "09:00~19:00", "09:00~19:00", "09:00~19:00", "09:00~19:00", "09:00~13:00", "-"]}, {"name": "\ub3d9\uc7ac\uc57d\uad6d", "lat": "37.439408926399025", "lng": "127.14511423822128", "url": "/info/%EB%8F%99%EC%9E%AC%EC%95%BD%EA%B5%AD-%EA%B2%BD%EA%B8%B0%EB%8F%84-%EC%84%B1%EB%82%A8%EC%8B%9C-%EC%8B%A0%ED%9D%A5%EB%8F%99/", "workingTime": ["-", "09:00~20:30", "09:00~20:30", "09:00~20:30", "09:00~20:30", "09:00~20:30", "-", "-"]}, {"name": "\uc138\uc774\ube0c\uc874\uac74\uac15\ud55c\uc57d\uad6d", "lat": "37.4439101761843", "lng": "127.153483203965", "url": "/info/%EC%84%B8%EC%9D%B4%EB%B8%8C%EC%A1%B4%EA%B1%B4%EA%B0%95%ED%95%9C%EC%95%BD%EA%B5%AD-%EA%B2%BD%EA%B8%B0%EB%8F%84-%EC%84%B1%EB%82%A8%EC%8B%9C-%EC%8B%A0%ED%9D%A5%EB%8F%99/", "workingTime": ["-", "09:00~18:00", "09:00~18:00", "09:00~18:00", "09:00~18:00", "09:00~18:00", "-", "-"]}, {"name": "\uc774\uce35\uc57d\uad6d", "lat": "37.4389606016971", "lng": "127.142274806185", "url": "/info/%EC%9D%B4%EC%B8%B5%EC%95%BD%EA%B5%AD-%EA%B2%BD%EA%B8%B0%EB%8F%84-%EC%84%B1%EB%82%A8%EC%8B%9C-%EC%8B%A0%ED%9D%A5%EB%8F%99/", "workingTime": ["-", "09:00~18:00", "09:00~18:00", "09:00~18:00", "09:00~18:00", "09:00~18:00", "-", "-"]}, {"name": "\uc18c\ub2f4\uc57d\uad6d", "lat": "37.4407917335656", "lng": "127.145677436912", "url": "/info/%EC%86%8C%EB%8B%B4%EC%95%BD%EA%B5%AD-%EA%B2%BD%EA%B8%B0%EB%8F%84-%EC%84%B1%EB%82%A8%EC%8B%9C-%EC%8B%A0%ED%9D%A5%EB%8F%99/", "workingTime": ["-", "09:00~18:00", "09:00~18:00", "09:00~18:00", "09:00~18:00", "09:00~18:00", "-", "-"]}, {"name": "\uc218\uc815\uc774\ud654\uc57d\uad6d", "lat": "37.44440938881191", "lng": "127.14362141665293", "url": "/info/%EC%88%98%EC%A0%95%EC%9D%B4%ED%99%94%EC%95%BD%EA%B5%AD-%EA%B2%BD%EA%B8%B0%EB%8F%84-%EC%84%B1%EB%82%A8%EC%8B%9C-%EC%8B%A0%ED%9D%A5%EB%8F%99/", "workingTime": ["-", "09:00~19:00", "09:00~19:00", "09:00~19:00", "09:00~19:00", "09:00~19:00", "09:00~14:00", "-"]}, {"name": "\ud0dc\uc601\uc57d\uad6d", "lat": "37.4433289304", "lng": "127.1516697689", "url": "/info/%ED%83%9C%EC%98%81%EC%95%BD%EA%B5%AD-%EA%B2%BD%EA%B8%B0%EB%8F%84-%EC%84%B1%EB%82%A8%EC%8B%9C-%EC%8B%A0%ED%9D%A5%EB%8F%99/", "workingTime": ["-", "09:00~20:00", "09:00~20:00", "09:00~20:00", "09:00~20:00", "09:00~20:00", "09:00~17:00", "-"]}, {"name": "\ud0dc\ud3c9\uc591\uc57d\uad6d", "lat": "37.44285397268068", "lng": "127.139319812119", "url": "/info/%ED%83%9C%ED%8F%89%EC%96%91%EC%95%BD%EA%B5%AD-%EA%B2%BD%EA%B8%B0%EB%8F%84-%EC%84%B1%EB%82%A8%EC%8B%9C-%EC%8B%A0%ED%9D%A5%EB%8F%99/", "workingTime": ["-", "09:00~21:00", "09:00~21:00", "09:00~21:00", "09:00~21:00", "09:00~21:00", "-", "-"]}, {"name": "\ubbf8\ub798\uc5f4\ub9b0\uc57d\uad6d", "lat": "37.43966271396968", "lng": "127.14372986327578", "url": "/info/%EB%AF%B8%EB%9E%98%EC%97%B4%EB%A6%B0%EC%95%BD%EA%B5%AD-%EA%B2%BD%EA%B8%B0%EB%8F%84-%EC%84%B1%EB%82%A8%EC%8B%9C-%EC%8B%A0%ED%9D%A5%EB%8F%99/", "workingTime": ["-", "09:00~21:00", "09:00~21:00", "09:00~21:00", "09:00~21:00", "09:00~20:00", "09:00~17:00", "-"]}, {"name": "\uc0b0\uc131\uc57d\uad6d", "lat": "37.454422213025", "lng": "127.149398973493", "url": "/info/%EC%82%B0%EC%84%B1%EC%95%BD%EA%B5%AD-%EA%B2%BD%EA%B8%B0%EB%8F%84-%EC%84%B1%EB%82%A8%EC%8B%9C-%EC%8B%A0%ED%9D%A5%EB%8F%99/", "workingTime": ["-", "10:00~18:00", "10:00~18:00", "10:00~18:00", "10:00~18:00", "10:00~18:00", "-", "-"]}, {"name": "\uc774\ub808\uc628\ub204\ub9ac\uc57d\uad6d", "lat": "37.4510900877003", "lng": "127.147173393044", "url": "/info/%EC%9D%B4%EB%A0%88%EC%98%A8%EB%88%84%EB%A6%AC%EC%95%BD%EA%B5%AD-%EA%B2%BD%EA%B8%B0%EB%8F%84-%EC%84%B1%EB%82%A8%EC%8B%9C-%EC%8B%A0%ED%9D%A5%EB%8F%99/", "workingTime": ["-", "10:00~18:00", "10:00~18:00", "10:00~18:00", "10:00~18:00", "10:00~18:00", "-", "-"]}, {"name": "\uc2a4\ub9c8\uc77c\uc57d\uad6d", "lat": "37.4510900877003", "lng": "127.147173393044", "url": "/info/%EC%8A%A4%EB%A7%88%EC%9D%BC%EC%95%BD%EA%B5%AD-%EA%B2%BD%EA%B8%B0%EB%8F%84-%EC%84%B1%EB%82%A8%EC%8B%9C-%EC%8B%A0%ED%9D%A5%EB%8F%99/", "workingTime": ["-", "10:00~18:00", "10:00~18:00", "10:00~18:00", "10:00~18:00", "10:00~18:00", "-", "-"]}, {"name": "\uc2e0\ud76536.5\uc628\ub204\ub9ac\uc57d\uad6d", "lat": "37.4413240031714", "lng": "127.146446763662", "url": "/info/%EC%8B%A0%ED%9D%A536.5%EC%98%A8%EB%88%84%EB%A6%AC%EC%95%BD%EA%B5%AD-%EA%B2%BD%EA%B8%B0%EB%8F%84-%EC%84%B1%EB%82%A8%EC%8B%9C-%EC%8B%A0%ED%9D%A5%EB%8F%99/", "workingTime": ["-", "09:00~19:00", "09:00~19:00", "09:00~19:00", "09:00~19:00", "09:00~19:00", "09:00~16:00", "-"]}, {"name": "\uc6b0\ub9ac\ub4e4\uc57d\uad6d", "lat": "37.44170740929536", "lng": "127.14859284882725", "url": "/info/%EC%9A%B0%EB%A6%AC%EB%93%A4%EC%95%BD%EA%B5%AD-%EA%B2%BD%EA%B8%B0%EB%8F%84-%EC%84%B1%EB%82%A8%EC%8B%9C-%EC%8B%A0%ED%9D%A5%EB%8F%99/", "workingTime": ["-", "09:00~21:30", "09:00~21:30", "09:00~21:30", "09:00~21:30", "09:00~21:30", "09:00~21:00", "09:00~21:00"]}, {"name": "\uc5f4\ub9b0\uc628\ub204\ub9ac\uc57d\uad6d", "lat": "37.4428467785", "lng": "127.1393152582", "url": "/info/%EC%97%B4%EB%A6%B0%EC%98%A8%EB%88%84%EB%A6%AC%EC%95%BD%EA%B5%AD-%EA%B2%BD%EA%B8%B0%EB%8F%84-%EC%84%B1%EB%82%A8%EC%8B%9C-%EC%8B%A0%ED%9D%A5%EB%8F%99/", "workingTime": ["-", "09:00~21:00", "09:00~21:00", "09:00~21:00", "09:00~21:00", "09:00~21:00", "09:00~15:00", "-"]}, {"name": "\ud55c\uc57d\uad6d", "lat": "37.4401839937", "lng": "127.1448020951", "url": "/info/%ED%95%9C%EC%95%BD%EA%B5%AD-%EA%B2%BD%EA%B8%B0%EB%8F%84-%EC%84%B1%EB%82%A8%EC%8B%9C-%EC%8B%A0%ED%9D%A5%EB%8F%99/", "workingTime": ["-", "09:00~19:30", "09:00~19:30", "09:00~19:30", "09:00~19:30", "09:00~19:30", "09:00~16:00", "-"]}, {"name": "\ub2e4\uc6d0\uc57d\uad6d", "lat": "37.43992897340826", "lng": "127.14409196953201", "url": "/info/%EB%8B%A4%EC%9B%90%EC%95%BD%EA%B5%AD-%EA%B2%BD%EA%B8%B0%EB%8F%84-%EC%84%B1%EB%82%A8%EC%8B%9C-%EC%8B%A0%ED%9D%A5%EB%8F%99/", "workingTime": ["-", "09:00~19:00", "09:00~19:00", "09:00~19:00", "09:00~19:00", "09:00~19:00", "09:00~15:00", "-"]}, {"name": "\uc911\uc559\ub2f9\uc628\ub204\ub9ac", "lat": "37.439443344429904", "lng": "127.14333620950617", "url": "/info/%EC%A4%91%EC%95%99%EB%8B%B9%EC%98%A8%EB%88%84%EB%A6%AC-%EA%B2%BD%EA%B8%B0%EB%8F%84-%EC%84%B1%EB%82%A8%EC%8B%9C-%EC%8B%A0%ED%9D%A5%EB%8F%99/", "workingTime": ["-", "08:00~20:30", "08:00~20:30", "08:00~20:30", "08:00~20:30", "08:00~20:30", "08:00~14:30", "-"]}, {"name": "\uc2e0\ud765\ud558\ub098\ub85c\uc57d\uad6d", "lat": "37.44269870888043", "lng": "127.15128880594892", "url": "/info/%EC%8B%A0%ED%9D%A5%ED%95%98%EB%82%98%EB%A1%9C%EC%95%BD%EA%B5%AD-%EA%B2%BD%EA%B8%B0%EB%8F%84-%EC%84%B1%EB%82%A8%EC%8B%9C-%EC%8B%A0%ED%9D%A5%EB%8F%99/", "workingTime": ["-", "09:00~20:00", "09:00~20:00", "09:00~20:00", "09:00~20:00", "09:00~20:00", "09:00~18:00", "-"]}, {"name": "\uc6b0\ub9ac\uc57d\uad6d", "lat": "37.44925441699205", "lng": "127.14569811542242", "url": "/info/%EC%9A%B0%EB%A6%AC%EC%95%BD%EA%B5%AD-%EA%B2%BD%EA%B8%B0%EB%8F%84-%EC%84%B1%EB%82%A8%EC%8B%9C-%EC%8B%A0%ED%9D%A5%EB%8F%99/", "workingTime": ["-", "09:00~21:00", "09:00~21:00", "09:00~21:00", "09:00~21:00", "09:00~21:00", "09:00~21:00", "-"]}, {"name": "\ubcf4\uac74\uc57d\uad6d", "lat": "37.444001379116614", "lng": "127.144354584761", "url": "/info/%EB%B3%B4%EA%B1%B4%EC%95%BD%EA%B5%AD-%EA%B2%BD%EA%B8%B0%EB%8F%84-%EC%84%B1%EB%82%A8%EC%8B%9C-%EC%8B%A0%ED%9D%A5%EB%8F%99/", "workingTime": ["-", "09:00~19:00", "09:00~19:00", "09:00~19:00", "09:00~19:00", "09:00~19:00", "09:30~14:00", "-"]}, {"name": "\ud55c\uc2e0\uba54\ub514\uce7c\uc57d\uad6d", "lat": "37.44385045601768", "lng": "127.15268947749406", "url": "/info/%ED%95%9C%EC%8B%A0%EB%A9%94%EB%94%94%EC%B9%BC%EC%95%BD%EA%B5%AD-%EA%B2%BD%EA%B8%B0%EB%8F%84-%EC%84%B1%EB%82%A8%EC%8B%9C-%EC%8B%A0%ED%9D%A5%EB%8F%99/", "workingTime": ["-", "09:00~19:00", "09:00~19:00", "09:00~19:00", "09:00~19:00", "09:00~19:00", "-", "-"]}, {"name": "\uc720\uc790\uc57d\uad6d", "lat": "37.44329325014518", "lng": "127.15157640484111", "url": "/info/%EC%9C%A0%EC%9E%90%EC%95%BD%EA%B5%AD-%EA%B2%BD%EA%B8%B0%EB%8F%84-%EC%84%B1%EB%82%A8%EC%8B%9C-%EC%8B%A0%ED%9D%A5%EB%8F%99/", "workingTime": ["-", "10:00~20:30", "10:00~20:30", "10:00~20:30", "10:00~20:30", "10:00~20:30", "09:00~19:00", "-"]}, {"name": "\uacbd\uc2e0\uc57d\uad6d", "lat": "37.442547770978464", "lng": "127.13919833117251", "url": "/info/%EA%B2%BD%EC%8B%A0%EC%95%BD%EA%B5%AD-%EA%B2%BD%EA%B8%B0%EB%8F%84-%EC%84%B1%EB%82%A8%EC%8B%9C-%EC%8B%A0%ED%9D%A5%EB%8F%99/", "workingTime": ["-", "09:00~19:30", "09:00~19:30", "09:00~19:30", "09:00~19:30", "09:00~19:30", "09:00~18:00", "-"]}, {"name": "\uac15\ud76c\uc57d\uad6d", "lat": "37.444169444444448", "lng": "127.143124999999998", "url": "/info/%EA%B0%95%ED%9D%AC%EC%95%BD%EA%B5%AD-%EA%B2%BD%EA%B8%B0%EB%8F%84-%EC%84%B1%EB%82%A8%EC%8B%9C-%EC%8B%A0%ED%9D%A5%EB%8F%99/", "workingTime": ["-", "09:00~20:30", "09:00~20:30", "09:00~20:30", "09:00~20:30", "09:00~20:30", "-", "09:00~16:00"]}, {"name": "\uc77c\uac00\uc57d\uad6d", "lat": "37.4423032129305", "lng": "127.14768098613612", "url": "/info/%EC%9D%BC%EA%B0%80%EC%95%BD%EA%B5%AD-%EA%B2%BD%EA%B8%B0%EB%8F%84-%EC%84%B1%EB%82%A8%EC%8B%9C-%EC%8B%A0%ED%9D%A5%EB%8F%99/", "workingTime": ["-", "09:00~22:00", "09:00~22:00", "09:00~22:00", "09:00~22:00", "09:00~22:00", "09:00~22:00", "16:00~21:00"]}, {"name": "\uba54\ub4dc\ubc31\uc138\uc57d\uad6d", "lat": "37.44397425454931", "lng": "127.14282504905759", "url": "/info/%EB%A9%94%EB%93%9C%EB%B0%B1%EC%84%B8%EC%95%BD%EA%B5%AD-%EA%B2%BD%EA%B8%B0%EB%8F%84-%EC%84%B1%EB%82%A8%EC%8B%9C-%EC%8B%A0%ED%9D%A5%EB%8F%99/", "workingTime": ["1,2,3,4,5\uc9f8\uc8fc09:00~16:00", "09:00~20:00", "09:00~20:00", "09:00~20:00", "09:00~20:00", "09:00~20:00", "09:00~16:00", "-"]}, {"name": "\ud50c\ub7ec\uc2a4\uc57d\uad6d", "lat": "37.44254913995829", "lng": "127.13803101257878", "url": "/info/%ED%94%8C%EB%9F%AC%EC%8A%A4%EC%95%BD%EA%B5%AD-%EA%B2%BD%EA%B8%B0%EB%8F%84-%EC%84%B1%EB%82%A8%EC%8B%9C-%EC%8B%A0%ED%9D%A5%EB%8F%99/", "workingTime": ["-", "09:00~18:30", "09:00~18:30", "09:00~18:30", "09:00~18:30", "09:00~18:30", "09:00~15:00", "09:00~13:00"]}, {"name": "\ud2bc\ud2bc\uc57d\uad6d", "lat": "37.44329941693019", "lng": "127.14055914300805", "url": "/info/%ED%8A%BC%ED%8A%BC%EC%95%BD%EA%B5%AD-%EA%B2%BD%EA%B8%B0%EB%8F%84-%EC%84%B1%EB%82%A8%EC%8B%9C-%EC%8B%A0%ED%9D%A5%EB%8F%99/", "workingTime": ["-", "09:00~20:30", "09:00~20:30", "09:00~20:30", "09:00~20:30", "09:00~20:30", "-", "12:00~20:30"]}, {"name": "\uc0e4\ub860\uc57d\uad6d", "lat": "37.44102445792771", "lng": "127.13817285287275", "url": "/info/%EC%83%A4%EB%A1%A0%EC%95%BD%EA%B5%AD-%EA%B2%BD%EA%B8%B0%EB%8F%84-%EC%84%B1%EB%82%A8%EC%8B%9C-%EC%8B%A0%ED%9D%A5%EB%8F%99/", "workingTime": ["-", "09:00~21:00", "09:00~21:00", "09:00~21:00", "09:00~21:00", "09:00~21:00", "09:00~19:30", "09:00~20:00"]}, {"name": "\uc655\uc57d\uad6d", "lat": "37.44451248583373", "lng": "127.14477881513903", "url": "/info/%EC%99%95%EC%95%BD%EA%B5%AD-%EA%B2%BD%EA%B8%B0%EB%8F%84-%EC%84%B1%EB%82%A8%EC%8B%9C-%EC%8B%A0%ED%9D%A5%EB%8F%99/", "workingTime": ["-", "09:00~22:00", "09:00~22:00", "09:00~22:00", "09:00~22:00", "09:00~22:00", "09:00~22:30", "10:00~22:00"]}, {"name": "\ud55c\ub9c8\uc74c\uc57d\uad6d", "lat": "37.43809483197429", "lng": "127.14082513982859", "url": "/info/%ED%95%9C%EB%A7%88%EC%9D%8C%EC%95%BD%EA%B5%AD-%EA%B2%BD%EA%B8%B0%EB%8F%84-%EC%84%B1%EB%82%A8%EC%8B%9C-%EC%8B%A0%ED%9D%A5%EB%8F%99/", "workingTime": ["-", "09:00~19:00", "09:00~19:00", "09:00~19:00", "09:00~19:00", "09:00~19:00", "09:00~14:30", "-"]}, {"name": "\uc2e0\ud765\uc885\ub85c\uc57d\uad6d", "lat": "37.44007972765008", "lng": "127.14458947586718", "url": "/info/%EC%8B%A0%ED%9D%A5%EC%A2%85%EB%A1%9C%EC%95%BD%EA%B5%AD-%EA%B2%BD%EA%B8%B0%EB%8F%84-%EC%84%B1%EB%82%A8%EC%8B%9C-%EC%8B%A0%ED%9D%A5%EB%8F%99/", "workingTime": ["10:00~20:00(\uc5f0\ub77d\ud6c4\ubc29\ubb38\uc694\ub9dd)", "09:00~21:00", "09:00~21:00", "09:00~21:00", "09:00~21:00", "09:00~21:00", "09:00~21:00", "09:00~21:00"]}]