[{"name": "\ubc9a\uaf43\uc57d\uad6d", "lat": "37.1602318253979", "lng": "127.057227084604", "url": "/info/%EB%B2%9A%EA%BD%83%EC%95%BD%EA%B5%AD-%EA%B2%BD%EA%B8%B0%EB%8F%84-%EC%98%A4%EC%82%B0%EC%8B%9C-%EA%B6%90%EB%8F%99/", "workingTime": ["-", "09:00~18:00", "09:00~18:00", "09:00~18:00", "09:00~18:00", "09:00~18:00", "09:00~13:00", "-"]}, {"name": "\ubd04\ub0a0\uc57d\uad6d", "lat": "37.1600552447742", "lng": "127.05623004482", "url": "/info/%EB%B4%84%EB%82%A0%EC%95%BD%EA%B5%AD-%EA%B2%BD%EA%B8%B0%EB%8F%84-%EC%98%A4%EC%82%B0%EC%8B%9C-%EA%B6%90%EB%8F%99/", "workingTime": ["-", "09:00~21:00", "09:00~21:00", "09:00~21:00", "09:00~21:00", "09:00~21:00", "09:00~18:00", "-"]}, {"name": "\uba85\ubb38\uc57d\uad6d", "lat": "37.16035154410054", "lng": "127.05669065293162", "url": "/info/%EB%AA%85%EB%AC%B8%EC%95%BD%EA%B5%AD-%EA%B2%BD%EA%B8%B0%EB%8F%84-%EC%98%A4%EC%82%B0%EC%8B%9C-%EA%B6%90%EB%8F%99/", "workingTime": ["-", "09:00~21:00", "09:00~21:00", "09:00~21:00", "09:00~21:00", "09:00~21:00", "09:00~13:00", "-"]}, {"name": "\uae30\uc068\uc57d\uad6d", "lat": "37.157858069665025", "lng": "127.0668803185656", "url": "/info/%EA%B8%B0%EC%81%A8%EC%95%BD%EA%B5%AD-%EA%B2%BD%EA%B8%B0%EB%8F%84-%EC%98%A4%EC%82%B0%EC%8B%9C-%EA%B6%90%EB%8F%99/", "workingTime": ["-", "09:00~20:00", "09:00~20:00", "09:00~20:00", "09:00~20:00", "09:00~20:00", "09:00~16:00", "09:00~13:00"]}, {"name": "\ud478\ub978\uc57d\uad6d", "lat": "37.159467518821664", "lng": "127.05878849183148", "url": "/info/%ED%91%B8%EB%A5%B8%EC%95%BD%EA%B5%AD-%EA%B2%BD%EA%B8%B0%EB%8F%84-%EC%98%A4%EC%82%B0%EC%8B%9C-%EA%B6%90%EB%8F%99/", "workingTime": ["-", "09:00~22:00", "09:00~22:00", "09:00~22:00", "09:00~22:00", "09:00~22:00", "09:00~20:00", "-"]}]