[{"name": "\ub0b4\uc720\ud478\ub978\uc57d\uad6d", "lat": "37.7189477091965", "lng": "126.851735747459", "url": "/info/%EB%82%B4%EC%9C%A0%ED%91%B8%EB%A5%B8%EC%95%BD%EA%B5%AD-%EA%B2%BD%EA%B8%B0%EB%8F%84-%EA%B3%A0%EC%96%91%EC%8B%9C-%EB%82%B4%EC%9C%A0%EB%8F%99/", "workingTime": ["-", "09:00~18:00", "09:00~18:00", "09:00~18:00", "09:00~18:00", "09:00~18:00", "-", "-"]}, {"name": "\ub0b4\uc720\uc6d0\uc57d\uad6d", "lat": "37.726716666666668", "lng": "126.846838888888882", "url": "/info/%EB%82%B4%EC%9C%A0%EC%9B%90%EC%95%BD%EA%B5%AD-%EA%B2%BD%EA%B8%B0%EB%8F%84-%EA%B3%A0%EC%96%91%EC%8B%9C-%EB%82%B4%EC%9C%A0%EB%8F%99/", "workingTime": ["-", "09:00~21:00", "09:00~21:00", "09:00~21:00", "09:00~21:00", "09:00~21:00", "09:00~13:30", "-"]}, {"name": "\ub0b4\uc720\ub3d9\uc6b0\ub9ac\uc57d\uad6d", "lat": "37.726161137632424", "lng": "126.8454775888869", "url": "/info/%EB%82%B4%EC%9C%A0%EB%8F%99%EC%9A%B0%EB%A6%AC%EC%95%BD%EA%B5%AD-%EA%B2%BD%EA%B8%B0%EB%8F%84-%EA%B3%A0%EC%96%91%EC%8B%9C-%EB%82%B4%EC%9C%A0%EB%8F%99/", "workingTime": ["-", "09:00~19:00", "09:00~19:00", "09:00~19:00", "09:00~19:00", "09:00~19:00", "09:00~14:00", "-"]}, {"name": "\ub0b4\uc720\ub179\uc2ed\uc790\uc57d\uad6d", "lat": "37.72544969105832", "lng": "126.84366758803338", "url": "/info/%EB%82%B4%EC%9C%A0%EB%85%B9%EC%8B%AD%EC%9E%90%EC%95%BD%EA%B5%AD-%EA%B2%BD%EA%B8%B0%EB%8F%84-%EA%B3%A0%EC%96%91%EC%8B%9C-%EB%82%B4%EC%9C%A0%EB%8F%99/", "workingTime": ["1,3\uc9f8\uc8fc09:00~22:00", "09:00~22:00", "09:00~22:00", "09:00~22:00", "09:00~22:00", "09:00~22:00", "09:00~22:00", "09:00~22:00"]}, {"name": "\ub355\uc9c4\uc57d\uad6d", "lat": "37.7255506080778", "lng": "126.84435477133023", "url": "/info/%EB%8D%95%EC%A7%84%EC%95%BD%EA%B5%AD-%EA%B2%BD%EA%B8%B0%EB%8F%84-%EA%B3%A0%EC%96%91%EC%8B%9C-%EB%82%B4%EC%9C%A0%EB%8F%99/", "workingTime": ["2,4\uc9f8\uc8fc17:00~22:00", "09:00~22:00", "09:00~22:00", "09:00~22:00", "09:00~22:00", "09:00~22:00", "09:00~22:00", "14:00~22:00"]}]