[{"name": "\ub300\uacbd\uc57d\uad6d", "lat": "37.2236579302279", "lng": "126.97324278911", "url": "/info/%EB%8C%80%EA%B2%BD%EC%95%BD%EA%B5%AD-%EA%B2%BD%EA%B8%B0%EB%8F%84-%ED%99%94%EC%84%B1%EC%8B%9C-%EA%B8%B0%EC%95%88%EB%8F%99/", "workingTime": ["-", "09:00~18:00", "09:00~18:00", "09:00~18:00", "09:00~18:00", "09:00~18:00", "-", "-"]}, {"name": "\uad7f\ubaa8\ub2dd\uc57d\uad6d", "lat": "37.222692046744584", "lng": "126.97433123028162", "url": "/info/%EA%B5%BF%EB%AA%A8%EB%8B%9D%EC%95%BD%EA%B5%AD-%EA%B2%BD%EA%B8%B0%EB%8F%84-%ED%99%94%EC%84%B1%EC%8B%9C-%EA%B8%B0%EC%95%88%EB%8F%99/", "workingTime": ["-", "09:00~20:00", "09:00~20:00", "09:00~20:00", "09:00~20:00", "09:00~20:00", "09:00~17:00", "-"]}, {"name": "\ub3d9\uc131\uc57d\uad6d", "lat": "37.22470666317537", "lng": "126.97384825257299", "url": "/info/%EB%8F%99%EC%84%B1%EC%95%BD%EA%B5%AD-%EA%B2%BD%EA%B8%B0%EB%8F%84-%ED%99%94%EC%84%B1%EC%8B%9C-%EA%B8%B0%EC%95%88%EB%8F%99/", "workingTime": ["-", "09:00~21:00", "09:00~21:00", "09:00~21:00", "09:00~21:00", "09:00~21:00", "09:00~18:00", "-"]}, {"name": "\uc6b0\ub9ac\uc57d\uad6d", "lat": "37.219537201775665", "lng": "126.98851509686719", "url": "/info/%EC%9A%B0%EB%A6%AC%EC%95%BD%EA%B5%AD-%EA%B2%BD%EA%B8%B0%EB%8F%84-%ED%99%94%EC%84%B1%EC%8B%9C-%EA%B8%B0%EC%95%88%EB%8F%99/", "workingTime": ["-", "09:00~19:00", "09:00~19:00", "09:00~19:00", "09:00~19:00", "09:00~19:00", "09:00~16:00", "-"]}, {"name": "\ud615\uc7ac\uc57d\uad6d", "lat": "37.2250728298", "lng": "126.9841800362", "url": "/info/%ED%98%95%EC%9E%AC%EC%95%BD%EA%B5%AD-%EA%B2%BD%EA%B8%B0%EB%8F%84-%ED%99%94%EC%84%B1%EC%8B%9C-%EA%B8%B0%EC%95%88%EB%8F%99/", "workingTime": ["-", "09:00~20:00", "09:00~20:00", "09:00~20:00", "09:00~20:00", "09:00~20:00", "09:00~17:00", "-"]}]