[{"name": "\ucc9c\uc0ac\uc57d\uad6d", "lat": "37.2698720361181", "lng": "127.217869075756", "url": "/info/%EC%B2%9C%EC%82%AC%EC%95%BD%EA%B5%AD-%EA%B2%BD%EA%B8%B0%EB%8F%84-%EC%9A%A9%EC%9D%B8%EC%8B%9C-%ED%8F%AC%EA%B3%A1%EC%9D%8D/", "workingTime": ["-", "09:00~18:00", "09:00~18:00", "09:00~18:00", "09:00~18:00", "09:00~18:00", "09:00~13:00", "-"]}, {"name": "\ud589\ubcf5\ud55c\uc57d\uad6d", "lat": "37.2684594369785", "lng": "127.214932919227", "url": "/info/%ED%96%89%EB%B3%B5%ED%95%9C%EC%95%BD%EA%B5%AD-%EA%B2%BD%EA%B8%B0%EB%8F%84-%EC%9A%A9%EC%9D%B8%EC%8B%9C-%ED%8F%AC%EA%B3%A1%EC%9D%8D/", "workingTime": ["-", "09:00~18:00", "09:00~18:00", "09:00~18:00", "09:00~18:00", "09:00~18:00", "09:00~13:00", "-"]}, {"name": "\uba54\ub514\ud31c\uc6a9\uc778\uc57d\uad6d", "lat": "37.2695693671191", "lng": "127.21757339849824", "url": "/info/%EB%A9%94%EB%94%94%ED%8C%9C%EC%9A%A9%EC%9D%B8%EC%95%BD%EA%B5%AD-%EA%B2%BD%EA%B8%B0%EB%8F%84-%EC%9A%A9%EC%9D%B8%EC%8B%9C-%ED%8F%AC%EA%B3%A1%EC%9D%8D/", "workingTime": ["-", "09:00~19:20", "09:00~19:20", "09:00~19:20", "09:00~19:20", "09:00~19:20", "09:00~17:20", "09:00~13:00"]}, {"name": "\uc81c\uc77c365\uc628\ub204\ub9ac\uc57d\uad6d", "lat": "37.275797890915", "lng": "127.227548532465", "url": "/info/%EC%A0%9C%EC%9D%BC365%EC%98%A8%EB%88%84%EB%A6%AC%EC%95%BD%EA%B5%AD-%EA%B2%BD%EA%B8%B0%EB%8F%84-%EC%9A%A9%EC%9D%B8%EC%8B%9C-%ED%8F%AC%EA%B3%A1%EC%9D%8D/", "workingTime": ["1,2,3,4,5\uc9f8\uc8fc09:00~21:00", "09:00~21:00", "09:00~21:00", "09:00~21:00", "09:00~21:00", "09:00~21:00", "09:00~21:00", "09:00~21:00"]}, {"name": "\uc0c8\uc11c\uc6b8\uc57d\uad6d", "lat": "37.269193594320576", "lng": "127.21611905614568", "url": "/info/%EC%83%88%EC%84%9C%EC%9A%B8%EC%95%BD%EA%B5%AD-%EA%B2%BD%EA%B8%B0%EB%8F%84-%EC%9A%A9%EC%9D%B8%EC%8B%9C-%ED%8F%AC%EA%B3%A1%EC%9D%8D/", "workingTime": ["-", "08:30~19:30", "08:30~19:30", "08:30~19:30", "08:30~19:30", "08:30~19:30", "08:30~16:30", "09:00~14:00"]}, {"name": "\uc6a9\uc778\uc724\uc57d\uad6d", "lat": "37.26757552212275", "lng": "127.21402759784442", "url": "/info/%EC%9A%A9%EC%9D%B8%EC%9C%A4%EC%95%BD%EA%B5%AD-%EA%B2%BD%EA%B8%B0%EB%8F%84-%EC%9A%A9%EC%9D%B8%EC%8B%9C-%ED%8F%AC%EA%B3%A1%EC%9D%8D/", "workingTime": ["-", "09:00~21:00", "09:00~21:00", "09:00~21:00", "09:00~21:00", "09:00~21:00", "09:00~20:00", "-"]}, {"name": "\uc0c8\uc591\uc9c0\uc57d\uad6d", "lat": "37.28038956405093", "lng": "127.23246630596142", "url": "/info/%EC%83%88%EC%96%91%EC%A7%80%EC%95%BD%EA%B5%AD-%EA%B2%BD%EA%B8%B0%EB%8F%84-%EC%9A%A9%EC%9D%B8%EC%8B%9C-%ED%8F%AC%EA%B3%A1%EC%9D%8D/", "workingTime": ["-", "09:00~20:30", "09:00~20:30", "09:00~20:30", "09:00~20:30", "09:00~20:30", "09:00~16:00", "-"]}, {"name": "\ub3c5\uc77c\uc57d\uad6d", "lat": "37.28523011865688", "lng": "127.21718996236242", "url": "/info/%EB%8F%85%EC%9D%BC%EC%95%BD%EA%B5%AD-%EA%B2%BD%EA%B8%B0%EB%8F%84-%EC%9A%A9%EC%9D%B8%EC%8B%9C-%ED%8F%AC%EA%B3%A1%EC%9D%8D/", "workingTime": ["-", "08:30~21:00", "08:30~21:00", "08:30~21:00", "08:30~21:00", "08:30~21:00", "08:30~21:00", "-"]}, {"name": "\uc0c8\ud604\ub300\uc57d\uad6d", "lat": "37.29628047855216", "lng": "127.23417537408065", "url": "/info/%EC%83%88%ED%98%84%EB%8C%80%EC%95%BD%EA%B5%AD-%EA%B2%BD%EA%B8%B0%EB%8F%84-%EC%9A%A9%EC%9D%B8%EC%8B%9C-%ED%8F%AC%EA%B3%A1%EC%9D%8D/", "workingTime": ["-", "09:00~21:00", "09:00~21:00", "09:00~21:00", "09:00~21:00", "09:00~21:00", "-", "-"]}]