[{"name": "\ub300\uac74\uc57d\uad6d", "lat": "37.129347222222222", "lng": "126.909138888888890", "url": "/info/%EB%8C%80%EA%B1%B4%EC%95%BD%EA%B5%AD-%EA%B2%BD%EA%B8%B0%EB%8F%84-%ED%99%94%EC%84%B1%EC%8B%9C-%ED%96%A5%EB%82%A8%EC%9D%8D/", "workingTime": ["-", "08:00~20:00", "08:00~20:00", "08:00~20:00", "08:00~20:00", "08:00~20:00", "08:00~19:00", "08:00~20:00"]}, {"name": "\ud5a5\ub0a8\ud0dc\ud3c9\uc591\uc628\ub204\ub9ac\uc57d\uad6d", "lat": "37.12990934055808", "lng": "126.919613581511", "url": "/info/%ED%96%A5%EB%82%A8%ED%83%9C%ED%8F%89%EC%96%91%EC%98%A8%EB%88%84%EB%A6%AC%EC%95%BD%EA%B5%AD-%EA%B2%BD%EA%B8%B0%EB%8F%84-%ED%99%94%EC%84%B1%EC%8B%9C-%ED%96%A5%EB%82%A8%EC%9D%8D/", "workingTime": ["1,2,3,4,5\uc9f8\uc8fc09:00~20:00", "08:30~21:30", "08:30~21:30", "08:30~21:30", "08:30~21:30", "08:30~21:30", "09:00~20:00", "09:00~20:00"]}, {"name": "\ub3d9\uc624\uc0ac\uac70\ub9ac\uc57d\uad6d", "lat": "37.130958437299995", "lng": "126.9532066536", "url": "/info/%EB%8F%99%EC%98%A4%EC%82%AC%EA%B1%B0%EB%A6%AC%EC%95%BD%EA%B5%AD-%EA%B2%BD%EA%B8%B0%EB%8F%84-%ED%99%94%EC%84%B1%EC%8B%9C-%ED%96%A5%EB%82%A8%EC%9D%8D/", "workingTime": ["-", "08:00~21:30", "08:00~21:30", "08:00~21:30", "08:00~21:30", "08:00~21:30", "08:00~21:00", "-"]}, {"name": "\ud5a5\ub0a8\uc57d\uad6d", "lat": "37.1307487804703", "lng": "126.9187162026535", "url": "/info/%ED%96%A5%EB%82%A8%EC%95%BD%EA%B5%AD-%EA%B2%BD%EA%B8%B0%EB%8F%84-%ED%99%94%EC%84%B1%EC%8B%9C-%ED%96%A5%EB%82%A8%EC%9D%8D/", "workingTime": ["-", "08:00~21:00", "08:00~19:00", "08:00~19:00", "08:00~21:00", "08:00~19:00", "08:00~13:00", "-"]}, {"name": "\ud654\uc131\uc57d\uad6d", "lat": "37.130107485081375", "lng": "126.9096561872561", "url": "/info/%ED%99%94%EC%84%B1%EC%95%BD%EA%B5%AD-%EA%B2%BD%EA%B8%B0%EB%8F%84-%ED%99%94%EC%84%B1%EC%8B%9C-%ED%96%A5%EB%82%A8%EC%9D%8D/", "workingTime": ["08:30~19:00(\uc5f0\ub77d\ud6c4\ubc29\ubb38\uc694\ub9dd)", "08:30~21:00", "08:30~21:00", "08:30~21:00", "08:30~21:00", "08:30~21:00", "08:30~19:00", "-"]}, {"name": "\ud55c\uc0ac\ub791\uc57d\uad6d", "lat": "37.10088098332308", "lng": "126.89647439762909", "url": "/info/%ED%95%9C%EC%82%AC%EB%9E%91%EC%95%BD%EA%B5%AD-%EA%B2%BD%EA%B8%B0%EB%8F%84-%ED%99%94%EC%84%B1%EC%8B%9C-%ED%96%A5%EB%82%A8%EC%9D%8D/", "workingTime": ["1,2,3,4,5\uc9f8\uc8fc09:00~18:00", "08:30~21:00", "08:30~21:00", "08:30~21:00", "08:30~21:00", "08:30~21:00", "09:00~21:00", "09:00~18:00"]}, {"name": "\ud5a5\ub0a8\uba54\ub514\uceec\uc57d\uad6d", "lat": "37.1151703587", "lng": "126.9124770402", "url": "/info/%ED%96%A5%EB%82%A8%EB%A9%94%EB%94%94%EC%BB%AC%EC%95%BD%EA%B5%AD-%EA%B2%BD%EA%B8%B0%EB%8F%84-%ED%99%94%EC%84%B1%EC%8B%9C-%ED%96%A5%EB%82%A8%EC%9D%8D/", "workingTime": ["1,2,3,4,5\uc9f8\uc8fc09:00~14:00", "09:00~20:30", "09:00~20:30", "09:00~20:30", "09:00~20:30", "09:00~20:30", "09:00~16:00", "09:00~14:00"]}, {"name": "\uc870\uc740\ub9d8\uc57d\uad6d", "lat": "37.11502093583156", "lng": "126.91027192824235", "url": "/info/%EC%A1%B0%EC%9D%80%EB%A7%98%EC%95%BD%EA%B5%AD-%EA%B2%BD%EA%B8%B0%EB%8F%84-%ED%99%94%EC%84%B1%EC%8B%9C-%ED%96%A5%EB%82%A8%EC%9D%8D/", "workingTime": ["1,2,3,4,5\uc9f8\uc8fc09:00~18:00", "09:00~20:00", "09:00~20:00", "09:00~20:00", "09:00~20:00", "09:00~20:00", "09:00~18:00", "09:00~18:00"]}, {"name": "\ud574\ub4e0\uc57d\uad6d", "lat": "37.1309352404903", "lng": "126.92301560047532", "url": "/info/%ED%95%B4%EB%93%A0%EC%95%BD%EA%B5%AD-%EA%B2%BD%EA%B8%B0%EB%8F%84-%ED%99%94%EC%84%B1%EC%8B%9C-%ED%96%A5%EB%82%A8%EC%9D%8D/", "workingTime": ["1,2,3,4,5\uc9f8\uc8fc09:00~19:00", "09:00~21:00", "09:00~21:00", "09:00~21:00", "09:00~21:00", "09:00~21:00", "09:00~21:00", "-"]}, {"name": "\ubc1c\uc548\uc885\ub85c\uc57d\uad6d", "lat": "37.1314014095738", "lng": "126.903114822803", "url": "/info/%EB%B0%9C%EC%95%88%EC%A2%85%EB%A1%9C%EC%95%BD%EA%B5%AD-%EA%B2%BD%EA%B8%B0%EB%8F%84-%ED%99%94%EC%84%B1%EC%8B%9C-%ED%96%A5%EB%82%A8%EC%9D%8D/", "workingTime": ["-", "09:00~18:00", "09:00~18:00", "09:00~18:00", "09:00~18:00", "09:00~18:00", "09:00~13:00", "-"]}, {"name": "\ud5a5\ub0a8\ub300\ud615\uc57d\uad6d", "lat": "37.1147620118934", "lng": "126.91104520565", "url": "/info/%ED%96%A5%EB%82%A8%EB%8C%80%ED%98%95%EC%95%BD%EA%B5%AD-%EA%B2%BD%EA%B8%B0%EB%8F%84-%ED%99%94%EC%84%B1%EC%8B%9C-%ED%96%A5%EB%82%A8%EC%9D%8D/", "workingTime": ["-", "09:00~18:00", "09:00~18:00", "09:00~18:00", "09:00~18:00", "09:00~18:00", "-", "-"]}, {"name": "\uc2a4\ub9c8\uc77c\uc628\ub204\ub9ac\uc57d\uad6d", "lat": "37.1163677441", "lng": "126.9135288162", "url": "/info/%EC%8A%A4%EB%A7%88%EC%9D%BC%EC%98%A8%EB%88%84%EB%A6%AC%EC%95%BD%EA%B5%AD-%EA%B2%BD%EA%B8%B0%EB%8F%84-%ED%99%94%EC%84%B1%EC%8B%9C-%ED%96%A5%EB%82%A8%EC%9D%8D/", "workingTime": ["-", "09:00~20:30", "09:00~20:30", "09:00~20:30", "09:00~20:30", "09:00~20:30", "09:00~16:30", "-"]}, {"name": "\uc815\uc9c1\ud55c\ub9c8\uc74c\uc57d\uad6d", "lat": "37.1317216810688", "lng": "126.92238168968", "url": "/info/%EC%A0%95%EC%A7%81%ED%95%9C%EB%A7%88%EC%9D%8C%EC%95%BD%EA%B5%AD-%EA%B2%BD%EA%B8%B0%EB%8F%84-%ED%99%94%EC%84%B1%EC%8B%9C-%ED%96%A5%EB%82%A8%EC%9D%8D/", "workingTime": ["-", "09:00~18:00", "09:00~18:00", "09:00~18:00", "09:00~18:00", "09:00~18:00", "09:00~13:00", "-"]}, {"name": "\ubc1c\uc548\ud130\ubbf8\ub110\uc57d\uad6d", "lat": "37.13288952077152", "lng": "126.90911263277562", "url": "/info/%EB%B0%9C%EC%95%88%ED%84%B0%EB%AF%B8%EB%84%90%EC%95%BD%EA%B5%AD-%EA%B2%BD%EA%B8%B0%EB%8F%84-%ED%99%94%EC%84%B1%EC%8B%9C-%ED%96%A5%EB%82%A8%EC%9D%8D/", "workingTime": ["-", "09:00~21:00", "09:00~21:00", "09:00~21:00", "09:00~21:00", "09:00~21:00", "09:00~21:00", "-"]}, {"name": "\ubc1d\uc74c\uc57d\uad6d", "lat": "37.1316847208799", "lng": "126.922770100075", "url": "/info/%EB%B0%9D%EC%9D%8C%EC%95%BD%EA%B5%AD-%EA%B2%BD%EA%B8%B0%EB%8F%84-%ED%99%94%EC%84%B1%EC%8B%9C-%ED%96%A5%EB%82%A8%EC%9D%8D/", "workingTime": ["-", "09:00~19:00", "09:00~19:00", "09:00~19:00", "09:00~19:00", "09:00~19:00", "-", "-"]}, {"name": "\uc911\uc559\uc815\ubb38\uc57d\uad6d", "lat": "37.1311177588", "lng": "126.91057253550001", "url": "/info/%EC%A4%91%EC%95%99%EC%A0%95%EB%AC%B8%EC%95%BD%EA%B5%AD-%EA%B2%BD%EA%B8%B0%EB%8F%84-%ED%99%94%EC%84%B1%EC%8B%9C-%ED%96%A5%EB%82%A8%EC%9D%8D/", "workingTime": ["1,2,3,4,5\uc9f8\uc8fc09:00~22:00", "09:00~22:00", "09:00~22:00", "09:00~22:00", "09:00~22:00", "09:00~22:00", "09:00~22:00", "09:00~22:00"]}, {"name": "\ud50c\ub7ec\uc2a4\uc57d\uad6d", "lat": "37.130732869031924", "lng": "126.92185377214818", "url": "/info/%ED%94%8C%EB%9F%AC%EC%8A%A4%EC%95%BD%EA%B5%AD-%EA%B2%BD%EA%B8%B0%EB%8F%84-%ED%99%94%EC%84%B1%EC%8B%9C-%ED%96%A5%EB%82%A8%EC%9D%8D/", "workingTime": ["1,3,5\uc9f8\uc8fc10:00~22:00", "10:00~22:00", "10:00~22:00", "10:00~22:00", "10:00~22:00", "10:00~22:00", "10:00~22:00", "10:00~22:00"]}, {"name": "\uc911\uc559\uc628\ub204\ub9ac\uc57d\uad6d", "lat": "37.1315004071", "lng": "126.9113688605", "url": "/info/%EC%A4%91%EC%95%99%EC%98%A8%EB%88%84%EB%A6%AC%EC%95%BD%EA%B5%AD-%EA%B2%BD%EA%B8%B0%EB%8F%84-%ED%99%94%EC%84%B1%EC%8B%9C-%ED%96%A5%EB%82%A8%EC%9D%8D/", "workingTime": ["-", "09:00~19:00", "09:00~19:00", "09:00~19:00", "09:00~19:00", "09:00~19:00", "09:00~15:00", "-"]}, {"name": "\uc911\uc559\uba54\ub514\uceec\uc57d\uad6d", "lat": "37.1312298798", "lng": "126.9110900805", "url": "/info/%EC%A4%91%EC%95%99%EB%A9%94%EB%94%94%EC%BB%AC%EC%95%BD%EA%B5%AD-%EA%B2%BD%EA%B8%B0%EB%8F%84-%ED%99%94%EC%84%B1%EC%8B%9C-%ED%96%A5%EB%82%A8%EC%9D%8D/", "workingTime": ["1,2,3,4,5\uc9f8\uc8fc10:30~20:00", "09:00~20:00", "09:00~20:00", "09:00~20:00", "09:00~20:00", "09:00~20:00", "09:00~20:00", "10:30~20:00"]}, {"name": "\ucd08\ub85d\uc57d\uad6d", "lat": "37.129977777777775", "lng": "126.919258333333332", "url": "/info/%EC%B4%88%EB%A1%9D%EC%95%BD%EA%B5%AD-%EA%B2%BD%EA%B8%B0%EB%8F%84-%ED%99%94%EC%84%B1%EC%8B%9C-%ED%96%A5%EB%82%A8%EC%9D%8D/", "workingTime": ["-", "09:00~20:00", "09:00~20:00", "09:00~20:00", "09:00~20:00", "09:00~20:00", "09:00~16:00", "-"]}, {"name": "\uc6b0\uc131\uc57d\uad6d", "lat": "37.1300007338241", "lng": "126.92149958297924", "url": "/info/%EC%9A%B0%EC%84%B1%EC%95%BD%EA%B5%AD-%EA%B2%BD%EA%B8%B0%EB%8F%84-%ED%99%94%EC%84%B1%EC%8B%9C-%ED%96%A5%EB%82%A8%EC%9D%8D/", "workingTime": ["-", "08:30~07:00", "08:30~07:00", "08:30~07:00", "08:30~07:00", "08:30~07:00", "08:30~15:00", "-"]}, {"name": "\ud5a5\ub0a8\uc5f4\ub9b0\uc57d\uad6d", "lat": "37.1165776103687", "lng": "126.91292469994", "url": "/info/%ED%96%A5%EB%82%A8%EC%97%B4%EB%A6%B0%EC%95%BD%EA%B5%AD-%EA%B2%BD%EA%B8%B0%EB%8F%84-%ED%99%94%EC%84%B1%EC%8B%9C-%ED%96%A5%EB%82%A8%EC%9D%8D/", "workingTime": ["-", "09:00~18:00", "09:00~18:00", "09:00~18:00", "09:00~18:00", "09:00~18:00", "-", "-"]}, {"name": "\ub2ec\uc57d\uad6d", "lat": "37.1156588545021", "lng": "126.910583405813", "url": "/info/%EB%8B%AC%EC%95%BD%EA%B5%AD-%EA%B2%BD%EA%B8%B0%EB%8F%84-%ED%99%94%EC%84%B1%EC%8B%9C-%ED%96%A5%EB%82%A8%EC%9D%8D/", "workingTime": ["-", "09:00~18:00", "09:00~18:00", "09:00~18:00", "09:00~18:00", "09:00~18:00", "-", "-"]}, {"name": "\ucc38\uc815\ub4e0\uc57d\uad6d", "lat": "37.1302824637946", "lng": "126.922871570525", "url": "/info/%EC%B0%B8%EC%A0%95%EB%93%A0%EC%95%BD%EA%B5%AD-%EA%B2%BD%EA%B8%B0%EB%8F%84-%ED%99%94%EC%84%B1%EC%8B%9C-%ED%96%A5%EB%82%A8%EC%9D%8D/", "workingTime": ["-", "09:00~18:00", "09:00~18:00", "09:00~18:00", "09:00~18:00", "09:00~18:00", "09:00~13:00", "-"]}, {"name": "\uacf5\ub2e8\uc57d\uad6d", "lat": "37.0862897236", "lng": "126.9081823351", "url": "/info/%EA%B3%B5%EB%8B%A8%EC%95%BD%EA%B5%AD-%EA%B2%BD%EA%B8%B0%EB%8F%84-%ED%99%94%EC%84%B1%EC%8B%9C-%ED%96%A5%EB%82%A8%EC%9D%8D/", "workingTime": ["-", "09:00~21:00", "09:00~21:00", "09:00~21:00", "09:00~21:00", "09:00~21:00", "09:00~17:00", "-"]}, {"name": "\ub2e4\uc0ac\ub791\uc57d\uad6d", "lat": "37.12587752369704", "lng": "126.91635456407528", "url": "/info/%EB%8B%A4%EC%82%AC%EB%9E%91%EC%95%BD%EA%B5%AD-%EA%B2%BD%EA%B8%B0%EB%8F%84-%ED%99%94%EC%84%B1%EC%8B%9C-%ED%96%A5%EB%82%A8%EC%9D%8D/", "workingTime": ["09:00~16:00(\uc5f0\ub77d\ud6c4\ubc29\ubb38\uc694\ub9dd)", "09:00~20:30", "09:00~20:30", "09:00~20:30", "09:00~20:30", "09:00~20:30", "09:00~16:00", "-"]}, {"name": "\ubc1c\uc548\ub0a8\uc11c\uc57d\uad6d", "lat": "37.129945560395306", "lng": "126.90491109400166", "url": "/info/%EB%B0%9C%EC%95%88%EB%82%A8%EC%84%9C%EC%95%BD%EA%B5%AD-%EA%B2%BD%EA%B8%B0%EB%8F%84-%ED%99%94%EC%84%B1%EC%8B%9C-%ED%96%A5%EB%82%A8%EC%9D%8D/", "workingTime": ["-", "09:00~21:00", "09:00~21:00", "09:00~21:00", "09:00~21:00", "09:00~21:00", "09:00~21:00", "-"]}, {"name": "\uc131\uc2e0\uc57d\uad6d", "lat": "37.12199363271436", "lng": "126.9933793156697", "url": "/info/%EC%84%B1%EC%8B%A0%EC%95%BD%EA%B5%AD-%EA%B2%BD%EA%B8%B0%EB%8F%84-%ED%99%94%EC%84%B1%EC%8B%9C-%ED%96%A5%EB%82%A8%EC%9D%8D/", "workingTime": ["-", "09:30~20:00", "09:30~20:00", "09:30~20:00", "09:30~20:00", "09:30~20:00", "09:30~20:00", "-"]}, {"name": "\uc2dc\ud2f0\uc57d\uad6d", "lat": "37.1146443232", "lng": "126.9127296768", "url": "/info/%EC%8B%9C%ED%8B%B0%EC%95%BD%EA%B5%AD-%EA%B2%BD%EA%B8%B0%EB%8F%84-%ED%99%94%EC%84%B1%EC%8B%9C-%ED%96%A5%EB%82%A8%EC%9D%8D/", "workingTime": ["-", "09:00~20:00", "09:00~20:00", "09:00~20:00", "09:00~20:00", "09:00~20:00", "09:00~15:00", "-"]}, {"name": "\ud55c\ube5b\uc57d\uad6d", "lat": "37.131113284599486", "lng": "126.90994306760231", "url": "/info/%ED%95%9C%EB%B9%9B%EC%95%BD%EA%B5%AD-%EA%B2%BD%EA%B8%B0%EB%8F%84-%ED%99%94%EC%84%B1%EC%8B%9C-%ED%96%A5%EB%82%A8%EC%9D%8D/", "workingTime": ["-", "09:00~19:00", "09:00~19:00", "09:00~19:00", "09:00~19:00", "09:00~19:00", "09:00~16:00", "-"]}, {"name": "\ud5a5\ub0a8\uc0ac\ub791\uc57d\uad6d", "lat": "37.12986406433169", "lng": "126.92193186352202", "url": "/info/%ED%96%A5%EB%82%A8%EC%82%AC%EB%9E%91%EC%95%BD%EA%B5%AD-%EA%B2%BD%EA%B8%B0%EB%8F%84-%ED%99%94%EC%84%B1%EC%8B%9C-%ED%96%A5%EB%82%A8%EC%9D%8D/", "workingTime": ["-", "09:00~21:00", "09:00~21:00", "09:00~21:00", "09:00~21:00", "09:00~21:00", "-", "-"]}, {"name": "\ud68c\ucd98\ub2f9\uc57d\uad6d", "lat": "37.131407447350625", "lng": "126.90816911640178", "url": "/info/%ED%9A%8C%EC%B6%98%EB%8B%B9%EC%95%BD%EA%B5%AD-%EA%B2%BD%EA%B8%B0%EB%8F%84-%ED%99%94%EC%84%B1%EC%8B%9C-%ED%96%A5%EB%82%A8%EC%9D%8D/", "workingTime": ["09:00~21:00(\uc5f0\ub77d\ud6c4\ubc29\ubb38\uc694\ub9dd)", "09:00~21:00", "09:00~21:00", "09:00~21:00", "09:00~21:00", "09:00~21:00", "09:00~21:00", "-"]}, {"name": "\ud5a5\ub0a8\ud504\ub77c\uc790\uc57d\uad6d", "lat": "37.11502093583155", "lng": "126.91027192824235", "url": "/info/%ED%96%A5%EB%82%A8%ED%94%84%EB%9D%BC%EC%9E%90%EC%95%BD%EA%B5%AD-%EA%B2%BD%EA%B8%B0%EB%8F%84-%ED%99%94%EC%84%B1%EC%8B%9C-%ED%96%A5%EB%82%A8%EC%9D%8D/", "workingTime": ["-", "09:00~21:00", "09:00~21:00", "09:00~21:00", "09:00~21:00", "09:00~21:00", "09:00~15:00", "-"]}, {"name": "\uac00\uae4c\uc6b4\uc628\ub204\ub9ac\uc57d\uad6d", "lat": "37.1005134938", "lng": "126.8966413873", "url": "/info/%EA%B0%80%EA%B9%8C%EC%9A%B4%EC%98%A8%EB%88%84%EB%A6%AC%EC%95%BD%EA%B5%AD-%EA%B2%BD%EA%B8%B0%EB%8F%84-%ED%99%94%EC%84%B1%EC%8B%9C-%ED%96%A5%EB%82%A8%EC%9D%8D/", "workingTime": ["-", "09:00~19:00", "09:00~19:00", "09:00~19:00", "09:00~19:00", "09:00~19:00", "09:00~13:00", "-"]}, {"name": "\uc138\uacc4\ub85c\uc57d\uad6d", "lat": "37.13183193086888", "lng": "126.89848128169268", "url": "/info/%EC%84%B8%EA%B3%84%EB%A1%9C%EC%95%BD%EA%B5%AD-%EA%B2%BD%EA%B8%B0%EB%8F%84-%ED%99%94%EC%84%B1%EC%8B%9C-%ED%96%A5%EB%82%A8%EC%9D%8D/", "workingTime": ["-", "09:00~21:00", "09:00~21:00", "09:00~21:00", "09:00~21:00", "09:00~21:00", "09:00~18:00", "-"]}, {"name": "\uc815\ub4e0\uc57d\uad6d", "lat": "37.130283004444124", "lng": "126.92287156997601", "url": "/info/%EC%A0%95%EB%93%A0%EC%95%BD%EA%B5%AD-%EA%B2%BD%EA%B8%B0%EB%8F%84-%ED%99%94%EC%84%B1%EC%8B%9C-%ED%96%A5%EB%82%A8%EC%9D%8D/", "workingTime": ["-", "09:00~20:00", "09:00~20:00", "09:00~20:00", "09:00~20:00", "09:00~20:00", "09:00~16:00", "-"]}]