[{"name": "\uccad\ubd81\uc194\uc57d\uad6d", "lat": "37.0583864612", "lng": "127.0551090991", "url": "/info/%EC%B2%AD%EB%B6%81%EC%86%94%EC%95%BD%EA%B5%AD-%EA%B2%BD%EA%B8%B0%EB%8F%84-%ED%8F%89%ED%83%9D%EC%8B%9C-%EC%84%9C%EC%A0%95%EB%8F%99/", "workingTime": ["-", "09:00~16:00", "09:00~16:00", "09:00~16:00", "09:00~16:00", "09:00~16:00", "08:30~16:00", "-"]}, {"name": "\uc1a1\ud0c4\uc2dc\uc7a5\uc57d\uad6d", "lat": "37.05606131371801", "lng": "127.05588093753826", "url": "/info/%EC%86%A1%ED%83%84%EC%8B%9C%EC%9E%A5%EC%95%BD%EA%B5%AD-%EA%B2%BD%EA%B8%B0%EB%8F%84-%ED%8F%89%ED%83%9D%EC%8B%9C-%EC%84%9C%EC%A0%95%EB%8F%99/", "workingTime": ["-", "09:00~21:00", "09:00~21:00", "09:00~21:00", "09:00~21:00", "09:00~21:00", "09:00~18:00", "-"]}, {"name": "\uc6b0\ubbf8\uc57d\uad6d", "lat": "37.06678262971833", "lng": "127.0589157534472", "url": "/info/%EC%9A%B0%EB%AF%B8%EC%95%BD%EA%B5%AD-%EA%B2%BD%EA%B8%B0%EB%8F%84-%ED%8F%89%ED%83%9D%EC%8B%9C-%EC%84%9C%EC%A0%95%EB%8F%99/", "workingTime": ["-", "09:00~19:30", "09:00~19:30", "09:00~19:30", "09:00~19:30", "09:00~19:30", "09:00~16:00", "-"]}, {"name": "\uc628\ub204\ub9ac\uc601\uc9c4\uc57d\uad6d", "lat": "37.06316085668936", "lng": "127.05778859332963", "url": "/info/%EC%98%A8%EB%88%84%EB%A6%AC%EC%98%81%EC%A7%84%EC%95%BD%EA%B5%AD-%EA%B2%BD%EA%B8%B0%EB%8F%84-%ED%8F%89%ED%83%9D%EC%8B%9C-%EC%84%9C%EC%A0%95%EB%8F%99/", "workingTime": ["-", "09:00~20:00", "09:00~20:00", "09:00~20:00", "09:00~20:00", "09:00~20:00", "09:00~18:00", "-"]}, {"name": "\uc11c\uc815\ubd80\ubd80\uc57d\uad6d", "lat": "37.05829825194586", "lng": "127.05534844975901", "url": "/info/%EC%84%9C%EC%A0%95%EB%B6%80%EB%B6%80%EC%95%BD%EA%B5%AD-%EA%B2%BD%EA%B8%B0%EB%8F%84-%ED%8F%89%ED%83%9D%EC%8B%9C-%EC%84%9C%EC%A0%95%EB%8F%99/", "workingTime": ["-", "08:30~20:00", "08:30~20:00", "08:30~20:00", "08:30~20:00", "08:30~20:00", "08:30~17:00", "-"]}, {"name": "\uc138\ub9bc\uc57d\uad6d", "lat": "37.0679719047106", "lng": "127.05916407173822", "url": "/info/%EC%84%B8%EB%A6%BC%EC%95%BD%EA%B5%AD-%EA%B2%BD%EA%B8%B0%EB%8F%84-%ED%8F%89%ED%83%9D%EC%8B%9C-%EC%84%9C%EC%A0%95%EB%8F%99/", "workingTime": ["-", "09:00~19:00", "09:00~19:00", "09:00~19:00", "09:00~19:00", "09:00~19:00", "09:00~14:00", "09:00~12:00"]}, {"name": "\uc0c8\ud76c\ub9dd\uc57d\uad6d", "lat": "37.056457783188", "lng": "127.055922469854", "url": "/info/%EC%83%88%ED%9D%AC%EB%A7%9D%EC%95%BD%EA%B5%AD-%EA%B2%BD%EA%B8%B0%EB%8F%84-%ED%8F%89%ED%83%9D%EC%8B%9C-%EC%84%9C%EC%A0%95%EB%8F%99/", "workingTime": ["-", "10:00~18:00", "10:00~18:00", "10:00~18:00", "10:00~18:00", "10:00~18:00", "-", "-"]}, {"name": "\uba85\uc131\uc57d\uad6d", "lat": "37.06715479114916", "lng": "127.0610803021466", "url": "/info/%EB%AA%85%EC%84%B1%EC%95%BD%EA%B5%AD-%EA%B2%BD%EA%B8%B0%EB%8F%84-%ED%8F%89%ED%83%9D%EC%8B%9C-%EC%84%9C%EC%A0%95%EB%8F%99/", "workingTime": ["-", "09:00~19:00", "09:00~19:00", "09:00~19:00", "09:00~19:00", "09:00~19:00", "09:00~16:00", "09:00~13:00"]}, {"name": "\uc11c\uc815\uc628\ub204\ub9ac\uc57d\uad6d", "lat": "37.0576192761058", "lng": "127.05395726415568", "url": "/info/%EC%84%9C%EC%A0%95%EC%98%A8%EB%88%84%EB%A6%AC%EC%95%BD%EA%B5%AD-%EA%B2%BD%EA%B8%B0%EB%8F%84-%ED%8F%89%ED%83%9D%EC%8B%9C-%EC%84%9C%EC%A0%95%EB%8F%99/", "workingTime": ["-", "09:00~20:00", "09:00~20:00", "09:00~20:00", "09:00~20:00", "09:00~20:00", "09:00~16:00", "-"]}, {"name": "\uc11c\uc815\ub9ac\uc624\ub80c\uc9c0\uc57d\uad6d", "lat": "37.05678673342595", "lng": "127.05384874332124", "url": "/info/%EC%84%9C%EC%A0%95%EB%A6%AC%EC%98%A4%EB%A0%8C%EC%A7%80%EC%95%BD%EA%B5%AD-%EA%B2%BD%EA%B8%B0%EB%8F%84-%ED%8F%89%ED%83%9D%EC%8B%9C-%EC%84%9C%EC%A0%95%EB%8F%99/", "workingTime": ["-", "08:30~21:30", "08:30~21:30", "08:30~21:30", "08:30~21:30", "08:30~21:30", "08:30~21:30", "-"]}, {"name": "\uc815\ubb38\uc57d\uad6d", "lat": "37.06511017742097", "lng": "127.06588578623182", "url": "/info/%EC%A0%95%EB%AC%B8%EC%95%BD%EA%B5%AD-%EA%B2%BD%EA%B8%B0%EB%8F%84-%ED%8F%89%ED%83%9D%EC%8B%9C-%EC%84%9C%EC%A0%95%EB%8F%99/", "workingTime": ["-", "09:00~18:00", "09:00~18:00", "09:00~18:00", "09:00~18:00", "09:00~18:00", "-", "-"]}, {"name": "\ud478\ub978\uc57d\uad6d", "lat": "37.06601978832882", "lng": "127.05627054498359", "url": "/info/%ED%91%B8%EB%A5%B8%EC%95%BD%EA%B5%AD-%EA%B2%BD%EA%B8%B0%EB%8F%84-%ED%8F%89%ED%83%9D%EC%8B%9C-%EC%84%9C%EC%A0%95%EB%8F%99/", "workingTime": ["-", "09:00~20:00", "09:00~20:00", "09:00~20:00", "09:00~20:00", "09:00~20:00", "09:00~19:00", "-"]}, {"name": "\ud558\ub098\uc57d\uad6d", "lat": "37.07102881715747", "lng": "127.05819938070387", "url": "/info/%ED%95%98%EB%82%98%EC%95%BD%EA%B5%AD-%EA%B2%BD%EA%B8%B0%EB%8F%84-%ED%8F%89%ED%83%9D%EC%8B%9C-%EC%84%9C%EC%A0%95%EB%8F%99/", "workingTime": ["09:00~22:00(\uc5f0\ub77d\ud6c4\ubc29\ubb38\uc694\ub9dd)", "09:00~22:00", "09:00~22:00", "09:00~22:00", "09:00~22:00", "09:00~22:00", "09:00~22:00", "-"]}, {"name": "GS\uc57d\uad6d", "lat": "37.067078351634706", "lng": "127.06255549182926", "url": "/info/GS%EC%95%BD%EA%B5%AD-%EA%B2%BD%EA%B8%B0%EB%8F%84-%ED%8F%89%ED%83%9D%EC%8B%9C-%EC%84%9C%EC%A0%95%EB%8F%99/", "workingTime": ["-", "09:00~14:00", "09:00~14:00", "09:00~14:00", "09:00~14:00", "09:00~14:00", "09:00~15:00", "09:00~22:00"]}, {"name": "\uc2dc\ub124\ub9c8\uc57d\uad6d", "lat": "37.06724858759976", "lng": "127.06090946207217", "url": "/info/%EC%8B%9C%EB%84%A4%EB%A7%88%EC%95%BD%EA%B5%AD-%EA%B2%BD%EA%B8%B0%EB%8F%84-%ED%8F%89%ED%83%9D%EC%8B%9C-%EC%84%9C%EC%A0%95%EB%8F%99/", "workingTime": ["-", "09:00~15:00", "09:00~15:00", "09:00~15:00", "09:00~15:00", "09:00~15:00", "09:00~15:00", "09:00~13:00"]}, {"name": "\uc0bc\uc131\uc57d\uad6d", "lat": "37.06704363202286", "lng": "127.0630223956071", "url": "/info/%EC%82%BC%EC%84%B1%EC%95%BD%EA%B5%AD-%EA%B2%BD%EA%B8%B0%EB%8F%84-%ED%8F%89%ED%83%9D%EC%8B%9C-%EC%84%9C%EC%A0%95%EB%8F%99/", "workingTime": ["-", "09:00~20:00", "09:00~20:00", "09:00~20:00", "09:00~20:00", "09:00~20:00", "09:00~16:00", "-"]}, {"name": "\uc1a1\ud0c4\uc628\ub204\ub9ac\uc57d\uad6d", "lat": "37.07082016216171", "lng": "127.0574255514016", "url": "/info/%EC%86%A1%ED%83%84%EC%98%A8%EB%88%84%EB%A6%AC%EC%95%BD%EA%B5%AD-%EA%B2%BD%EA%B8%B0%EB%8F%84-%ED%8F%89%ED%83%9D%EC%8B%9C-%EC%84%9C%EC%A0%95%EB%8F%99/", "workingTime": ["09:00~23:00(\uc5f0\ub77d\ud6c4\ubc29\ubb38\uc694\ub9dd)", "09:00~23:00", "09:00~23:00", "09:00~23:00", "09:00~23:00", "09:00~23:00", "09:00~23:00", "09:00~23:00"]}, {"name": "\uc624\uc57d\uad6d", "lat": "37.06715236670866", "lng": "127.06183959672252", "url": "/info/%EC%98%A4%EC%95%BD%EA%B5%AD-%EA%B2%BD%EA%B8%B0%EB%8F%84-%ED%8F%89%ED%83%9D%EC%8B%9C-%EC%84%9C%EC%A0%95%EB%8F%99/", "workingTime": ["-", "09:00~21:00", "09:00~21:00", "09:00~21:00", "09:00~21:00", "09:00~21:00", "09:00~18:00", "-"]}, {"name": "\uc0c1\ub85d\uc218\uc57d\uad6d", "lat": "37.05793560966539", "lng": "127.05574739582556", "url": "/info/%EC%83%81%EB%A1%9D%EC%88%98%EC%95%BD%EA%B5%AD-%EA%B2%BD%EA%B8%B0%EB%8F%84-%ED%8F%89%ED%83%9D%EC%8B%9C-%EC%84%9C%EC%A0%95%EB%8F%99/", "workingTime": ["09:00~21:00(\uc5f0\ub77d\ud6c4\ubc29\ubb38\uc694\ub9dd)", "09:00~21:00", "09:00~21:00", "09:00~21:00", "09:00~21:00", "09:00~21:00", "08:30~22:00", "-"]}, {"name": "\uc11c\uc815\uad7f\ubaa8\ub2dd\uc57d\uad6d", "lat": "37.05739304494162", "lng": "127.05651706660164", "url": "/info/%EC%84%9C%EC%A0%95%EA%B5%BF%EB%AA%A8%EB%8B%9D%EC%95%BD%EA%B5%AD-%EA%B2%BD%EA%B8%B0%EB%8F%84-%ED%8F%89%ED%83%9D%EC%8B%9C-%EC%84%9C%EC%A0%95%EB%8F%99/", "workingTime": ["-", "08:30~19:00", "08:30~19:00", "08:30~19:00", "08:30~19:00", "08:30~19:00", "08:30~14:00", "-"]}, {"name": "\uc778\ud654\ub2f9\uc57d\uad6d", "lat": "37.05711746685686", "lng": "127.05567933991503", "url": "/info/%EC%9D%B8%ED%99%94%EB%8B%B9%EC%95%BD%EA%B5%AD-%EA%B2%BD%EA%B8%B0%EB%8F%84-%ED%8F%89%ED%83%9D%EC%8B%9C-%EC%84%9C%EC%A0%95%EB%8F%99/", "workingTime": ["-", "09:00~20:00", "09:00~20:00", "09:00~20:00", "09:00~20:00", "09:00~20:00", "09:00~16:00", "-"]}, {"name": "\uc1a1\ud0c4\uc6b0\ub9ac\uc57d\uad6d", "lat": "37.066978392507025", "lng": "127.06367003572094", "url": "/info/%EC%86%A1%ED%83%84%EC%9A%B0%EB%A6%AC%EC%95%BD%EA%B5%AD-%EA%B2%BD%EA%B8%B0%EB%8F%84-%ED%8F%89%ED%83%9D%EC%8B%9C-%EC%84%9C%EC%A0%95%EB%8F%99/", "workingTime": ["-", "09:00~19:00", "09:00~19:00", "09:00~19:00", "09:00~19:00", "09:00~19:00", "09:00~15:00", "-"]}]