[{"name": "\uc2e0\uc138\uacc4\uc57d\uad6d", "lat": "37.20298913396764", "lng": "127.54630333966904", "url": "/info/%EC%8B%A0%EC%84%B8%EA%B3%84%EC%95%BD%EA%B5%AD-%EA%B2%BD%EA%B8%B0%EB%8F%84-%EC%97%AC%EC%A3%BC%EC%8B%9C-%EA%B0%80%EB%82%A8%EC%9D%8D/", "workingTime": ["-", "09:00~19:00", "09:00~19:00", "09:00~19:00", "09:00~19:00", "09:00~19:00", "09:00~15:00", "-"]}, {"name": "\uc0ac\ub791\uc57d\uad6d", "lat": "37.2033159434063", "lng": "127.54622772558", "url": "/info/%EC%82%AC%EB%9E%91%EC%95%BD%EA%B5%AD-%EA%B2%BD%EA%B8%B0%EB%8F%84-%EC%97%AC%EC%A3%BC%EC%8B%9C-%EA%B0%80%EB%82%A8%EC%9D%8D/", "workingTime": ["-", "09:00~18:00", "09:00~18:00", "09:00~18:00", "09:00~18:00", "09:00~18:00", "-", "-"]}, {"name": "\uac00\ub0a8 \ud504\ub77c\uc790\uc57d\uad6d", "lat": "37.2040415407", "lng": "127.5447428848", "url": "/info/%EA%B0%80%EB%82%A8+%ED%94%84%EB%9D%BC%EC%9E%90%EC%95%BD%EA%B5%AD-%EA%B2%BD%EA%B8%B0%EB%8F%84-%EC%97%AC%EC%A3%BC%EC%8B%9C-%EA%B0%80%EB%82%A8%EC%9D%8D/", "workingTime": ["08:00~22:00(\uc5f0\ub77d\ud6c4\ubc29\ubb38\uc694\ub9dd)", "08:00~22:00", "08:00~22:00", "08:00~22:00", "08:00~22:00", "08:00~22:00", "08:00~22:00", "-"]}, {"name": "\ud130\ubbf8\ub110\uc57d\uad6d", "lat": "37.20457698405852", "lng": "127.54429507324289", "url": "/info/%ED%84%B0%EB%AF%B8%EB%84%90%EC%95%BD%EA%B5%AD-%EA%B2%BD%EA%B8%B0%EB%8F%84-%EC%97%AC%EC%A3%BC%EC%8B%9C-%EA%B0%80%EB%82%A8%EC%9D%8D/", "workingTime": ["-", "09:00~20:00", "09:00~20:00", "09:00~16:00", "09:00~20:00", "09:00~20:00", "09:00~15:30", "-"]}, {"name": "\uc655\uc57d\uad6d", "lat": "37.20300070794703", "lng": "127.54614119642228", "url": "/info/%EC%99%95%EC%95%BD%EA%B5%AD-%EA%B2%BD%EA%B8%B0%EB%8F%84-%EC%97%AC%EC%A3%BC%EC%8B%9C-%EA%B0%80%EB%82%A8%EC%9D%8D/", "workingTime": ["-", "09:00~19:00", "09:00~19:00", "09:00~19:00", "09:00~19:00", "09:00~19:00", "09:00~13:00", "-"]}, {"name": "\ubaa8\uc544\uc57d\uad6d", "lat": "37.2046919008", "lng": "127.5436075804", "url": "/info/%EB%AA%A8%EC%95%84%EC%95%BD%EA%B5%AD-%EA%B2%BD%EA%B8%B0%EB%8F%84-%EC%97%AC%EC%A3%BC%EC%8B%9C-%EA%B0%80%EB%82%A8%EC%9D%8D/", "workingTime": ["-", "09:00~18:00", "09:00~18:00", "09:00~18:00", "09:00~12:30", "09:00~18:00", "-", "-"]}]