[{"name": "\uc815\uc6d0\uc57d\uad6d", "lat": "37.4294305630149", "lng": "127.129002698224", "url": "/info/%EC%A0%95%EC%9B%90%EC%95%BD%EA%B5%AD-%EA%B2%BD%EA%B8%B0%EB%8F%84-%EC%84%B1%EB%82%A8%EC%8B%9C-%EC%84%B1%EB%82%A8%EB%8F%99/", "workingTime": ["-", "09:00~18:00", "09:00~18:00", "09:00~18:00", "09:00~18:00", "09:00~18:00", "-", "-"]}, {"name": "\uc2e0\ud55c\ud0c0\uc6cc\uc57d\uad6d", "lat": "37.43747730146227", "lng": "127.1418590204243", "url": "/info/%EC%8B%A0%ED%95%9C%ED%83%80%EC%9B%8C%EC%95%BD%EA%B5%AD-%EA%B2%BD%EA%B8%B0%EB%8F%84-%EC%84%B1%EB%82%A8%EC%8B%9C-%EC%84%B1%EB%82%A8%EB%8F%99/", "workingTime": ["-", "09:00~19:00", "09:00~19:00", "09:00~19:00", "09:00~19:00", "09:00~19:00", "09:00~17:30", "-"]}, {"name": "\ubaa8\ub780\uc2dc\ubbfc\uc57d\uad6d", "lat": "37.4297248673021", "lng": "127.128476586004", "url": "/info/%EB%AA%A8%EB%9E%80%EC%8B%9C%EB%AF%BC%EC%95%BD%EA%B5%AD-%EA%B2%BD%EA%B8%B0%EB%8F%84-%EC%84%B1%EB%82%A8%EC%8B%9C-%EC%84%B1%EB%82%A8%EB%8F%99/", "workingTime": ["-", "08:30~20:10", "08:30~20:10", "08:30~20:10", "08:30~20:10", "08:30~20:10", "08:30~16:00", "-"]}, {"name": "\uae30\uc2b9\uc804\ud734\ubca0\uc774\uc2a4\uc57d\uad6d", "lat": "37.43339557008796", "lng": "127.13105404337941", "url": "/info/%EA%B8%B0%EC%8A%B9%EC%A0%84%ED%9C%B4%EB%B2%A0%EC%9D%B4%EC%8A%A4%EC%95%BD%EA%B5%AD-%EA%B2%BD%EA%B8%B0%EB%8F%84-%EC%84%B1%EB%82%A8%EC%8B%9C-%EC%84%B1%EB%82%A8%EB%8F%99/", "workingTime": ["-", "09:00~21:00", "09:00~21:00", "09:00~21:00", "09:00~21:00", "09:00~21:00", "09:00~21:00", "13:00~21:00"]}, {"name": "\ubaa8\ub780\uc628\ub204\ub9ac\uc57d\uad6d", "lat": "37.4309456357784", "lng": "127.129812919052", "url": "/info/%EB%AA%A8%EB%9E%80%EC%98%A8%EB%88%84%EB%A6%AC%EC%95%BD%EA%B5%AD-%EA%B2%BD%EA%B8%B0%EB%8F%84-%EC%84%B1%EB%82%A8%EC%8B%9C-%EC%84%B1%EB%82%A8%EB%8F%99/", "workingTime": ["-", "09:00~21:00", "09:00~21:00", "09:00~21:00", "09:00~21:00", "09:00~21:00", "09:00~21:00", "-"]}, {"name": "\ubaa8\ub780\ud31c\uc57d\uad6d", "lat": "37.4331663960519", "lng": "127.12970681593231", "url": "/info/%EB%AA%A8%EB%9E%80%ED%8C%9C%EC%95%BD%EA%B5%AD-%EA%B2%BD%EA%B8%B0%EB%8F%84-%EC%84%B1%EB%82%A8%EC%8B%9C-%EC%84%B1%EB%82%A8%EB%8F%99/", "workingTime": ["-", "09:00~19:30", "09:00~19:30", "09:00~19:30", "09:00~19:30", "09:00~19:30", "09:00~13:30", "-"]}, {"name": "\uac10\ucd08\uc57d\uad6d", "lat": "37.43880006073545", "lng": "127.14493680038929", "url": "/info/%EA%B0%90%EC%B4%88%EC%95%BD%EA%B5%AD-%EA%B2%BD%EA%B8%B0%EB%8F%84-%EC%84%B1%EB%82%A8%EC%8B%9C-%EC%84%B1%EB%82%A8%EB%8F%99/", "workingTime": ["-", "09:00~22:00", "09:00~22:00", "09:00~22:00", "09:00~22:00", "09:00~22:00", "09:00~22:00", "10:00~22:00"]}, {"name": "\uc0c8\ub85c\uc6b4\uc57d\uad6d", "lat": "37.431718575776834", "lng": "127.12881602824989", "url": "/info/%EC%83%88%EB%A1%9C%EC%9A%B4%EC%95%BD%EA%B5%AD-%EA%B2%BD%EA%B8%B0%EB%8F%84-%EC%84%B1%EB%82%A8%EC%8B%9C-%EC%84%B1%EB%82%A8%EB%8F%99/", "workingTime": ["-", "09:00~20:30", "09:00~20:30", "09:00~20:30", "09:00~20:30", "09:00~20:30", "09:00~17:00", "-"]}, {"name": "\ubaa8\ub780\uc911\uc559\uc57d\uad6d", "lat": "37.43237822004408", "lng": "127.12867954766511", "url": "/info/%EB%AA%A8%EB%9E%80%EC%A4%91%EC%95%99%EC%95%BD%EA%B5%AD-%EA%B2%BD%EA%B8%B0%EB%8F%84-%EC%84%B1%EB%82%A8%EC%8B%9C-%EC%84%B1%EB%82%A8%EB%8F%99/", "workingTime": ["-", "09:00~22:00", "09:00~22:00", "09:00~22:00", "09:00~22:00", "09:00~22:00", "09:00~20:00", "-"]}, {"name": "\ud2bc\ud2bc\uc57d\uad6d", "lat": "37.43105925246063", "lng": "127.12861605844972", "url": "/info/%ED%8A%BC%ED%8A%BC%EC%95%BD%EA%B5%AD-%EA%B2%BD%EA%B8%B0%EB%8F%84-%EC%84%B1%EB%82%A8%EC%8B%9C-%EC%84%B1%EB%82%A8%EB%8F%99/", "workingTime": ["-", "09:00~19:00", "09:00~19:00", "09:00~19:00", "09:00~19:00", "09:00~19:00", "09:00~15:00", "-"]}, {"name": "\ubaa8\ub780\uc218\uc57d\uad6d", "lat": "37.43051556485812", "lng": "127.12891362759026", "url": "/info/%EB%AA%A8%EB%9E%80%EC%88%98%EC%95%BD%EA%B5%AD-%EA%B2%BD%EA%B8%B0%EB%8F%84-%EC%84%B1%EB%82%A8%EC%8B%9C-%EC%84%B1%EB%82%A8%EB%8F%99/", "workingTime": ["-", "08:30~19:00", "08:30~19:00", "08:30~19:00", "08:30~13:00", "08:30~19:00", "08:30~14:30", "-"]}, {"name": "\ud55c\uc77c\uc57d\uad6d", "lat": "37.436590233455256", "lng": "127.14224943544657", "url": "/info/%ED%95%9C%EC%9D%BC%EC%95%BD%EA%B5%AD-%EA%B2%BD%EA%B8%B0%EB%8F%84-%EC%84%B1%EB%82%A8%EC%8B%9C-%EC%84%B1%EB%82%A8%EB%8F%99/", "workingTime": ["-", "09:00~18:30", "09:00~18:30", "09:00~18:30", "09:00~18:30", "09:00~18:30", "09:00~14:00", "-"]}, {"name": "\uc0c1\uc544\uc57d\uad6d", "lat": "37.432916796820344", "lng": "127.13053348173183", "url": "/info/%EC%83%81%EC%95%84%EC%95%BD%EA%B5%AD-%EA%B2%BD%EA%B8%B0%EB%8F%84-%EC%84%B1%EB%82%A8%EC%8B%9C-%EC%84%B1%EB%82%A8%EB%8F%99/", "workingTime": ["-", "09:00~18:00", "09:00~18:00", "09:00~18:00", "09:00~18:00", "09:00~18:00", "09:00~13:00", "-"]}, {"name": "\uc218\uc9c4\ud558\ub098\uc57d\uad6d", "lat": "37.43602188159819", "lng": "127.14134102440876", "url": "/info/%EC%88%98%EC%A7%84%ED%95%98%EB%82%98%EC%95%BD%EA%B5%AD-%EA%B2%BD%EA%B8%B0%EB%8F%84-%EC%84%B1%EB%82%A8%EC%8B%9C-%EC%84%B1%EB%82%A8%EB%8F%99/", "workingTime": ["-", "09:00~19:30", "09:00~19:30", "09:00~19:30", "09:00~19:30", "09:00~19:30", "09:00~15:30", "-"]}, {"name": "\uc790\uc5f0\uc57d\uad6d", "lat": "37.4303294378", "lng": "127.1366030233", "url": "/info/%EC%9E%90%EC%97%B0%EC%95%BD%EA%B5%AD-%EA%B2%BD%EA%B8%B0%EB%8F%84-%EC%84%B1%EB%82%A8%EC%8B%9C-%EC%84%B1%EB%82%A8%EB%8F%99/", "workingTime": ["-", "09:00~21:00", "09:00~21:00", "09:00~21:00", "09:00~21:00", "09:00~21:00", "-", "-"]}, {"name": "\uc0c8\ubaa8\ub78021\uc138\uae30\uc57d\uad6d", "lat": "37.4322764122", "lng": "127.1295064221", "url": "/info/%EC%83%88%EB%AA%A8%EB%9E%8021%EC%84%B8%EA%B8%B0%EC%95%BD%EA%B5%AD-%EA%B2%BD%EA%B8%B0%EB%8F%84-%EC%84%B1%EB%82%A8%EC%8B%9C-%EC%84%B1%EB%82%A8%EB%8F%99/", "workingTime": ["08:00~22:00(\uc5f0\ub77d\ud6c4\ubc29\ubb38\uc694\ub9dd)", "08:00~23:00", "08:00~23:00", "08:00~23:00", "08:00~23:00", "08:00~23:00", "08:00~23:00", "08:00~22:00"]}, {"name": "\uc774\uc548\uc57d\uad6d", "lat": "37.4307299494453", "lng": "127.12979751956134", "url": "/info/%EC%9D%B4%EC%95%88%EC%95%BD%EA%B5%AD-%EA%B2%BD%EA%B8%B0%EB%8F%84-%EC%84%B1%EB%82%A8%EC%8B%9C-%EC%84%B1%EB%82%A8%EB%8F%99/", "workingTime": ["-", "09:30~21:00", "09:30~21:00", "09:30~21:00", "09:30~21:00", "09:30~21:00", "-", "-"]}, {"name": "\uad11\uc7a5\uc57d\uad6d", "lat": "37.43258108953175", "lng": "127.12937590126461", "url": "/info/%EA%B4%91%EC%9E%A5%EC%95%BD%EA%B5%AD-%EA%B2%BD%EA%B8%B0%EB%8F%84-%EC%84%B1%EB%82%A8%EC%8B%9C-%EC%84%B1%EB%82%A8%EB%8F%99/", "workingTime": ["-", "09:30~20:00", "09:30~20:00", "09:30~20:00", "09:30~20:00", "09:30~20:00", "-", "-"]}]