[{"name": "\uc635\ud2f0\ub9c8\uc218\uc57d\uad6d", "lat": "37.33299572874933", "lng": "126.8222293449839", "url": "/info/%EC%98%B5%ED%8B%B0%EB%A7%88%EC%88%98%EC%95%BD%EA%B5%AD-%EA%B2%BD%EA%B8%B0%EB%8F%84-%EC%95%88%EC%82%B0%EC%8B%9C-%EC%99%80%EB%8F%99/", "workingTime": ["1,2,3,4,5\uc9f8\uc8fc12:00~18:00", "09:00~21:00", "09:00~21:00", "09:00~21:00", "09:00~21:00", "09:00~21:00", "09:00~15:00", "-"]}, {"name": "\uc608\uc6d0\uc57d\uad6d", "lat": "37.3416935484", "lng": "126.8199563058", "url": "/info/%EC%98%88%EC%9B%90%EC%95%BD%EA%B5%AD-%EA%B2%BD%EA%B8%B0%EB%8F%84-%EC%95%88%EC%82%B0%EC%8B%9C-%EC%99%80%EB%8F%99/", "workingTime": ["-", "09:00~19:30", "09:00~19:30", "09:00~19:30", "09:00~19:30", "09:00~19:30", "09:00~13:00", "-"]}, {"name": "\uba54\ub514\ud31c\uc778\uc131\uc57d\uad6d", "lat": "37.3330074149768", "lng": "126.82221126325964", "url": "/info/%EB%A9%94%EB%94%94%ED%8C%9C%EC%9D%B8%EC%84%B1%EC%95%BD%EA%B5%AD-%EA%B2%BD%EA%B8%B0%EB%8F%84-%EC%95%88%EC%82%B0%EC%8B%9C-%EC%99%80%EB%8F%99/", "workingTime": ["1,2,3,4,5\uc9f8\uc8fc14:00~19:00", "09:00~21:00", "09:00~21:00", "09:00~21:00", "09:00~21:00", "09:00~21:00", "09:00~15:00", "14:00~19:00"]}, {"name": "\ucc38\uc0ac\ub791\uc57d\uad6d", "lat": "37.331313888888886", "lng": "126.826741666666663", "url": "/info/%EC%B0%B8%EC%82%AC%EB%9E%91%EC%95%BD%EA%B5%AD-%EA%B2%BD%EA%B8%B0%EB%8F%84-%EC%95%88%EC%82%B0%EC%8B%9C-%EC%99%80%EB%8F%99/", "workingTime": ["-", "09:00~19:00", "09:00~19:00", "09:00~19:00", "09:00~19:00", "09:00~19:00", "09:00~13:00", "09:00~13:00"]}, {"name": "\ub298\ud478\ub978\uc57d\uad6d", "lat": "37.334723134906945", "lng": "126.82966828252547", "url": "/info/%EB%8A%98%ED%91%B8%EB%A5%B8%EC%95%BD%EA%B5%AD-%EA%B2%BD%EA%B8%B0%EB%8F%84-%EC%95%88%EC%82%B0%EC%8B%9C-%EC%99%80%EB%8F%99/", "workingTime": ["-", "09:00~21:00", "09:00~21:00", "09:00~21:00", "09:00~21:00", "09:00~21:00", "09:00~19:00", "-"]}, {"name": "\uc640\ub3d9\uadf8\ub79c\ub4dc\uc57d\uad6d", "lat": "37.34453898622273", "lng": "126.8211367566494", "url": "/info/%EC%99%80%EB%8F%99%EA%B7%B8%EB%9E%9C%EB%93%9C%EC%95%BD%EA%B5%AD-%EA%B2%BD%EA%B8%B0%EB%8F%84-%EC%95%88%EC%82%B0%EC%8B%9C-%EC%99%80%EB%8F%99/", "workingTime": ["-", "09:00~22:00", "09:00~22:00", "09:00~22:00", "09:00~22:00", "09:00~22:00", "09:00~22:00", "10:00~20:00"]}, {"name": "\ud070\ubc14\uc704\uc57d\uad6d", "lat": "37.34020963892101", "lng": "126.82752703171221", "url": "/info/%ED%81%B0%EB%B0%94%EC%9C%84%EC%95%BD%EA%B5%AD-%EA%B2%BD%EA%B8%B0%EB%8F%84-%EC%95%88%EC%82%B0%EC%8B%9C-%EC%99%80%EB%8F%99/", "workingTime": ["-", "09:00~18:00", "09:00~18:00", "09:00~18:00", "09:00~18:00", "09:00~18:00", "09:00~18:00", "-"]}, {"name": "\uc0c8\ud55c\uc57d\uad6d", "lat": "37.3325400342", "lng": "126.8278587568", "url": "/info/%EC%83%88%ED%95%9C%EC%95%BD%EA%B5%AD-%EA%B2%BD%EA%B8%B0%EB%8F%84-%EC%95%88%EC%82%B0%EC%8B%9C-%EC%99%80%EB%8F%99/", "workingTime": ["-", "09:00~21:00", "09:00~21:00", "09:00~21:00", "09:00~21:00", "09:00~21:00", "09:00~16:00", "-"]}, {"name": "\uc720\uba85\uc57d\uad6d", "lat": "37.34152077127105", "lng": "126.82219294921322", "url": "/info/%EC%9C%A0%EB%AA%85%EC%95%BD%EA%B5%AD-%EA%B2%BD%EA%B8%B0%EB%8F%84-%EC%95%88%EC%82%B0%EC%8B%9C-%EC%99%80%EB%8F%99/", "workingTime": ["-", "08:30~21:30", "08:30~21:30", "08:30~21:30", "08:30~21:30", "08:30~21:30", "08:30~16:30", "09:00~18:00"]}, {"name": "\uc9c4\uc8fc\uc57d\uad6d", "lat": "37.346839300197765", "lng": "126.82146703726407", "url": "/info/%EC%A7%84%EC%A3%BC%EC%95%BD%EA%B5%AD-%EA%B2%BD%EA%B8%B0%EB%8F%84-%EC%95%88%EC%82%B0%EC%8B%9C-%EC%99%80%EB%8F%99/", "workingTime": ["-", "09:00~22:00", "09:00~22:00", "09:00~22:00", "09:00~22:00", "09:00~22:00", "09:00~22:00", "-"]}, {"name": "\ub3d9\uc758\ub2f9\uc57d\uad6d", "lat": "37.34453200510174", "lng": "126.82129479160251", "url": "/info/%EB%8F%99%EC%9D%98%EB%8B%B9%EC%95%BD%EA%B5%AD-%EA%B2%BD%EA%B8%B0%EB%8F%84-%EC%95%88%EC%82%B0%EC%8B%9C-%EC%99%80%EB%8F%99/", "workingTime": ["-", "09:00~22:00", "09:00~22:00", "09:00~22:00", "09:00~22:00", "09:00~22:00", "09:00~22:00", "09:00~21:00"]}]