[{"name": "\uc138\ub958\uc911\uc559\uc57d\uad6d", "lat": "37.26185433143087", "lng": "127.00728703368942", "url": "/info/%EC%84%B8%EB%A5%98%EC%A4%91%EC%95%99%EC%95%BD%EA%B5%AD-%EA%B2%BD%EA%B8%B0%EB%8F%84-%EC%88%98%EC%9B%90%EC%8B%9C-%EC%84%B8%EB%A5%98%EB%8F%99/", "workingTime": ["-", "09:00~18:00", "09:00~18:00", "09:00~18:00", "09:00~18:00", "09:00~18:00", "-", "-"]}, {"name": "\ub2e4\uc19c\uc57d\uad6d", "lat": "37.254029321562314", "lng": "127.01167788679811", "url": "/info/%EB%8B%A4%EC%86%9C%EC%95%BD%EA%B5%AD-%EA%B2%BD%EA%B8%B0%EB%8F%84-%EC%88%98%EC%9B%90%EC%8B%9C-%EC%84%B8%EB%A5%98%EB%8F%99/", "workingTime": ["-", "09:00~19:00", "09:00~19:00", "09:00~19:00", "09:00~19:00", "09:00~19:00", "-", "-"]}, {"name": "\uc6b0\ub9ac\uc628\ub204\ub9ac\uc57d\uad6d", "lat": "37.2444673949843", "lng": "127.017204222682", "url": "/info/%EC%9A%B0%EB%A6%AC%EC%98%A8%EB%88%84%EB%A6%AC%EC%95%BD%EA%B5%AD-%EA%B2%BD%EA%B8%B0%EB%8F%84-%EC%88%98%EC%9B%90%EC%8B%9C-%EC%84%B8%EB%A5%98%EB%8F%99/", "workingTime": ["-", "09:00~18:00", "09:00~18:00", "09:00~18:00", "09:00~18:00", "09:00~18:00", "-", "-"]}, {"name": "\ubc14\ub85c\uc57d\uad6d", "lat": "37.2537075398089", "lng": "127.010933544097", "url": "/info/%EB%B0%94%EB%A1%9C%EC%95%BD%EA%B5%AD-%EA%B2%BD%EA%B8%B0%EB%8F%84-%EC%88%98%EC%9B%90%EC%8B%9C-%EC%84%B8%EB%A5%98%EB%8F%99/", "workingTime": ["1,2,3,4,5\uc9f8\uc8fc09:00~20:00", "08:30~21:30", "08:30~21:30", "08:30~21:30", "08:30~21:30", "08:30~21:30", "08:30~21:30", "09:00~20:00"]}, {"name": "\uc218\uc6d0\ud589\ubcf5\uc57d\uad6d", "lat": "37.266425984685", "lng": "127.01140110904", "url": "/info/%EC%88%98%EC%9B%90%ED%96%89%EB%B3%B5%EC%95%BD%EA%B5%AD-%EA%B2%BD%EA%B8%B0%EB%8F%84-%EC%88%98%EC%9B%90%EC%8B%9C-%EC%84%B8%EB%A5%98%EB%8F%99/", "workingTime": ["-", "10:00~20:00", "10:00~20:00", "10:00~20:00", "10:00~20:00", "10:00~20:00", "10:00~20:00", "-"]}, {"name": "\ub77c\uc628\uc57d\uad6d", "lat": "37.260757218461", "lng": "127.013488933393", "url": "/info/%EB%9D%BC%EC%98%A8%EC%95%BD%EA%B5%AD-%EA%B2%BD%EA%B8%B0%EB%8F%84-%EC%88%98%EC%9B%90%EC%8B%9C-%EC%84%B8%EB%A5%98%EB%8F%99/", "workingTime": ["1,2,3,4,5\uc9f8\uc8fc14:00~19:00", "09:00~20:00", "09:00~20:00", "09:00~20:00", "09:00~20:00", "09:00~20:00", "09:00~15:00", "-"]}, {"name": "\uc628\ub204\ub9ac\uc57d\uc190\uc57d\uad6d", "lat": "37.25581564737962", "lng": "127.02125066850445", "url": "/info/%EC%98%A8%EB%88%84%EB%A6%AC%EC%95%BD%EC%86%90%EC%95%BD%EA%B5%AD-%EA%B2%BD%EA%B8%B0%EB%8F%84-%EC%88%98%EC%9B%90%EC%8B%9C-%EC%84%B8%EB%A5%98%EB%8F%99/", "workingTime": ["-", "09:00~18:30", "09:00~18:30", "09:00~18:30", "09:00~18:30", "09:00~18:30", "-", "-"]}, {"name": "\uc774\ub300\uc57d\uad6d", "lat": "37.25503481853107", "lng": "127.01167102393329", "url": "/info/%EC%9D%B4%EB%8C%80%EC%95%BD%EA%B5%AD-%EA%B2%BD%EA%B8%B0%EB%8F%84-%EC%88%98%EC%9B%90%EC%8B%9C-%EC%84%B8%EB%A5%98%EB%8F%99/", "workingTime": ["-", "08:30~21:00", "08:30~21:00", "08:30~21:00", "08:30~21:00", "08:30~21:00", "08:30~18:00", "08:30~13:00"]}, {"name": "21\uc138\uae30\uc815\uc57d\uad6d", "lat": "37.2549339624815", "lng": "127.01161041301799", "url": "/info/21%EC%84%B8%EA%B8%B0%EC%A0%95%EC%95%BD%EA%B5%AD-%EA%B2%BD%EA%B8%B0%EB%8F%84-%EC%88%98%EC%9B%90%EC%8B%9C-%EC%84%B8%EB%A5%98%EB%8F%99/", "workingTime": ["-", "08:30~20:30", "08:30~20:30", "08:30~20:30", "08:30~20:30", "08:30~20:30", "-", "-"]}, {"name": "\ud55c\uc6b0\ub9ac\uc57d\uad6d", "lat": "37.2544294539", "lng": "127.0109565309", "url": "/info/%ED%95%9C%EC%9A%B0%EB%A6%AC%EC%95%BD%EA%B5%AD-%EA%B2%BD%EA%B8%B0%EB%8F%84-%EC%88%98%EC%9B%90%EC%8B%9C-%EC%84%B8%EB%A5%98%EB%8F%99/", "workingTime": ["-", "09:00~20:30", "09:00~20:30", "09:00~20:30", "09:00~20:30", "09:00~20:30", "09:00~16:00", "-"]}, {"name": "\ub298\ud478\ub978\uc57d\uad6d", "lat": "37.25714261376018", "lng": "127.01747696981822", "url": "/info/%EB%8A%98%ED%91%B8%EB%A5%B8%EC%95%BD%EA%B5%AD-%EA%B2%BD%EA%B8%B0%EB%8F%84-%EC%88%98%EC%9B%90%EC%8B%9C-%EC%84%B8%EB%A5%98%EB%8F%99/", "workingTime": ["13:00~20:00(\uc5f0\ub77d\ud6c4\ubc29\ubb38\uc694\ub9dd)", "09:00~22:00", "09:00~22:00", "09:00~22:00", "09:00~22:00", "09:00~22:00", "09:00~20:00", "-"]}, {"name": "\uacbd\uae30\uc57d\uad6d", "lat": "37.25597922893957", "lng": "127.01102440957076", "url": "/info/%EA%B2%BD%EA%B8%B0%EC%95%BD%EA%B5%AD-%EA%B2%BD%EA%B8%B0%EB%8F%84-%EC%88%98%EC%9B%90%EC%8B%9C-%EC%84%B8%EB%A5%98%EB%8F%99/", "workingTime": ["-", "09:00~18:00", "09:00~18:00", "09:00~18:00", "09:00~18:00", "09:00~18:00", "09:00~13:00", "-"]}, {"name": "\ubbf8\ub798\uc628\ub204\ub9ac\uc57d\uad6d", "lat": "37.2617750201", "lng": "127.0075981676", "url": "/info/%EB%AF%B8%EB%9E%98%EC%98%A8%EB%88%84%EB%A6%AC%EC%95%BD%EA%B5%AD-%EA%B2%BD%EA%B8%B0%EB%8F%84-%EC%88%98%EC%9B%90%EC%8B%9C-%EC%84%B8%EB%A5%98%EB%8F%99/", "workingTime": ["-", "09:00~19:00", "09:00~19:00", "09:00~19:00", "09:00~19:00", "09:00~19:00", "09:00~15:00", "-"]}, {"name": "\ub300\uba85\uc57d\uad6d", "lat": "37.24519520737877", "lng": "127.01457303176525", "url": "/info/%EB%8C%80%EB%AA%85%EC%95%BD%EA%B5%AD-%EA%B2%BD%EA%B8%B0%EB%8F%84-%EC%88%98%EC%9B%90%EC%8B%9C-%EC%84%B8%EB%A5%98%EB%8F%99/", "workingTime": ["-", "09:00~21:00", "09:00~21:00", "09:00~21:00", "09:00~21:00", "09:00~21:00", "09:00~18:00", "-"]}, {"name": "\uc724\uc57d\uad6d", "lat": "37.26324892575161", "lng": "127.007884272664", "url": "/info/%EC%9C%A4%EC%95%BD%EA%B5%AD-%EA%B2%BD%EA%B8%B0%EB%8F%84-%EC%88%98%EC%9B%90%EC%8B%9C-%EC%84%B8%EB%A5%98%EB%8F%99/", "workingTime": ["-", "09:00~20:00", "09:00~20:00", "09:00~20:00", "09:00~20:00", "09:00~20:00", "09:00~16:00", "-"]}, {"name": "\uc138\ub958\uad7f\ubaa8\ub2dd\uc57d\uad6d", "lat": "37.248734681886106", "lng": "127.01263048535213", "url": "/info/%EC%84%B8%EB%A5%98%EA%B5%BF%EB%AA%A8%EB%8B%9D%EC%95%BD%EA%B5%AD-%EA%B2%BD%EA%B8%B0%EB%8F%84-%EC%88%98%EC%9B%90%EC%8B%9C-%EC%84%B8%EB%A5%98%EB%8F%99/", "workingTime": ["-", "09:00~19:30", "09:00~19:30", "09:00~19:30", "09:00~19:30", "09:00~19:30", "09:00~15:00", "-"]}, {"name": "\uc5ed\uc804\uc774\ud654\uc57d\uad6d", "lat": "37.26393751985101", "lng": "127.00741802775144", "url": "/info/%EC%97%AD%EC%A0%84%EC%9D%B4%ED%99%94%EC%95%BD%EA%B5%AD-%EA%B2%BD%EA%B8%B0%EB%8F%84-%EC%88%98%EC%9B%90%EC%8B%9C-%EC%84%B8%EB%A5%98%EB%8F%99/", "workingTime": ["-", "09:00~21:00", "09:00~21:00", "09:00~21:00", "14:00~21:00", "09:00~21:00", "09:00~14:00", "09:00~13:00"]}, {"name": "\uc720\ub9bc\uc57d\uad6d", "lat": "37.24930385833343", "lng": "127.01528608716961", "url": "/info/%EC%9C%A0%EB%A6%BC%EC%95%BD%EA%B5%AD-%EA%B2%BD%EA%B8%B0%EB%8F%84-%EC%88%98%EC%9B%90%EC%8B%9C-%EC%84%B8%EB%A5%98%EB%8F%99/", "workingTime": ["-", "09:00~22:00", "09:00~22:00", "09:00~22:00", "09:00~22:00", "09:00~22:00", "09:00~22:00", "11:30~21:30"]}, {"name": "\ud3c9\uc548\uc57d\uad6d", "lat": "37.25885521419084", "lng": "127.01248127582636", "url": "/info/%ED%8F%89%EC%95%88%EC%95%BD%EA%B5%AD-%EA%B2%BD%EA%B8%B0%EB%8F%84-%EC%88%98%EC%9B%90%EC%8B%9C-%EC%84%B8%EB%A5%98%EB%8F%99/", "workingTime": ["-", "09:00~21:00", "09:00~21:00", "09:00~21:00", "09:00~21:00", "09:00~21:00", "09:00~19:00", "09:00~20:00"]}, {"name": "\ucc9c\uc9c0\uc5f0\uc57d\uad6d", "lat": "37.25954652449431", "lng": "127.01786984255702", "url": "/info/%EC%B2%9C%EC%A7%80%EC%97%B0%EC%95%BD%EA%B5%AD-%EA%B2%BD%EA%B8%B0%EB%8F%84-%EC%88%98%EC%9B%90%EC%8B%9C-%EC%84%B8%EB%A5%98%EB%8F%99/", "workingTime": ["-", "09:00~20:00", "09:00~20:00", "09:00~20:00", "09:00~20:00", "09:00~20:00", "09:00~14:00", "-"]}, {"name": "\ub450\ub808\uc57d\uad6d", "lat": "37.25461682205242", "lng": "127.01063393542229", "url": "/info/%EB%91%90%EB%A0%88%EC%95%BD%EA%B5%AD-%EA%B2%BD%EA%B8%B0%EB%8F%84-%EC%88%98%EC%9B%90%EC%8B%9C-%EC%84%B8%EB%A5%98%EB%8F%99/", "workingTime": ["-", "09:00~21:30", "09:00~21:30", "09:00~21:30", "09:00~21:30", "09:00~21:30", "09:00~15:30", "-"]}, {"name": "\uc138\ub958\uc628\ub204\ub9ac\uc57d\uad6d", "lat": "37.2538780354122", "lng": "127.01073551848485", "url": "/info/%EC%84%B8%EB%A5%98%EC%98%A8%EB%88%84%EB%A6%AC%EC%95%BD%EA%B5%AD-%EA%B2%BD%EA%B8%B0%EB%8F%84-%EC%88%98%EC%9B%90%EC%8B%9C-%EC%84%B8%EB%A5%98%EB%8F%99/", "workingTime": ["-", "08:30~19:00", "08:30~19:00", "08:30~19:00", "08:30~19:00", "08:30~19:00", "08:30~15:00", "-"]}, {"name": "\uc131\ube48\uc57d\uad6d", "lat": "37.2533686456722", "lng": "127.0199920068435", "url": "/info/%EC%84%B1%EB%B9%88%EC%95%BD%EA%B5%AD-%EA%B2%BD%EA%B8%B0%EB%8F%84-%EC%88%98%EC%9B%90%EC%8B%9C-%EC%84%B8%EB%A5%98%EB%8F%99/", "workingTime": ["-", "09:00~19:00", "09:00~19:00", "09:00~19:00", "09:00~19:00", "09:00~19:00", "09:00~16:00", "-"]}, {"name": "\uc628\ub204\ub9ac\uc870\uc740\uc57d\uad6d", "lat": "37.260015690667394", "lng": "127.01309922680435", "url": "/info/%EC%98%A8%EB%88%84%EB%A6%AC%EC%A1%B0%EC%9D%80%EC%95%BD%EA%B5%AD-%EA%B2%BD%EA%B8%B0%EB%8F%84-%EC%88%98%EC%9B%90%EC%8B%9C-%EC%84%B8%EB%A5%98%EB%8F%99/", "workingTime": ["-", "09:00~20:00", "09:00~20:00", "09:00~20:00", "09:00~20:00", "09:00~20:00", "09:00~18:00", "-"]}, {"name": "\uc120\ubb3c\uc57d\uad6d", "lat": "37.2571092031475", "lng": "127.01786926679804", "url": "/info/%EC%84%A0%EB%AC%BC%EC%95%BD%EA%B5%AD-%EA%B2%BD%EA%B8%B0%EB%8F%84-%EC%88%98%EC%9B%90%EC%8B%9C-%EC%84%B8%EB%A5%98%EB%8F%99/", "workingTime": ["-", "08:30~20:00", "08:30~20:00", "08:30~20:00", "08:30~20:00", "08:30~20:00", "08:30~20:00", "-"]}]