[{"name": "\ub3d9\ud55c\ub2f9\uc57d\uad6d", "lat": "37.8983480724162", "lng": "127.20445323844079", "url": "/info/%EB%8F%99%ED%95%9C%EB%8B%B9%EC%95%BD%EA%B5%AD-%EA%B2%BD%EA%B8%B0%EB%8F%84-%ED%8F%AC%EC%B2%9C%EC%8B%9C-%EC%8B%A0%EC%9D%8D%EB%8F%99/", "workingTime": ["1,2,3,4,5\uc9f8\uc8fc09:00~21:00", "08:00~21:00", "08:00~21:00", "08:00~21:00", "08:00~21:00", "08:00~21:00", "08:00~21:00", "09:00~21:00"]}, {"name": "\uba54\ub514\ud31c\uc885\ud569\uc57d\uad6d", "lat": "37.896438114369445", "lng": "127.20235261033099", "url": "/info/%EB%A9%94%EB%94%94%ED%8C%9C%EC%A2%85%ED%95%A9%EC%95%BD%EA%B5%AD-%EA%B2%BD%EA%B8%B0%EB%8F%84-%ED%8F%AC%EC%B2%9C%EC%8B%9C-%EC%8B%A0%EC%9D%8D%EB%8F%99/", "workingTime": ["-", "08:00~18:00", "08:00~18:00", "08:00~18:00", "08:00~18:00", "08:00~18:00", "08:00~16:00", "-"]}, {"name": "\ubbfc\uc0dd\uc57d\uad6d", "lat": "37.90246646014073", "lng": "127.1989941447804", "url": "/info/%EB%AF%BC%EC%83%9D%EC%95%BD%EA%B5%AD-%EA%B2%BD%EA%B8%B0%EB%8F%84-%ED%8F%AC%EC%B2%9C%EC%8B%9C-%EC%8B%A0%EC%9D%8D%EB%8F%99/", "workingTime": ["-", "08:00~19:30", "08:00~19:30", "08:00~19:30", "08:00~19:30", "08:00~19:30", "08:00~16:30", "08:00~16:30"]}, {"name": "\uc870\uc740\uc628\ub204\ub9ac\uc57d\uad6d", "lat": "37.8979905492", "lng": "127.2048842929", "url": "/info/%EC%A1%B0%EC%9D%80%EC%98%A8%EB%88%84%EB%A6%AC%EC%95%BD%EA%B5%AD-%EA%B2%BD%EA%B8%B0%EB%8F%84-%ED%8F%AC%EC%B2%9C%EC%8B%9C-%EC%8B%A0%EC%9D%8D%EB%8F%99/", "workingTime": ["-", "08:30~20:00", "08:30~20:00", "08:30~20:00", "08:30~20:00", "08:30~20:00", "-", "-"]}, {"name": "\uc870\ud55c\uc57d\uad6d", "lat": "37.9005408136371", "lng": "127.203711388535", "url": "/info/%EC%A1%B0%ED%95%9C%EC%95%BD%EA%B5%AD-%EA%B2%BD%EA%B8%B0%EB%8F%84-%ED%8F%AC%EC%B2%9C%EC%8B%9C-%EC%8B%A0%EC%9D%8D%EB%8F%99/", "workingTime": ["-", "09:00~18:00", "09:00~18:00", "09:00~18:00", "09:00~18:00", "09:00~18:00", "09:00~18:00", "-"]}, {"name": "\ubbff\uc74c\uc57d\uad6d", "lat": "37.89682073889632", "lng": "127.20245806517968", "url": "/info/%EB%AF%BF%EC%9D%8C%EC%95%BD%EA%B5%AD-%EA%B2%BD%EA%B8%B0%EB%8F%84-%ED%8F%AC%EC%B2%9C%EC%8B%9C-%EC%8B%A0%EC%9D%8D%EB%8F%99/", "workingTime": ["-", "09:00~18:30", "09:00~18:30", "09:00~18:30", "09:00~18:30", "09:00~18:30", "09:00~15:00", "-"]}, {"name": "\uc194\uc57d\uad6d", "lat": "37.89493819429527", "lng": "127.19246641835115", "url": "/info/%EC%86%94%EC%95%BD%EA%B5%AD-%EA%B2%BD%EA%B8%B0%EB%8F%84-%ED%8F%AC%EC%B2%9C%EC%8B%9C-%EC%8B%A0%EC%9D%8D%EB%8F%99/", "workingTime": ["-", "09:00~18:30", "09:00~18:30", "09:00~18:30", "09:00~18:30", "09:00~18:30", "09:00~13:30", "-"]}, {"name": "\ud3ec\ucc9c\uc815\ubb38\uc57d\uad6d", "lat": "37.902578602474556", "lng": "127.1988537353196", "url": "/info/%ED%8F%AC%EC%B2%9C%EC%A0%95%EB%AC%B8%EC%95%BD%EA%B5%AD-%EA%B2%BD%EA%B8%B0%EB%8F%84-%ED%8F%AC%EC%B2%9C%EC%8B%9C-%EC%8B%A0%EC%9D%8D%EB%8F%99/", "workingTime": ["-", "08:40~18:40", "08:40~18:40", "08:40~18:40", "08:40~18:40", "08:40~18:40", "-", "-"]}, {"name": "\ub298\ud478\ub978\uc57d\uad6d", "lat": "37.898165386147845", "lng": "127.20382515312877", "url": "/info/%EB%8A%98%ED%91%B8%EB%A5%B8%EC%95%BD%EA%B5%AD-%EA%B2%BD%EA%B8%B0%EB%8F%84-%ED%8F%AC%EC%B2%9C%EC%8B%9C-%EC%8B%A0%EC%9D%8D%EB%8F%99/", "workingTime": ["-", "09:00~20:00", "09:00~20:00", "09:00~20:00", "09:00~20:00", "09:00~20:00", "09:00~16:00", "-"]}, {"name": "\ub3d9\uc544\uc57d\uad6d", "lat": "37.89710133262104", "lng": "127.20274988278327", "url": "/info/%EB%8F%99%EC%95%84%EC%95%BD%EA%B5%AD-%EA%B2%BD%EA%B8%B0%EB%8F%84-%ED%8F%AC%EC%B2%9C%EC%8B%9C-%EC%8B%A0%EC%9D%8D%EB%8F%99/", "workingTime": ["-", "09:00~19:00", "09:00~19:00", "09:00~19:00", "09:00~19:00", "09:00~19:00", "09:00~15:00", "-"]}, {"name": "\uc2e0\uc9c4\uc57d\uad6d", "lat": "37.8976860852", "lng": "127.2038147144", "url": "/info/%EC%8B%A0%EC%A7%84%EC%95%BD%EA%B5%AD-%EA%B2%BD%EA%B8%B0%EB%8F%84-%ED%8F%AC%EC%B2%9C%EC%8B%9C-%EC%8B%A0%EC%9D%8D%EB%8F%99/", "workingTime": ["-", "09:00~20:00", "09:00~20:00", "09:00~20:00", "09:00~20:00", "09:00~20:00", "09:00~16:00", "-"]}, {"name": "\uc758\uc815\ubd80\uc57d\uad6d", "lat": "37.895747222222219", "lng": "127.202622222222217", "url": "/info/%EC%9D%98%EC%A0%95%EB%B6%80%EC%95%BD%EA%B5%AD-%EA%B2%BD%EA%B8%B0%EB%8F%84-%ED%8F%AC%EC%B2%9C%EC%8B%9C-%EC%8B%A0%EC%9D%8D%EB%8F%99/", "workingTime": ["-", "08:00~22:00", "08:00~22:00", "08:00~22:00", "08:00~22:00", "08:00~22:00", "-", "09:00~21:00"]}, {"name": "\uc740\ud61c\uc57d\uad6d", "lat": "37.901943663105726", "lng": "127.19870987828433", "url": "/info/%EC%9D%80%ED%98%9C%EC%95%BD%EA%B5%AD-%EA%B2%BD%EA%B8%B0%EB%8F%84-%ED%8F%AC%EC%B2%9C%EC%8B%9C-%EC%8B%A0%EC%9D%8D%EB%8F%99/", "workingTime": ["-", "09:00~19:00", "09:00~19:00", "09:00~19:00", "09:00~19:00", "09:00~19:00", "09:00~16:00", "-"]}, {"name": "\ud070\ub098\ubb34\uc628\ub204\ub9ac\uc57d\uad6d", "lat": "37.89273699965411", "lng": "127.19973562359908", "url": "/info/%ED%81%B0%EB%82%98%EB%AC%B4%EC%98%A8%EB%88%84%EB%A6%AC%EC%95%BD%EA%B5%AD-%EA%B2%BD%EA%B8%B0%EB%8F%84-%ED%8F%AC%EC%B2%9C%EC%8B%9C-%EC%8B%A0%EC%9D%8D%EB%8F%99/", "workingTime": ["-", "08:30~20:00", "08:30~20:00", "08:30~20:00", "08:30~20:00", "08:30~20:00", "-", "-"]}, {"name": "\uad6d\uc77c\uc57d\uad6d", "lat": "37.8990323015141", "lng": "127.20318401745572", "url": "/info/%EA%B5%AD%EC%9D%BC%EC%95%BD%EA%B5%AD-%EA%B2%BD%EA%B8%B0%EB%8F%84-%ED%8F%AC%EC%B2%9C%EC%8B%9C-%EC%8B%A0%EC%9D%8D%EB%8F%99/", "workingTime": ["-", "09:00~21:00", "09:00~21:00", "09:00~21:00", "09:00~21:00", "09:00~21:00", "09:00~16:00", "-"]}]