[{"name": "\ucd08\ub85d\ub098\ubb34\uc57d\uad6d", "lat": "37.1524416022641", "lng": "127.17234755186", "url": "/info/%EC%B4%88%EB%A1%9D%EB%82%98%EB%AC%B4%EC%95%BD%EA%B5%AD-%EA%B2%BD%EA%B8%B0%EB%8F%84-%EC%9A%A9%EC%9D%B8%EC%8B%9C-%EB%82%A8%EC%82%AC%EB%A9%B4/", "workingTime": ["1,2,3,4,5\uc9f8\uc8fc08:30~19:30", "08:30~20:20", "08:30~20:20", "08:30~20:20", "08:30~20:20", "08:30~20:20", "08:30~19:30", "08:30~19:30"]}, {"name": "\ud55c\uc232\ub2e4\uc19c\uc57d\uad6d", "lat": "37.1528269491657", "lng": "127.170189776888", "url": "/info/%ED%95%9C%EC%88%B2%EB%8B%A4%EC%86%9C%EC%95%BD%EA%B5%AD-%EA%B2%BD%EA%B8%B0%EB%8F%84-%EC%9A%A9%EC%9D%B8%EC%8B%9C-%EB%82%A8%EC%82%AC%EB%A9%B4/", "workingTime": ["-", "09:00~21:00", "09:00~21:00", "09:00~21:00", "09:00~21:00", "09:00~21:00", "09:00~16:00", "-"]}, {"name": "\uc6b0\ub9ac\ub4e4\uc628\ub204\ub9ac\uc57d\uad6d", "lat": "37.1560904773047", "lng": "127.1734309273", "url": "/info/%EC%9A%B0%EB%A6%AC%EB%93%A4%EC%98%A8%EB%88%84%EB%A6%AC%EC%95%BD%EA%B5%AD-%EA%B2%BD%EA%B8%B0%EB%8F%84-%EC%9A%A9%EC%9D%B8%EC%8B%9C-%EB%82%A8%EC%82%AC%EB%A9%B4/", "workingTime": ["-", "09:00~19:30", "09:00~19:30", "09:00~19:30", "09:00~19:30", "09:00~19:30", "-", "-"]}, {"name": "\ub0a8\uc0ac\uc57d\uad6d", "lat": "37.11409397691163", "lng": "127.1501502365855", "url": "/info/%EB%82%A8%EC%82%AC%EC%95%BD%EA%B5%AD-%EA%B2%BD%EA%B8%B0%EB%8F%84-%EC%9A%A9%EC%9D%B8%EC%8B%9C-%EB%82%A8%EC%82%AC%EB%A9%B4/", "workingTime": ["-", "09:00~21:00", "09:00~21:00", "09:00~21:00", "09:00~21:00", "09:00~21:00", "09:00~17:30", "-"]}, {"name": "\uc724\uc57d\uad6d", "lat": "37.145481364731744", "lng": "127.14274674325789", "url": "/info/%EC%9C%A4%EC%95%BD%EA%B5%AD-%EA%B2%BD%EA%B8%B0%EB%8F%84-%EC%9A%A9%EC%9D%B8%EC%8B%9C-%EB%82%A8%EC%82%AC%EB%A9%B4/", "workingTime": ["-", "10:00~19:30", "10:00~19:30", "10:00~19:30", "10:00~19:30", "10:00~19:30", "-", "-"]}]