[{"name": "\uc628\uc815\uc57d\uad6d", "lat": "36.9965077822023", "lng": "127.102719568423", "url": "/info/%EC%98%A8%EC%A0%95%EC%95%BD%EA%B5%AD-%EA%B2%BD%EA%B8%B0%EB%8F%84-%ED%8F%89%ED%83%9D%EC%8B%9C-%EB%B9%84%EC%A0%84%EB%8F%99/", "workingTime": ["-", "09:00~18:00", "09:00~18:00", "09:00~18:00", "09:00~18:00", "09:00~18:00", "09:00~13:00", "-"]}, {"name": "\uc624\ub80c\uc9c0\uc57d\uad6d", "lat": "36.99416900897043", "lng": "127.11436464360358", "url": "/info/%EC%98%A4%EB%A0%8C%EC%A7%80%EC%95%BD%EA%B5%AD-%EA%B2%BD%EA%B8%B0%EB%8F%84-%ED%8F%89%ED%83%9D%EC%8B%9C-%EB%B9%84%EC%A0%84%EB%8F%99/", "workingTime": ["1,2,3,4,5\uc9f8\uc8fc15:00~19:00", "09:00~20:00", "09:00~20:00", "09:00~20:00", "09:00~20:00", "09:00~20:00", "09:00~13:00", "09:00~13:00"]}, {"name": "\uc0bc\uc131\uc57d\uad6d", "lat": "36.99134110513276", "lng": "127.1202421253294", "url": "/info/%EC%82%BC%EC%84%B1%EC%95%BD%EA%B5%AD-%EA%B2%BD%EA%B8%B0%EB%8F%84-%ED%8F%89%ED%83%9D%EC%8B%9C-%EB%B9%84%EC%A0%84%EB%8F%99/", "workingTime": ["-", "08:30~18:00", "08:30~18:00", "08:30~18:00", "08:30~18:00", "08:30~18:00", "08:30~13:00", "08:30~13:00"]}, {"name": "\ud3c9\ud0dd\uc885\ud569\uc57d\uad6d", "lat": "36.9944878109", "lng": "127.1130466563", "url": "/info/%ED%8F%89%ED%83%9D%EC%A2%85%ED%95%A9%EC%95%BD%EA%B5%AD-%EA%B2%BD%EA%B8%B0%EB%8F%84-%ED%8F%89%ED%83%9D%EC%8B%9C-%EB%B9%84%EC%A0%84%EB%8F%99/", "workingTime": ["1,2,3,4,5\uc9f8\uc8fc09:00~17:00", "09:00~22:00", "09:00~22:00", "09:00~22:00", "09:00~22:00", "09:00~22:00", "09:00~21:00", "09:00~20:00"]}, {"name": "\ub2e4\uc815\uc57d\uad6d", "lat": "36.9950162470589", "lng": "127.112718963807", "url": "/info/%EB%8B%A4%EC%A0%95%EC%95%BD%EA%B5%AD-%EA%B2%BD%EA%B8%B0%EB%8F%84-%ED%8F%89%ED%83%9D%EC%8B%9C-%EB%B9%84%EC%A0%84%EB%8F%99/", "workingTime": ["-", "09:00~19:00", "09:00~19:00", "09:00~19:00", "09:00~19:00", "09:00~19:00", "09:00~14:00", "-"]}, {"name": "\uc5d0\ube0c\ub9ac\ub370\uc774\ud56d\uc0c1\uc57d\uad6d", "lat": "37.00527352664589", "lng": "127.10342277849394", "url": "/info/%EC%97%90%EB%B8%8C%EB%A6%AC%EB%8D%B0%EC%9D%B4%ED%95%AD%EC%83%81%EC%95%BD%EA%B5%AD-%EA%B2%BD%EA%B8%B0%EB%8F%84-%ED%8F%89%ED%83%9D%EC%8B%9C-%EB%B9%84%EC%A0%84%EB%8F%99/", "workingTime": ["1,2,3,4,5\uc9f8\uc8fc08:30~22:00", "08:30~22:00", "08:30~22:00", "08:30~22:00", "08:30~22:00", "08:30~22:00", "08:30~22:00", "08:30~22:00"]}, {"name": "\ube44\uc804\ud558\ub298\uc57d\uad6d", "lat": "37.0046168761", "lng": "127.1041813855", "url": "/info/%EB%B9%84%EC%A0%84%ED%95%98%EB%8A%98%EC%95%BD%EA%B5%AD-%EA%B2%BD%EA%B8%B0%EB%8F%84-%ED%8F%89%ED%83%9D%EC%8B%9C-%EB%B9%84%EC%A0%84%EB%8F%99/", "workingTime": ["-", "09:00~21:00", "09:00~21:00", "09:00~21:00", "09:00~21:00", "09:00~21:00", "09:00~21:00", "-"]}, {"name": "\ud3c9\ud0dd\ud478\ub978\uc57d\uad6d", "lat": "36.990542618107426", "lng": "127.11100735841282", "url": "/info/%ED%8F%89%ED%83%9D%ED%91%B8%EB%A5%B8%EC%95%BD%EA%B5%AD-%EA%B2%BD%EA%B8%B0%EB%8F%84-%ED%8F%89%ED%83%9D%EC%8B%9C-%EB%B9%84%EC%A0%84%EB%8F%99/", "workingTime": ["-", "09:00~18:00", "09:00~21:00", "09:00~21:00", "09:00~21:00", "09:00~21:00", "09:00~13:00", "09:00~22:00"]}, {"name": "\ubd04\ubd04\uc57d\uad6d", "lat": "36.9988772877865", "lng": "127.113577234561", "url": "/info/%EB%B4%84%EB%B4%84%EC%95%BD%EA%B5%AD-%EA%B2%BD%EA%B8%B0%EB%8F%84-%ED%8F%89%ED%83%9D%EC%8B%9C-%EB%B9%84%EC%A0%84%EB%8F%99/", "workingTime": ["-", "10:00~18:00", "10:00~18:00", "10:00~18:00", "10:00~18:00", "10:00~18:00", "-", "-"]}, {"name": "\ub9d1\uc740\uc57d\uad6d", "lat": "36.9988462846633", "lng": "127.114614564247", "url": "/info/%EB%A7%91%EC%9D%80%EC%95%BD%EA%B5%AD-%EA%B2%BD%EA%B8%B0%EB%8F%84-%ED%8F%89%ED%83%9D%EC%8B%9C-%EB%B9%84%EC%A0%84%EB%8F%99/", "workingTime": ["-", "09:00~22:00", "09:00~22:00", "09:00~22:00", "09:00~22:00", "09:00~22:00", "-", "-"]}, {"name": "\ubc14\ub2e4\uc57d\uad6d", "lat": "36.9911252314", "lng": "127.0870795736", "url": "/info/%EB%B0%94%EB%8B%A4%EC%95%BD%EA%B5%AD-%EA%B2%BD%EA%B8%B0%EB%8F%84-%ED%8F%89%ED%83%9D%EC%8B%9C-%EB%B9%84%EC%A0%84%EB%8F%99/", "workingTime": ["-", "09:00~18:00", "09:00~18:00", "09:00~18:00", "09:00~18:00", "09:00~18:00", "09:00~12:00", "-"]}, {"name": "\uba85\uc57d\uad6d", "lat": "37.00012178823368", "lng": "127.11261460431124", "url": "/info/%EB%AA%85%EC%95%BD%EA%B5%AD-%EA%B2%BD%EA%B8%B0%EB%8F%84-%ED%8F%89%ED%83%9D%EC%8B%9C-%EB%B9%84%EC%A0%84%EB%8F%99/", "workingTime": ["-", "08:30~21:00", "08:30~21:00", "08:30~21:00", "08:30~21:00", "08:30~21:00", "08:30~16:00", "-"]}, {"name": "\ube44\uc804\uc911\uc559\uc57d\uad6d", "lat": "36.99985444837805", "lng": "127.11326580839345", "url": "/info/%EB%B9%84%EC%A0%84%EC%A4%91%EC%95%99%EC%95%BD%EA%B5%AD-%EA%B2%BD%EA%B8%B0%EB%8F%84-%ED%8F%89%ED%83%9D%EC%8B%9C-%EB%B9%84%EC%A0%84%EB%8F%99/", "workingTime": ["-", "09:00~21:00", "09:00~21:00", "09:00~21:00", "09:00~21:00", "09:00~21:00", "09:00~21:00", "-"]}, {"name": "\uc194\uc57d\uad6d", "lat": "37.00242851494676", "lng": "127.10478957448711", "url": "/info/%EC%86%94%EC%95%BD%EA%B5%AD-%EA%B2%BD%EA%B8%B0%EB%8F%84-%ED%8F%89%ED%83%9D%EC%8B%9C-%EB%B9%84%EC%A0%84%EB%8F%99/", "workingTime": ["-", "09:00~21:00", "09:00~21:00", "09:00~21:00", "09:00~21:00", "09:00~21:00", "-", "-"]}, {"name": "\ub4dc\ub9bc\uc57d\uad6d", "lat": "36.9999244462839", "lng": "127.11166612446297", "url": "/info/%EB%93%9C%EB%A6%BC%EC%95%BD%EA%B5%AD-%EA%B2%BD%EA%B8%B0%EB%8F%84-%ED%8F%89%ED%83%9D%EC%8B%9C-%EB%B9%84%EC%A0%84%EB%8F%99/", "workingTime": ["09:00~13:00(\uc5f0\ub77d\ud6c4\ubc29\ubb38\uc694\ub9dd)", "09:00~16:00", "09:00~16:00", "09:00~16:00", "09:00~16:00", "09:00~16:00", "09:00~16:00", "09:00~13:00"]}, {"name": "\ud61c\uc6b0\uc57d\uad6d", "lat": "37.0044585381", "lng": "127.1038935501", "url": "/info/%ED%98%9C%EC%9A%B0%EC%95%BD%EA%B5%AD-%EA%B2%BD%EA%B8%B0%EB%8F%84-%ED%8F%89%ED%83%9D%EC%8B%9C-%EB%B9%84%EC%A0%84%EB%8F%99/", "workingTime": ["-", "09:00~18:00", "09:00~18:00", "09:00~18:00", "09:00~18:00", "09:00~18:00", "-", "-"]}, {"name": "\ud558\ub298\uc57d\uad6d", "lat": "36.9921734725356", "lng": "127.10145495222119", "url": "/info/%ED%95%98%EB%8A%98%EC%95%BD%EA%B5%AD-%EA%B2%BD%EA%B8%B0%EB%8F%84-%ED%8F%89%ED%83%9D%EC%8B%9C-%EB%B9%84%EC%A0%84%EB%8F%99/", "workingTime": ["-", "09:00~14:00", "09:00~14:00", "09:00~14:00", "09:00~14:00", "09:00~14:00", "08:30~17:00", "-"]}, {"name": "\ube44\uc804\ubbf8\uc18c\uc57d\uad6d", "lat": "37.0015867376", "lng": "127.1147154085", "url": "/info/%EB%B9%84%EC%A0%84%EB%AF%B8%EC%86%8C%EC%95%BD%EA%B5%AD-%EA%B2%BD%EA%B8%B0%EB%8F%84-%ED%8F%89%ED%83%9D%EC%8B%9C-%EB%B9%84%EC%A0%84%EB%8F%99/", "workingTime": ["-", "09:00~14:00", "09:00~14:00", "09:00~14:00", "09:00~14:00", "09:00~14:00", "-", "-"]}, {"name": "\ube44\uc804\uc57d\uad6d", "lat": "37.0043931712", "lng": "127.1044507232", "url": "/info/%EB%B9%84%EC%A0%84%EC%95%BD%EA%B5%AD-%EA%B2%BD%EA%B8%B0%EB%8F%84-%ED%8F%89%ED%83%9D%EC%8B%9C-%EB%B9%84%EC%A0%84%EB%8F%99/", "workingTime": ["09:00~12:00(\uc5f0\ub77d\ud6c4\ubc29\ubb38\uc694\ub9dd)", "09:00~14:00", "09:00~14:00", "09:00~14:00", "09:00~14:00", "09:00~14:00", "09:00~14:00", "-"]}, {"name": "\uc5f0\ud76c\uc57d\uad6d", "lat": "36.993537187598136", "lng": "127.0948444826515", "url": "/info/%EC%97%B0%ED%9D%AC%EC%95%BD%EA%B5%AD-%EA%B2%BD%EA%B8%B0%EB%8F%84-%ED%8F%89%ED%83%9D%EC%8B%9C-%EB%B9%84%EC%A0%84%EB%8F%99/", "workingTime": ["10:00~13:00(\uc5f0\ub77d\ud6c4\ubc29\ubb38\uc694\ub9dd)", "09:00~19:00", "09:00~19:00", "09:00~19:00", "09:00~19:00", "09:00~19:00", "09:00~16:00", "-"]}, {"name": "\ud55c\uc9c4\uc57d\uad6d", "lat": "36.9913082663", "lng": "127.1057942915", "url": "/info/%ED%95%9C%EC%A7%84%EC%95%BD%EA%B5%AD-%EA%B2%BD%EA%B8%B0%EB%8F%84-%ED%8F%89%ED%83%9D%EC%8B%9C-%EB%B9%84%EC%A0%84%EB%8F%99/", "workingTime": ["-", "08:30~18:30", "08:30~18:30", "08:30~18:30", "08:30~18:30", "08:30~18:30", "08:30~14:00", "-"]}, {"name": "\uc131\ubaa8\uc57d\uad6d", "lat": "36.9946933259", "lng": "127.1129750648", "url": "/info/%EC%84%B1%EB%AA%A8%EC%95%BD%EA%B5%AD-%EA%B2%BD%EA%B8%B0%EB%8F%84-%ED%8F%89%ED%83%9D%EC%8B%9C-%EB%B9%84%EC%A0%84%EB%8F%99/", "workingTime": ["-", "09:00~19:00", "09:00~19:00", "09:00~19:00", "09:00~19:00", "09:00~19:00", "09:00~17:00", "-"]}, {"name": "\uc18c\uc0ac\ubc8c\uc628\ub204\ub9ac\uc57d\uad6d", "lat": "37.0024627222", "lng": "127.1145774126", "url": "/info/%EC%86%8C%EC%82%AC%EB%B2%8C%EC%98%A8%EB%88%84%EB%A6%AC%EC%95%BD%EA%B5%AD-%EA%B2%BD%EA%B8%B0%EB%8F%84-%ED%8F%89%ED%83%9D%EC%8B%9C-%EB%B9%84%EC%A0%84%EB%8F%99/", "workingTime": ["-", "09:00~18:00", "09:00~18:00", "09:00~18:00", "09:00~18:00", "09:00~18:00", "09:00~18:00", "-"]}, {"name": "\uc544\ube60\uc57d\uad6d", "lat": "36.99421002538456", "lng": "127.1013318408056", "url": "/info/%EC%95%84%EB%B9%A0%EC%95%BD%EA%B5%AD-%EA%B2%BD%EA%B8%B0%EB%8F%84-%ED%8F%89%ED%83%9D%EC%8B%9C-%EB%B9%84%EC%A0%84%EB%8F%99/", "workingTime": ["-", "10:00~20:00", "10:00~20:00", "10:00~20:00", "10:00~20:00", "10:00~20:00", "10:00~20:00", "-"]}, {"name": "\uc2dc\ubbfc\uc57d\uad6d", "lat": "36.996743496949684", "lng": "127.08825882815382", "url": "/info/%EC%8B%9C%EB%AF%BC%EC%95%BD%EA%B5%AD-%EA%B2%BD%EA%B8%B0%EB%8F%84-%ED%8F%89%ED%83%9D%EC%8B%9C-%EB%B9%84%EC%A0%84%EB%8F%99/", "workingTime": ["-", "09:00~22:00", "09:00~22:00", "09:00~22:00", "09:00~22:00", "09:00~22:00", "09:00~13:00", "-"]}]