[{"name": "\ud3c9\ub0b4\uc9c4\uc57d\uad6d", "lat": "37.6493012372", "lng": "127.238529213", "url": "/info/%ED%8F%89%EB%82%B4%EC%A7%84%EC%95%BD%EA%B5%AD-%EA%B2%BD%EA%B8%B0%EB%8F%84-%EB%82%A8%EC%96%91%EC%A3%BC%EC%8B%9C-%ED%8F%89%EB%82%B4%EB%8F%99/", "workingTime": ["-", "11:00~17:00", "11:00~17:00", "11:00~17:00", "11:00~17:00", "11:00~17:00", "-", "-"]}, {"name": "\uc0c1\ucf8c\ud55c\uc232\uc18d\uc57d\uad6d", "lat": "37.64594440659449", "lng": "127.23437020952599", "url": "/info/%EC%83%81%EC%BE%8C%ED%95%9C%EC%88%B2%EC%86%8D%EC%95%BD%EA%B5%AD-%EA%B2%BD%EA%B8%B0%EB%8F%84-%EB%82%A8%EC%96%91%EC%A3%BC%EC%8B%9C-%ED%8F%89%EB%82%B4%EB%8F%99/", "workingTime": ["-", "09:00~15:00", "09:00~15:00", "09:00~15:00", "09:00~15:00", "09:00~15:00", "09:00~16:00", "-"]}, {"name": "\uc544\uce68\ud587\uc0b4\uc57d\uad6d", "lat": "37.642773498265186", "lng": "127.23712741474884", "url": "/info/%EC%95%84%EC%B9%A8%ED%96%87%EC%82%B4%EC%95%BD%EA%B5%AD-%EA%B2%BD%EA%B8%B0%EB%8F%84-%EB%82%A8%EC%96%91%EC%A3%BC%EC%8B%9C-%ED%8F%89%EB%82%B4%EB%8F%99/", "workingTime": ["-", "09:00~21:00", "09:00~21:00", "09:00~21:00", "09:00~21:00", "09:00~21:00", "09:00~17:00", "-"]}, {"name": "\ucc38\ube5b\uc57d\uad6d", "lat": "37.64606858075342", "lng": "127.23535640077747", "url": "/info/%EC%B0%B8%EB%B9%9B%EC%95%BD%EA%B5%AD-%EA%B2%BD%EA%B8%B0%EB%8F%84-%EB%82%A8%EC%96%91%EC%A3%BC%EC%8B%9C-%ED%8F%89%EB%82%B4%EB%8F%99/", "workingTime": ["-", "08:30~19:00", "08:30~19:00", "08:30~19:00", "08:30~19:00", "08:30~19:00", "08:30~15:00", "-"]}, {"name": "\ud3c9\ub0b4\uc131\uc2ec\uc57d\uad6d", "lat": "37.64540863468827", "lng": "127.23496927784028", "url": "/info/%ED%8F%89%EB%82%B4%EC%84%B1%EC%8B%AC%EC%95%BD%EA%B5%AD-%EA%B2%BD%EA%B8%B0%EB%8F%84-%EB%82%A8%EC%96%91%EC%A3%BC%EC%8B%9C-%ED%8F%89%EB%82%B4%EB%8F%99/", "workingTime": ["-", "09:00~18:00", "09:00~18:00", "09:00~18:00", "09:00~18:00", "09:00~18:00", "09:00~15:00", "-"]}, {"name": "\ud3c9\ub0b4\uc5f0\uc57d\uad6d", "lat": "37.650693154723775", "lng": "127.23857787955464", "url": "/info/%ED%8F%89%EB%82%B4%EC%97%B0%EC%95%BD%EA%B5%AD-%EA%B2%BD%EA%B8%B0%EB%8F%84-%EB%82%A8%EC%96%91%EC%A3%BC%EC%8B%9C-%ED%8F%89%EB%82%B4%EB%8F%99/", "workingTime": ["-", "09:00~16:00", "09:00~16:00", "09:00~16:00", "09:00~16:00", "09:00~16:00", "-", "-"]}, {"name": "\ud3c9\ub0b4\uc628\ub204\ub9ac\uc57d\uad6d", "lat": "37.650098489559824", "lng": "127.23799362057603", "url": "/info/%ED%8F%89%EB%82%B4%EC%98%A8%EB%88%84%EB%A6%AC%EC%95%BD%EA%B5%AD-%EA%B2%BD%EA%B8%B0%EB%8F%84-%EB%82%A8%EC%96%91%EC%A3%BC%EC%8B%9C-%ED%8F%89%EB%82%B4%EB%8F%99/", "workingTime": ["-", "09:00~19:00", "09:00~19:00", "09:00~19:00", "09:00~19:00", "09:00~19:00", "09:00~13:30", "-"]}, {"name": "\uba54\ub514\uce7c3\uce35\uc57d\uad6d", "lat": "37.64585417716376", "lng": "127.23564599516516", "url": "/info/%EB%A9%94%EB%94%94%EC%B9%BC3%EC%B8%B5%EC%95%BD%EA%B5%AD-%EA%B2%BD%EA%B8%B0%EB%8F%84-%EB%82%A8%EC%96%91%EC%A3%BC%EC%8B%9C-%ED%8F%89%EB%82%B4%EB%8F%99/", "workingTime": ["-", "09:00~20:00", "09:00~20:00", "09:00~20:00", "09:00~20:00", "09:00~20:00", "09:00~16:00", "09:00~13:00"]}, {"name": "\ucf54\ucf54\uc57d\uad6d", "lat": "37.6454164634755", "lng": "127.234988219379", "url": "/info/%EC%BD%94%EC%BD%94%EC%95%BD%EA%B5%AD-%EA%B2%BD%EA%B8%B0%EB%8F%84-%EB%82%A8%EC%96%91%EC%A3%BC%EC%8B%9C-%ED%8F%89%EB%82%B4%EB%8F%99/", "workingTime": ["-", "09:00~18:00", "09:00~18:00", "09:00~18:00", "09:00~18:00", "09:00~18:00", "09:00~13:00", "-"]}, {"name": "\uc5c4\ub9c8\uc190\uc57d\uad6d", "lat": "37.64566348434044", "lng": "127.23473078528047", "url": "/info/%EC%97%84%EB%A7%88%EC%86%90%EC%95%BD%EA%B5%AD-%EA%B2%BD%EA%B8%B0%EB%8F%84-%EB%82%A8%EC%96%91%EC%A3%BC%EC%8B%9C-%ED%8F%89%EB%82%B4%EB%8F%99/", "workingTime": ["15:00~21:00(\uc5f0\ub77d\ud6c4\ubc29\ubb38\uc694\ub9dd)", "09:00~21:00", "09:00~21:00", "09:00~21:00", "09:00~21:00", "09:00~21:00", "09:00~13:00", "-"]}, {"name": "\ud3c9\ub0b4\uc57d\uad6d", "lat": "37.6457643500066", "lng": "127.23550974232602", "url": "/info/%ED%8F%89%EB%82%B4%EC%95%BD%EA%B5%AD-%EA%B2%BD%EA%B8%B0%EB%8F%84-%EB%82%A8%EC%96%91%EC%A3%BC%EC%8B%9C-%ED%8F%89%EB%82%B4%EB%8F%99/", "workingTime": ["10:00~21:00(\uc5f0\ub77d\ud6c4\ubc29\ubb38\uc694\ub9dd)", "10:00~21:00", "10:00~21:00", "10:00~21:00", "10:00~21:00", "10:00~21:00", "09:00~22:00", "10:30~21:00"]}]