[{"name": "\uc548\uc131\uc885\ub85c\uc57d\uad6d", "lat": "37.0070892087415", "lng": "127.268644722057", "url": "/info/%EC%95%88%EC%84%B1%EC%A2%85%EB%A1%9C%EC%95%BD%EA%B5%AD-%EA%B2%BD%EA%B8%B0%EB%8F%84-%EC%95%88%EC%84%B1%EC%8B%9C-%EC%84%9C%EC%9D%B8%EB%8F%99/", "workingTime": ["-", "-", "-", "-", "-", "-", "-", "-"]}, {"name": "\uc548\uc131\uc628\ub204\ub9ac\uc57d\uad6d", "lat": "37.0075245222694", "lng": "127.268364803309", "url": "/info/%EC%95%88%EC%84%B1%EC%98%A8%EB%88%84%EB%A6%AC%EC%95%BD%EA%B5%AD-%EA%B2%BD%EA%B8%B0%EB%8F%84-%EC%95%88%EC%84%B1%EC%8B%9C-%EC%84%9C%EC%9D%B8%EB%8F%99/", "workingTime": ["-", "09:00~18:00", "09:00~18:00", "09:00~18:00", "09:00~18:00", "09:00~18:00", "-", "-"]}, {"name": "\uc548\uc131\ubc14\ub978\uc57d\uad6d", "lat": "37.0061753444387", "lng": "127.268680268195", "url": "/info/%EC%95%88%EC%84%B1%EB%B0%94%EB%A5%B8%EC%95%BD%EA%B5%AD-%EA%B2%BD%EA%B8%B0%EB%8F%84-%EC%95%88%EC%84%B1%EC%8B%9C-%EC%84%9C%EC%9D%B8%EB%8F%99/", "workingTime": ["-", "09:00~18:00", "09:00~18:00", "09:00~18:00", "09:00~18:00", "09:00~18:00", "-", "-"]}, {"name": "\uc11c\uc778\uc57d\uad6d", "lat": "37.006123217447715", "lng": "127.27088030295897", "url": "/info/%EC%84%9C%EC%9D%B8%EC%95%BD%EA%B5%AD-%EA%B2%BD%EA%B8%B0%EB%8F%84-%EC%95%88%EC%84%B1%EC%8B%9C-%EC%84%9C%EC%9D%B8%EB%8F%99/", "workingTime": ["-", "08:30~17:30", "08:30~17:30", "08:30~17:30", "08:30~17:30", "08:30~17:30", "-", "-"]}, {"name": "\uc0c8\uc548\uc131\uc57d\uad6d", "lat": "37.006123217447715", "lng": "127.27088030295897", "url": "/info/%EC%83%88%EC%95%88%EC%84%B1%EC%95%BD%EA%B5%AD-%EA%B2%BD%EA%B8%B0%EB%8F%84-%EC%95%88%EC%84%B1%EC%8B%9C-%EC%84%9C%EC%9D%B8%EB%8F%99/", "workingTime": ["-", "08:30~20:00", "08:30~20:00", "08:30~20:00", "08:30~20:00", "08:30~20:00", "08:30~14:00", "-"]}, {"name": "\uc911\uc559\uc57d\uad6d", "lat": "37.005621999600315", "lng": "127.2709684261605", "url": "/info/%EC%A4%91%EC%95%99%EC%95%BD%EA%B5%AD-%EA%B2%BD%EA%B8%B0%EB%8F%84-%EC%95%88%EC%84%B1%EC%8B%9C-%EC%84%9C%EC%9D%B8%EB%8F%99/", "workingTime": ["-", "09:00~19:30", "09:00~19:30", "09:00~19:30", "09:00~19:30", "09:00~19:30", "09:00~17:00", "09:00~17:00"]}, {"name": "\ud55c\uac15\uc57d\uad6d", "lat": "37.0067910455458", "lng": "127.26791249725903", "url": "/info/%ED%95%9C%EA%B0%95%EC%95%BD%EA%B5%AD-%EA%B2%BD%EA%B8%B0%EB%8F%84-%EC%95%88%EC%84%B1%EC%8B%9C-%EC%84%9C%EC%9D%B8%EB%8F%99/", "workingTime": ["2,4,5\uc9f8\uc8fc09:00~17:00", "09:00~19:00", "09:00~19:00", "09:00~19:00", "09:00~19:00", "09:00~19:00", "09:00~17:00", "09:00~17:00"]}, {"name": "\uc548\uc131\uc624\ub8e1\uc57d\uad6d", "lat": "37.007257394194056", "lng": "127.26821928257239", "url": "/info/%EC%95%88%EC%84%B1%EC%98%A4%EB%A3%A1%EC%95%BD%EA%B5%AD-%EA%B2%BD%EA%B8%B0%EB%8F%84-%EC%95%88%EC%84%B1%EC%8B%9C-%EC%84%9C%EC%9D%B8%EB%8F%99/", "workingTime": ["-", "09:00~19:00", "09:00~19:00", "09:00~19:00", "09:00~19:00", "09:00~19:00", "09:00~14:00", "-"]}, {"name": "\ud504\ub77c\uc790\uc57d\uad6d", "lat": "37.00645451487597", "lng": "127.26942089629901", "url": "/info/%ED%94%84%EB%9D%BC%EC%9E%90%EC%95%BD%EA%B5%AD-%EA%B2%BD%EA%B8%B0%EB%8F%84-%EC%95%88%EC%84%B1%EC%8B%9C-%EC%84%9C%EC%9D%B8%EB%8F%99/", "workingTime": ["-", "09:00~19:00", "09:00~19:00", "09:00~19:00", "09:00~19:00", "09:00~19:00", "09:00~16:00", "09:00~13:00"]}, {"name": "\ud55c\uc9c4\uc57d\uad6d", "lat": "37.007545574905485", "lng": "127.2689667705793", "url": "/info/%ED%95%9C%EC%A7%84%EC%95%BD%EA%B5%AD-%EA%B2%BD%EA%B8%B0%EB%8F%84-%EC%95%88%EC%84%B1%EC%8B%9C-%EC%84%9C%EC%9D%B8%EB%8F%99/", "workingTime": ["-", "08:30~20:30", "08:30~20:30", "08:30~20:30", "08:30~20:30", "08:30~20:30", "08:30~17:00", "09:00~13:00"]}, {"name": "\uc131\ubaa8\uc57d\uad6d", "lat": "37.006223299390555", "lng": "127.27124020907223", "url": "/info/%EC%84%B1%EB%AA%A8%EC%95%BD%EA%B5%AD-%EA%B2%BD%EA%B8%B0%EB%8F%84-%EC%95%88%EC%84%B1%EC%8B%9C-%EC%84%9C%EC%9D%B8%EB%8F%99/", "workingTime": ["08:00~22:00(\uc5f0\ub77d\ud6c4\ubc29\ubb38\uc694\ub9dd)", "08:00~22:00", "08:00~22:00", "08:00~22:00", "08:00~22:00", "08:00~22:00", "08:00~22:00", "08:00~22:00"]}, {"name": "\uc0ac\ub791\uc57d\uad6d", "lat": "37.0075553164", "lng": "127.2687730994", "url": "/info/%EC%82%AC%EB%9E%91%EC%95%BD%EA%B5%AD-%EA%B2%BD%EA%B8%B0%EB%8F%84-%EC%95%88%EC%84%B1%EC%8B%9C-%EC%84%9C%EC%9D%B8%EB%8F%99/", "workingTime": ["-", "09:00~19:00", "09:00~19:00", "09:00~19:00", "09:00~19:00", "09:00~19:00", "09:00~14:00", "-"]}, {"name": "\ucc9c\uc77c\uc57d\uad6d", "lat": "37.00610251778691", "lng": "127.26888035750158", "url": "/info/%EC%B2%9C%EC%9D%BC%EC%95%BD%EA%B5%AD-%EA%B2%BD%EA%B8%B0%EB%8F%84-%EC%95%88%EC%84%B1%EC%8B%9C-%EC%84%9C%EC%9D%B8%EB%8F%99/", "workingTime": ["-", "08:30~20:30", "08:30~20:30", "08:30~20:30", "08:30~20:30", "08:30~20:30", "08:30~20:00", "08:30~20:00"]}]