[{"name": "\ub9e4\uad50\ud478\ub978\uc57d\uad6d", "lat": "37.2701886015069", "lng": "127.018221959569", "url": "/info/%EB%A7%A4%EA%B5%90%ED%91%B8%EB%A5%B8%EC%95%BD%EA%B5%AD-%EA%B2%BD%EA%B8%B0%EB%8F%84-%EC%88%98%EC%9B%90%EC%8B%9C-%EA%B5%90%EB%8F%99/", "workingTime": ["-", "09:00~18:00", "09:00~18:00", "09:00~18:00", "09:00~18:00", "09:00~18:00", "09:00~13:00", "-"]}, {"name": "\ub9e4\uad50\ubca0\uc2a4\ud2b8\uc57d\uad6d", "lat": "37.2680326385139", "lng": "127.01666763277", "url": "/info/%EB%A7%A4%EA%B5%90%EB%B2%A0%EC%8A%A4%ED%8A%B8%EC%95%BD%EA%B5%AD-%EA%B2%BD%EA%B8%B0%EB%8F%84-%EC%88%98%EC%9B%90%EC%8B%9C-%EA%B5%90%EB%8F%99/", "workingTime": ["-", "09:00~21:00", "09:00~21:00", "09:00~21:00", "09:00~21:00", "09:00~21:00", "09:00~14:00", "-"]}, {"name": "\uc2e0\uad11\uc57d\uad6d", "lat": "37.26889980665273", "lng": "127.01446721175955", "url": "/info/%EC%8B%A0%EA%B4%91%EC%95%BD%EA%B5%AD-%EA%B2%BD%EA%B8%B0%EB%8F%84-%EC%88%98%EC%9B%90%EC%8B%9C-%EA%B5%90%EB%8F%99/", "workingTime": ["-", "10:00~19:00", "10:00~19:00", "10:00~19:00", "10:00~19:00", "10:00~19:00", "10:00~19:00", "-"]}, {"name": "\uba54\ub514\uc2e0\uc6d4\ub4dc\uc57d\uad6d", "lat": "37.27116301761169", "lng": "127.0160551148309", "url": "/info/%EB%A9%94%EB%94%94%EC%8B%A0%EC%9B%94%EB%93%9C%EC%95%BD%EA%B5%AD-%EA%B2%BD%EA%B8%B0%EB%8F%84-%EC%88%98%EC%9B%90%EC%8B%9C-%EA%B5%90%EB%8F%99/", "workingTime": ["2,4\uc9f8\uc8fc09:00~14:00", "09:00~19:30", "09:00~19:30", "09:00~19:30", "09:00~19:30", "09:00~19:30", "09:00~15:30", "09:00~14:00"]}, {"name": "\ub300\uc655\uc57d\uad6d", "lat": "37.27203144631964", "lng": "127.01639514643026", "url": "/info/%EB%8C%80%EC%99%95%EC%95%BD%EA%B5%AD-%EA%B2%BD%EA%B8%B0%EB%8F%84-%EC%88%98%EC%9B%90%EC%8B%9C-%EA%B5%90%EB%8F%99/", "workingTime": ["-", "09:00~20:00", "09:00~20:00", "09:00~20:00", "09:00~20:00", "09:00~20:00", "09:00~16:00", "09:00~14:00"]}, {"name": "\uc2e0\uc591\uc57d\uad6d", "lat": "37.2721687609667", "lng": "127.01476096192671", "url": "/info/%EC%8B%A0%EC%96%91%EC%95%BD%EA%B5%AD-%EA%B2%BD%EA%B8%B0%EB%8F%84-%EC%88%98%EC%9B%90%EC%8B%9C-%EA%B5%90%EB%8F%99/", "workingTime": ["-", "09:00~20:00", "09:00~20:00", "09:00~20:00", "09:00~20:00", "09:00~20:00", "09:00~15:00", "09:00~13:00"]}, {"name": "\uc218\uc6d0\uc885\ub85c\uc57d\uad6d", "lat": "37.27198125265002", "lng": "127.01537880254602", "url": "/info/%EC%88%98%EC%9B%90%EC%A2%85%EB%A1%9C%EC%95%BD%EA%B5%AD-%EA%B2%BD%EA%B8%B0%EB%8F%84-%EC%88%98%EC%9B%90%EC%8B%9C-%EA%B5%90%EB%8F%99/", "workingTime": ["-", "09:00~21:00", "09:00~21:00", "09:00~21:00", "09:00~21:00", "09:00~21:00", "09:00~17:00", "09:00~17:00"]}]