[{"name": "\ud0c4\ud0c4\uc57d\uad6d", "lat": "37.8200394672199", "lng": "127.053703793365", "url": "/info/%ED%83%84%ED%83%84%EC%95%BD%EA%B5%AD-%EA%B2%BD%EA%B8%B0%EB%8F%84-%EC%96%91%EC%A3%BC%EC%8B%9C-%EB%8D%95%EA%B3%84%EB%8F%99/", "workingTime": ["-", "09:00~18:00", "09:00~18:00", "09:00~18:00", "09:00~18:00", "09:00~18:00", "09:00~13:00", "-"]}, {"name": "\uc2e0\uc591\uc8fc\uc885\ub85c\uc57d\uad6d", "lat": "37.81682177459798", "lng": "127.04653693685114", "url": "/info/%EC%8B%A0%EC%96%91%EC%A3%BC%EC%A2%85%EB%A1%9C%EC%95%BD%EA%B5%AD-%EA%B2%BD%EA%B8%B0%EB%8F%84-%EC%96%91%EC%A3%BC%EC%8B%9C-%EB%8D%95%EA%B3%84%EB%8F%99/", "workingTime": ["-", "08:30~21:00", "08:30~21:00", "08:30~21:00", "08:30~21:00", "08:30~21:00", "08:30~21:00", "-"]}, {"name": "\uc608\uc0ac\ub791\uc57d\uad6d", "lat": "37.8191132379704", "lng": "127.047069905075", "url": "/info/%EC%98%88%EC%82%AC%EB%9E%91%EC%95%BD%EA%B5%AD-%EA%B2%BD%EA%B8%B0%EB%8F%84-%EC%96%91%EC%A3%BC%EC%8B%9C-%EB%8D%95%EA%B3%84%EB%8F%99/", "workingTime": ["-", "10:00~18:00", "10:00~18:00", "10:00~18:00", "10:00~18:00", "10:00~18:00", "-", "-"]}, {"name": "\ub9ac\uce58\ub9c8\ud2b8\uc57d\uad6d", "lat": "37.8168083588978", "lng": "127.04393387701954", "url": "/info/%EB%A6%AC%EC%B9%98%EB%A7%88%ED%8A%B8%EC%95%BD%EA%B5%AD-%EA%B2%BD%EA%B8%B0%EB%8F%84-%EC%96%91%EC%A3%BC%EC%8B%9C-%EB%8D%95%EA%B3%84%EB%8F%99/", "workingTime": ["1,2,3,4,5\uc9f8\uc8fc11:00~21:30", "11:00~20:00", "11:00~20:00", "11:00~20:00", "11:00~20:00", "11:00~20:00", "11:00~21:30", "-"]}, {"name": "\uc1a1\uc57d\uad6d", "lat": "37.81910619635848", "lng": "127.0461152052289", "url": "/info/%EC%86%A1%EC%95%BD%EA%B5%AD-%EA%B2%BD%EA%B8%B0%EB%8F%84-%EC%96%91%EC%A3%BC%EC%8B%9C-%EB%8D%95%EA%B3%84%EB%8F%99/", "workingTime": ["-", "09:00~20:00", "09:00~20:00", "09:00~20:00", "09:00~20:00", "09:00~20:00", "09:00~15:00", "-"]}, {"name": "\ub2e4\uc0ac\ub791\uc57d\uad6d", "lat": "37.822749277017614", "lng": "127.04850786894472", "url": "/info/%EB%8B%A4%EC%82%AC%EB%9E%91%EC%95%BD%EA%B5%AD-%EA%B2%BD%EA%B8%B0%EB%8F%84-%EC%96%91%EC%A3%BC%EC%8B%9C-%EB%8D%95%EA%B3%84%EB%8F%99/", "workingTime": ["-", "09:00~21:00", "09:00~21:00", "09:00~21:00", "09:00~21:00", "09:00~21:00", "09:00~16:30", "-"]}, {"name": "\ub355\uacc4\uc57d\uad6d", "lat": "37.8190593761902", "lng": "127.0460379469619", "url": "/info/%EB%8D%95%EA%B3%84%EC%95%BD%EA%B5%AD-%EA%B2%BD%EA%B8%B0%EB%8F%84-%EC%96%91%EC%A3%BC%EC%8B%9C-%EB%8D%95%EA%B3%84%EB%8F%99/", "workingTime": ["-", "09:00~20:00", "09:00~20:00", "09:00~20:00", "09:00~20:00", "09:00~20:00", "09:00~15:00", "-"]}, {"name": "\ubbf8\uc18c\uc57d\uad6d", "lat": "37.81865922017022", "lng": "127.04639205467686", "url": "/info/%EB%AF%B8%EC%86%8C%EC%95%BD%EA%B5%AD-%EA%B2%BD%EA%B8%B0%EB%8F%84-%EC%96%91%EC%A3%BC%EC%8B%9C-%EB%8D%95%EA%B3%84%EB%8F%99/", "workingTime": ["-", "09:00~20:00", "09:00~20:00", "09:00~20:00", "09:00~20:00", "09:00~20:00", "13:00~16:00", "-"]}, {"name": "\ud3c9\ud654\uc57d\uad6d", "lat": "37.81884712449366", "lng": "127.0465427513338", "url": "/info/%ED%8F%89%ED%99%94%EC%95%BD%EA%B5%AD-%EA%B2%BD%EA%B8%B0%EB%8F%84-%EC%96%91%EC%A3%BC%EC%8B%9C-%EB%8D%95%EA%B3%84%EB%8F%99/", "workingTime": ["3\uc9f8\uc8fc08:00~20:30", "08:00~20:00", "08:00~20:00", "08:00~20:00", "08:00~20:00", "08:00~20:00", "08:00~20:30", "08:00~21:00"]}, {"name": "\ubaa8\ubc94\uc57d\uad6d", "lat": "37.81767779170929", "lng": "127.04628990742044", "url": "/info/%EB%AA%A8%EB%B2%94%EC%95%BD%EA%B5%AD-%EA%B2%BD%EA%B8%B0%EB%8F%84-%EC%96%91%EC%A3%BC%EC%8B%9C-%EB%8D%95%EA%B3%84%EB%8F%99/", "workingTime": ["-", "09:00~19:30", "09:00~19:30", "09:00~19:30", "09:00~19:30", "09:00~19:30", "09:00~15:00", "-"]}, {"name": "\uc2a4\ud0c0\uc57d\uad6d", "lat": "37.81911359835573", "lng": "127.04706990530448", "url": "/info/%EC%8A%A4%ED%83%80%EC%95%BD%EA%B5%AD-%EA%B2%BD%EA%B8%B0%EB%8F%84-%EC%96%91%EC%A3%BC%EC%8B%9C-%EB%8D%95%EA%B3%84%EB%8F%99/", "workingTime": ["-", "09:00~19:00", "09:00~19:00", "09:00~19:00", "09:00~19:00", "09:00~19:00", "09:00~16:00", "-"]}, {"name": "\uac00\uc871\uc57d\uad6d", "lat": "37.8181084471", "lng": "127.0462697119", "url": "/info/%EA%B0%80%EC%A1%B1%EC%95%BD%EA%B5%AD-%EA%B2%BD%EA%B8%B0%EB%8F%84-%EC%96%91%EC%A3%BC%EC%8B%9C-%EB%8D%95%EA%B3%84%EB%8F%99/", "workingTime": ["-", "09:00~19:00", "09:00~19:00", "09:00~19:00", "09:00~19:00", "09:00~19:00", "09:00~15:00", "-"]}]