[{"name": "\uc6a9\uc6d0\ucc9c\uc9c0\uc5f0\uc57d\uad6d", "lat": "35.1006635879", "lng": "128.8105400013", "url": "/info/%EC%9A%A9%EC%9B%90%EC%B2%9C%EC%A7%80%EC%97%B0%EC%95%BD%EA%B5%AD-%EA%B2%BD%EC%83%81%EB%82%A8%EB%8F%84-%EC%B0%BD%EC%9B%90%EC%8B%9C-%EC%9A%A9%EC%9B%90%EB%8F%99/", "workingTime": ["-", "09:00~19:30", "09:00~19:30", "09:00~19:30", "09:00~19:30", "09:00~19:30", "09:00~17:30", "-"]}, {"name": "\uc6a9\uc6d0\uc5b4\uc2dc\uc7a5\uc57d\uad6d", "lat": "35.0935000911791", "lng": "128.818595424735", "url": "/info/%EC%9A%A9%EC%9B%90%EC%96%B4%EC%8B%9C%EC%9E%A5%EC%95%BD%EA%B5%AD-%EA%B2%BD%EC%83%81%EB%82%A8%EB%8F%84-%EC%B0%BD%EC%9B%90%EC%8B%9C-%EC%9A%A9%EC%9B%90%EB%8F%99/", "workingTime": ["-", "08:30~19:30", "08:30~19:30", "08:30~19:30", "08:30~19:30", "08:30~19:30", "08:30~14:00", "-"]}, {"name": "\uc870\uc740\uc57d\uad6d", "lat": "35.10120166389366", "lng": "128.8102943602995", "url": "/info/%EC%A1%B0%EC%9D%80%EC%95%BD%EA%B5%AD-%EA%B2%BD%EC%83%81%EB%82%A8%EB%8F%84-%EC%B0%BD%EC%9B%90%EC%8B%9C-%EC%9A%A9%EC%9B%90%EB%8F%99/", "workingTime": ["-", "09:00~19:00", "09:00~19:00", "09:00~19:00", "09:00~19:00", "09:00~19:00", "09:00~14:30", "-"]}, {"name": "\ud5a5\uae30\uc57d\uad6d", "lat": "35.1020412132206", "lng": "128.810296757787", "url": "/info/%ED%96%A5%EA%B8%B0%EC%95%BD%EA%B5%AD-%EA%B2%BD%EC%83%81%EB%82%A8%EB%8F%84-%EC%B0%BD%EC%9B%90%EC%8B%9C-%EC%9A%A9%EC%9B%90%EB%8F%99/", "workingTime": ["-", "09:00~19:30", "09:00~19:30", "09:00~19:30", "09:00~19:30", "09:00~19:30", "09:00~15:00", "-"]}, {"name": "\uc560\ud50c\uc57d\uad6d", "lat": "35.0883593329", "lng": "128.8134914398", "url": "/info/%EC%95%A0%ED%94%8C%EC%95%BD%EA%B5%AD-%EA%B2%BD%EC%83%81%EB%82%A8%EB%8F%84-%EC%B0%BD%EC%9B%90%EC%8B%9C-%EC%9A%A9%EC%9B%90%EB%8F%99/", "workingTime": ["-", "09:00~19:00", "09:00~19:00", "09:00~19:00", "09:00~19:00", "09:00~19:00", "09:00~14:00", "-"]}, {"name": "\uc36c\ud76c\ub9dd\uc57d\uad6d", "lat": "35.1006671124554", "lng": "128.811100327096", "url": "/info/%EC%8D%AC%ED%9D%AC%EB%A7%9D%EC%95%BD%EA%B5%AD-%EA%B2%BD%EC%83%81%EB%82%A8%EB%8F%84-%EC%B0%BD%EC%9B%90%EC%8B%9C-%EC%9A%A9%EC%9B%90%EB%8F%99/", "workingTime": ["-", "09:00~18:30", "09:00~18:30", "09:00~18:30", "09:00~18:30", "09:00~18:30", "09:00~14:00", "-"]}, {"name": "\ud574\uc778\uc57d\uad6d", "lat": "35.09974444108628", "lng": "128.82239023899", "url": "/info/%ED%95%B4%EC%9D%B8%EC%95%BD%EA%B5%AD-%EA%B2%BD%EC%83%81%EB%82%A8%EB%8F%84-%EC%B0%BD%EC%9B%90%EC%8B%9C-%EC%9A%A9%EC%9B%90%EB%8F%99/", "workingTime": ["-", "09:00~20:00", "09:00~20:00", "09:00~20:00", "09:00~20:00", "09:00~20:00", "09:00~15:00", "-"]}, {"name": "\uc6a9\ud55c\uc57d\uad6d", "lat": "35.08771642148093", "lng": "128.81790672235599", "url": "/info/%EC%9A%A9%ED%95%9C%EC%95%BD%EA%B5%AD-%EA%B2%BD%EC%83%81%EB%82%A8%EB%8F%84-%EC%B0%BD%EC%9B%90%EC%8B%9C-%EC%9A%A9%EC%9B%90%EB%8F%99/", "workingTime": ["1,2,3,4,5\uc9f8\uc8fc08:00~22:00", "08:00~22:00", "08:00~22:00", "08:00~22:00", "08:00~22:00", "08:00~22:00", "08:00~22:00", "08:00~22:00"]}, {"name": "\uc0c8\uacbd\ub0a8\uc57d\uad6d", "lat": "35.09620577551822", "lng": "128.82031456832064", "url": "/info/%EC%83%88%EA%B2%BD%EB%82%A8%EC%95%BD%EA%B5%AD-%EA%B2%BD%EC%83%81%EB%82%A8%EB%8F%84-%EC%B0%BD%EC%9B%90%EC%8B%9C-%EC%9A%A9%EC%9B%90%EB%8F%99/", "workingTime": ["07:30~21:30(\uc5f0\ub77d\ud6c4\ubc29\ubb38\uc694\ub9dd)", "07:30~21:30", "07:30~21:30", "07:30~21:30", "07:30~21:30", "07:30~21:30", "07:30~21:30", "07:30~21:30"]}, {"name": "\ud604\ub300\uc628\ub204\ub9ac\uc57d\uad6d", "lat": "35.10136509148892", "lng": "128.81304700476147", "url": "/info/%ED%98%84%EB%8C%80%EC%98%A8%EB%88%84%EB%A6%AC%EC%95%BD%EA%B5%AD-%EA%B2%BD%EC%83%81%EB%82%A8%EB%8F%84-%EC%B0%BD%EC%9B%90%EC%8B%9C-%EC%9A%A9%EC%9B%90%EB%8F%99/", "workingTime": ["-", "09:00~20:30", "09:00~20:30", "09:00~20:30", "09:00~20:30", "09:00~20:30", "09:00~16:00", "-"]}, {"name": "\uc36c\ud76c\ub9dd\uc57d\uad6d", "lat": "35.1006671124554", "lng": "128.811100327096", "url": "/info/%EC%8D%AC%ED%9D%AC%EB%A7%9D%EC%95%BD%EA%B5%AD-%EA%B2%BD%EC%83%81%EB%82%A8%EB%8F%84-%EC%B0%BD%EC%9B%90%EC%8B%9C-%EC%9A%A9%EC%9B%90%EB%8F%99/", "workingTime": ["-", "09:00~18:30", "09:00~18:30", "09:00~18:30", "09:00~18:30", "09:00~18:30", "09:00~14:00", "-"]}, {"name": "\ucf54\ub07c\ub9ac\uc57d\uad6d", "lat": "35.10109256275815", "lng": "128.80987524536383", "url": "/info/%EC%BD%94%EB%81%BC%EB%A6%AC%EC%95%BD%EA%B5%AD-%EA%B2%BD%EC%83%81%EB%82%A8%EB%8F%84-%EC%B0%BD%EC%9B%90%EC%8B%9C-%EC%9A%A9%EC%9B%90%EB%8F%99/", "workingTime": ["-", "09:00~18:30", "09:00~18:30", "09:00~18:30", "09:00~18:30", "09:00~18:30", "09:00~13:30", "-"]}, {"name": "\ud790\ub9c1\uc57d\uad6d", "lat": "35.10098323090875", "lng": "128.80681115306334", "url": "/info/%ED%9E%90%EB%A7%81%EC%95%BD%EA%B5%AD-%EA%B2%BD%EC%83%81%EB%82%A8%EB%8F%84-%EC%B0%BD%EC%9B%90%EC%8B%9C-%EC%9A%A9%EC%9B%90%EB%8F%99/", "workingTime": ["-", "09:00~20:00", "09:00~20:00", "09:00~20:00", "09:00~20:00", "09:00~20:00", "-", "-"]}, {"name": "\ud1a0\ub9c8\ud1a0\uc57d\uad6d", "lat": "35.10165382176259", "lng": "128.81019030474158", "url": "/info/%ED%86%A0%EB%A7%88%ED%86%A0%EC%95%BD%EA%B5%AD-%EA%B2%BD%EC%83%81%EB%82%A8%EB%8F%84-%EC%B0%BD%EC%9B%90%EC%8B%9C-%EC%9A%A9%EC%9B%90%EB%8F%99/", "workingTime": ["-", "09:00~19:00", "09:00~19:00", "09:00~19:00", "09:00~19:00", "09:00~19:00", "09:00~13:00", "-"]}, {"name": "\uc18c\ub098\ubb34\uc57d\uad6d", "lat": "35.1012890496606", "lng": "128.8099353533069", "url": "/info/%EC%86%8C%EB%82%98%EB%AC%B4%EC%95%BD%EA%B5%AD-%EA%B2%BD%EC%83%81%EB%82%A8%EB%8F%84-%EC%B0%BD%EC%9B%90%EC%8B%9C-%EC%9A%A9%EC%9B%90%EB%8F%99/", "workingTime": ["-", "09:00~19:00", "09:00~19:00", "09:00~19:00", "09:00~19:00", "09:00~19:00", "09:00~14:00", "-"]}]