[{"name": "\ud3c9\ud654\uc57d\uad6d", "lat": "36.122086344648665", "lng": "128.36311518137595", "url": "/info/%ED%8F%89%ED%99%94%EC%95%BD%EA%B5%AD-%EA%B2%BD%EC%83%81%EB%B6%81%EB%8F%84-%EA%B5%AC%EB%AF%B8%EC%8B%9C-%EC%8B%A0%ED%8F%89%EB%8F%99/", "workingTime": ["-", "09:00~20:00", "09:00~20:00", "09:00~20:00", "09:00~20:00", "09:00~20:00", "09:00~13:00", "-"]}, {"name": "\uc77c\uc2e0\uc57d\uad6d", "lat": "36.1237464232065", "lng": "128.36293947806772", "url": "/info/%EC%9D%BC%EC%8B%A0%EC%95%BD%EA%B5%AD-%EA%B2%BD%EC%83%81%EB%B6%81%EB%8F%84-%EA%B5%AC%EB%AF%B8%EC%8B%9C-%EC%8B%A0%ED%8F%89%EB%8F%99/", "workingTime": ["-", "09:00~20:00", "09:00~20:00", "09:00~20:00", "09:00~20:00", "09:00~20:00", "09:00~16:00", "-"]}, {"name": "\uc815\uc57d\uad6d", "lat": "36.123257667628764", "lng": "128.36471263497748", "url": "/info/%EC%A0%95%EC%95%BD%EA%B5%AD-%EA%B2%BD%EC%83%81%EB%B6%81%EB%8F%84-%EA%B5%AC%EB%AF%B8%EC%8B%9C-%EC%8B%A0%ED%8F%89%EB%8F%99/", "workingTime": ["-", "09:00~20:00", "09:00~20:00", "09:00~20:00", "09:00~20:00", "09:00~20:00", "09:00~17:00", "09:00~15:00"]}, {"name": "\ud6a8\uc131\uc57d\uad6d", "lat": "36.123051005601525", "lng": "128.36314475324065", "url": "/info/%ED%9A%A8%EC%84%B1%EC%95%BD%EA%B5%AD-%EA%B2%BD%EC%83%81%EB%B6%81%EB%8F%84-%EA%B5%AC%EB%AF%B8%EC%8B%9C-%EC%8B%A0%ED%8F%89%EB%8F%99/", "workingTime": ["3,5\uc9f8\uc8fc08:30~15:00", "09:00~20:30", "09:00~20:30", "09:00~20:30", "09:00~20:30", "09:00~20:30", "09:00~16:30", "-"]}, {"name": "\ub9c8\ud2b8\uc57d\uad6d", "lat": "36.11375819968585", "lng": "128.3654813115993", "url": "/info/%EB%A7%88%ED%8A%B8%EC%95%BD%EA%B5%AD-%EA%B2%BD%EC%83%81%EB%B6%81%EB%8F%84-%EA%B5%AC%EB%AF%B8%EC%8B%9C-%EC%8B%A0%ED%8F%89%EB%8F%99/", "workingTime": ["1,2,3,4,5\uc9f8\uc8fc10:00~21:00", "10:00~21:00", "10:00~21:00", "10:00~21:00", "10:00~21:00", "10:00~21:00", "10:00~21:00", "10:00~21:00"]}, {"name": "\uc544\uc2dc\uc544\uc57d\uad6d", "lat": "36.12292514309941", "lng": "128.36352508286666", "url": "/info/%EC%95%84%EC%8B%9C%EC%95%84%EC%95%BD%EA%B5%AD-%EA%B2%BD%EC%83%81%EB%B6%81%EB%8F%84-%EA%B5%AC%EB%AF%B8%EC%8B%9C-%EC%8B%A0%ED%8F%89%EB%8F%99/", "workingTime": ["2\uc9f8\uc8fc09:00~21:00", "09:00~21:00", "09:00~21:00", "09:00~21:00", "09:00~21:00", "09:00~21:00", "09:00~21:00", "-"]}]