[{"name": "\ud5c8\ube0c\uc57d\uad6d", "lat": "35.2608049032", "lng": "128.6254337665", "url": "/info/%ED%97%88%EB%B8%8C%EC%95%BD%EA%B5%AD-%EA%B2%BD%EC%83%81%EB%82%A8%EB%8F%84-%EC%B0%BD%EC%9B%90%EC%8B%9C-%EC%84%9C%EC%83%81%EB%8F%99/", "workingTime": ["-", "09:00~20:00", "09:00~20:00", "09:00~20:00", "09:00~20:00", "09:00~20:00", "09:00~20:00", "09:00~20:00"]}, {"name": "\ud604\ub300\uc57d\uad6d", "lat": "35.264074999999998", "lng": "128.618291666666664", "url": "/info/%ED%98%84%EB%8C%80%EC%95%BD%EA%B5%AD-%EA%B2%BD%EC%83%81%EB%82%A8%EB%8F%84-%EC%B0%BD%EC%9B%90%EC%8B%9C-%EC%84%9C%EC%83%81%EB%8F%99/", "workingTime": ["-", "09:00~19:00", "09:00~19:00", "09:00~19:00", "09:00~19:00", "09:00~19:00", "09:00~17:00", "-"]}, {"name": "\ud589\ubcf5\uc57d\uad6d", "lat": "35.2633899342889", "lng": "128.61865482304", "url": "/info/%ED%96%89%EB%B3%B5%EC%95%BD%EA%B5%AD-%EA%B2%BD%EC%83%81%EB%82%A8%EB%8F%84-%EC%B0%BD%EC%9B%90%EC%8B%9C-%EC%84%9C%EC%83%81%EB%8F%99/", "workingTime": ["-", "09:00~19:00", "09:00~19:00", "09:00~19:00", "09:00~19:00", "09:00~19:00", "09:00~13:00", "-"]}, {"name": "\ube44\ud0c0\ubbfc\ud50c\ub7ec\uc2a4\uc57d\uad6d", "lat": "35.2609378941", "lng": "128.6254627935", "url": "/info/%EB%B9%84%ED%83%80%EB%AF%BC%ED%94%8C%EB%9F%AC%EC%8A%A4%EC%95%BD%EA%B5%AD-%EA%B2%BD%EC%83%81%EB%82%A8%EB%8F%84-%EC%B0%BD%EC%9B%90%EC%8B%9C-%EC%84%9C%EC%83%81%EB%8F%99/", "workingTime": ["-", "08:30~18:30", "08:30~18:30", "08:30~18:30", "08:30~18:30", "08:30~18:30", "-", "-"]}, {"name": "\ubc14\ub978\uc57d\uad6d", "lat": "35.26016783954119", "lng": "128.6258957125373", "url": "/info/%EB%B0%94%EB%A5%B8%EC%95%BD%EA%B5%AD-%EA%B2%BD%EC%83%81%EB%82%A8%EB%8F%84-%EC%B0%BD%EC%9B%90%EC%8B%9C-%EC%84%9C%EC%83%81%EB%8F%99/", "workingTime": ["-", "09:00~20:00", "09:00~20:00", "09:00~20:00", "09:00~20:00", "09:00~20:00", "-", "-"]}, {"name": "\uc7a5\uc57d\uad6d", "lat": "35.26195204346435", "lng": "128.62080658257756", "url": "/info/%EC%9E%A5%EC%95%BD%EA%B5%AD-%EA%B2%BD%EC%83%81%EB%82%A8%EB%8F%84-%EC%B0%BD%EC%9B%90%EC%8B%9C-%EC%84%9C%EC%83%81%EB%8F%99/", "workingTime": ["-", "08:30~18:30", "08:30~18:30", "08:30~18:30", "08:30~18:30", "08:30~18:30", "08:30~13:00", "-"]}]