[{"name": "\ubd04\uc628\ub204\ub9ac\uc57d\uad6d", "lat": "36.0789996665", "lng": "129.3796403247", "url": "/info/%EB%B4%84%EC%98%A8%EB%88%84%EB%A6%AC%EC%95%BD%EA%B5%AD-%EA%B2%BD%EC%83%81%EB%B6%81%EB%8F%84-%ED%8F%AC%ED%95%AD%EC%8B%9C-%EC%9E%A5%EC%84%B1%EB%8F%99/", "workingTime": ["-", "09:00~19:00", "09:00~19:00", "09:00~19:00", "09:00~19:00", "09:00~19:00", "09:00~13:30", "-"]}, {"name": "\uc81c\uc77c\uc628\ub204\ub9ac\uc57d\uad6d", "lat": "36.06906834434224", "lng": "129.37277007633057", "url": "/info/%EC%A0%9C%EC%9D%BC%EC%98%A8%EB%88%84%EB%A6%AC%EC%95%BD%EA%B5%AD-%EA%B2%BD%EC%83%81%EB%B6%81%EB%8F%84-%ED%8F%AC%ED%95%AD%EC%8B%9C-%EC%9E%A5%EC%84%B1%EB%8F%99/", "workingTime": ["-", "09:00~19:00", "09:00~19:00", "09:00~19:00", "09:00~19:00", "09:00~19:00", "09:00~15:00", "-"]}, {"name": "\uba54\ub514\ud31c\uc870\uc544\uc57d\uad6d", "lat": "36.06693045879012", "lng": "129.3810531437283", "url": "/info/%EB%A9%94%EB%94%94%ED%8C%9C%EC%A1%B0%EC%95%84%EC%95%BD%EA%B5%AD-%EA%B2%BD%EC%83%81%EB%B6%81%EB%8F%84-%ED%8F%AC%ED%95%AD%EC%8B%9C-%EC%9E%A5%EC%84%B1%EB%8F%99/", "workingTime": ["-", "09:00~20:00", "09:00~20:00", "09:00~20:00", "09:00~20:00", "09:00~20:00", "09:00~20:00", "-"]}, {"name": "\uad6d\ubbfc\uc57d\uad6d", "lat": "36.067644223095684", "lng": "129.38104357802516", "url": "/info/%EA%B5%AD%EB%AF%BC%EC%95%BD%EA%B5%AD-%EA%B2%BD%EC%83%81%EB%B6%81%EB%8F%84-%ED%8F%AC%ED%95%AD%EC%8B%9C-%EC%9E%A5%EC%84%B1%EB%8F%99/", "workingTime": ["1,2,3,4,5\uc9f8\uc8fc09:00~12:00", "09:00~19:00", "09:00~19:00", "09:00~19:00", "09:00~19:00", "09:00~19:00", "09:00~17:00", "-"]}, {"name": "\ub3d9\uc0b0\uc57d\uad6d", "lat": "36.0821728684351", "lng": "129.379579604522", "url": "/info/%EB%8F%99%EC%82%B0%EC%95%BD%EA%B5%AD-%EA%B2%BD%EC%83%81%EB%B6%81%EB%8F%84-%ED%8F%AC%ED%95%AD%EC%8B%9C-%EC%9E%A5%EC%84%B1%EB%8F%99/", "workingTime": ["-", "09:00~18:20", "09:00~18:20", "09:00~18:20", "09:00~18:20", "09:00~18:20", "09:00~14:00", "-"]}, {"name": "\ub4dc\ub9bc\uc57d\uad6d", "lat": "36.08245854566274", "lng": "129.38909930293843", "url": "/info/%EB%93%9C%EB%A6%BC%EC%95%BD%EA%B5%AD-%EA%B2%BD%EC%83%81%EB%B6%81%EB%8F%84-%ED%8F%AC%ED%95%AD%EC%8B%9C-%EC%9E%A5%EC%84%B1%EB%8F%99/", "workingTime": ["-", "09:00~20:00", "09:00~18:00", "09:00~20:00", "09:00~18:00", "09:00~20:00", "09:00~14:00", "-"]}, {"name": "\uc601\ucc9c\uc628\ub204\ub9ac\uc57d\uad6d", "lat": "36.08246270769393", "lng": "129.38362135173287", "url": "/info/%EC%98%81%EC%B2%9C%EC%98%A8%EB%88%84%EB%A6%AC%EC%95%BD%EA%B5%AD-%EA%B2%BD%EC%83%81%EB%B6%81%EB%8F%84-%ED%8F%AC%ED%95%AD%EC%8B%9C-%EC%9E%A5%EC%84%B1%EB%8F%99/", "workingTime": ["2,3,4,5\uc9f8\uc8fc16:00~22:00", "08:30~22:45", "08:30~22:45", "08:30~22:45", "08:30~22:45", "08:30~22:45", "08:30~22:00", "08:30~22:00"]}, {"name": "\ucc38\uc88b\uc740\uc57d\uad6d", "lat": "36.0672930891", "lng": "129.3809609919", "url": "/info/%EC%B0%B8%EC%A2%8B%EC%9D%80%EC%95%BD%EA%B5%AD-%EA%B2%BD%EC%83%81%EB%B6%81%EB%8F%84-%ED%8F%AC%ED%95%AD%EC%8B%9C-%EC%9E%A5%EC%84%B1%EB%8F%99/", "workingTime": ["-", "09:00~20:00", "09:00~20:00", "09:00~20:00", "09:00~20:00", "09:00~20:00", "09:00~17:00", "-"]}, {"name": "\ud3ad\uadc4 \uc628\ub204\ub9ac\uc57d\uad6d", "lat": "36.0728290719", "lng": "129.3814875136", "url": "/info/%ED%8E%AD%EA%B7%84+%EC%98%A8%EB%88%84%EB%A6%AC%EC%95%BD%EA%B5%AD-%EA%B2%BD%EC%83%81%EB%B6%81%EB%8F%84-%ED%8F%AC%ED%95%AD%EC%8B%9C-%EC%9E%A5%EC%84%B1%EB%8F%99/", "workingTime": ["1,3,5\uc9f8\uc8fc09:00~13:30", "09:00~21:00", "09:00~21:00", "09:00~21:00", "09:00~17:00", "09:00~21:00", "09:00~17:00", "09:00~21:00"]}, {"name": "\uae08\uac15\uc57d\uad6d", "lat": "36.0760264709127", "lng": "129.3910400003828", "url": "/info/%EA%B8%88%EA%B0%95%EC%95%BD%EA%B5%AD-%EA%B2%BD%EC%83%81%EB%B6%81%EB%8F%84-%ED%8F%AC%ED%95%AD%EC%8B%9C-%EC%9E%A5%EC%84%B1%EB%8F%99/", "workingTime": ["-", "09:00~19:00", "09:00~19:00", "09:00~18:30", "09:00~19:00", "09:00~19:00", "09:00~13:00", "-"]}, {"name": "\uc2a4\ud0c0\uc57d\uad6d", "lat": "36.087365934956736", "lng": "129.3848166648079", "url": "/info/%EC%8A%A4%ED%83%80%EC%95%BD%EA%B5%AD-%EA%B2%BD%EC%83%81%EB%B6%81%EB%8F%84-%ED%8F%AC%ED%95%AD%EC%8B%9C-%EC%9E%A5%EC%84%B1%EB%8F%99/", "workingTime": ["-", "09:00~19:00", "09:00~19:00", "09:00~19:00", "09:00~19:00", "09:00~19:00", "-", "-"]}, {"name": "\uc544\ub77c\uba54\uc57d\uad6d", "lat": "36.08217230837381", "lng": "129.37958058660445", "url": "/info/%EC%95%84%EB%9D%BC%EB%A9%94%EC%95%BD%EA%B5%AD-%EA%B2%BD%EC%83%81%EB%B6%81%EB%8F%84-%ED%8F%AC%ED%95%AD%EC%8B%9C-%EC%9E%A5%EC%84%B1%EB%8F%99/", "workingTime": ["-", "09:00~19:00", "09:00~19:00", "09:00~19:00", "09:00~19:00", "09:00~19:00", "09:00~13:00", "-"]}]