[{"name": "\uc548\ub3d9\uc57d\uad6d", "lat": "36.03375152376402", "lng": "129.37202316600334", "url": "/info/%EC%95%88%EB%8F%99%EC%95%BD%EA%B5%AD-%EA%B2%BD%EC%83%81%EB%B6%81%EB%8F%84-%ED%8F%AC%ED%95%AD%EC%8B%9C-%EC%86%A1%EB%8F%84%EB%8F%99/", "workingTime": ["-", "09:00~20:00", "09:00~20:00", "09:00~20:00", "09:00~20:00", "09:00~20:00", "09:00~14:00", "-"]}, {"name": "\ubcf4\uae08\ub2f9\uc57d\uad6d", "lat": "36.02820326281161", "lng": "129.37631396556463", "url": "/info/%EB%B3%B4%EA%B8%88%EB%8B%B9%EC%95%BD%EA%B5%AD-%EA%B2%BD%EC%83%81%EB%B6%81%EB%8F%84-%ED%8F%AC%ED%95%AD%EC%8B%9C-%EC%86%A1%EB%8F%84%EB%8F%99/", "workingTime": ["-", "09:30~19:00", "09:30~19:00", "09:30~19:00", "09:30~19:00", "09:30~19:00", "09:30~18:00", "-"]}, {"name": "\ub4dc\ub9bc\uc57d\uad6d", "lat": "36.02955174303346", "lng": "129.37646540882838", "url": "/info/%EB%93%9C%EB%A6%BC%EC%95%BD%EA%B5%AD-%EA%B2%BD%EC%83%81%EB%B6%81%EB%8F%84-%ED%8F%AC%ED%95%AD%EC%8B%9C-%EC%86%A1%EB%8F%84%EB%8F%99/", "workingTime": ["-", "09:00~13:00", "09:00~13:00", "09:00~13:00", "09:00~13:00", "09:00~13:00", "09:00~13:00", "-"]}, {"name": "\uc628\ub204\ub9ac\uc2e0\uadf8\ub9b0\uc57d\uad6d", "lat": "36.03306945116491", "lng": "129.37581574443675", "url": "/info/%EC%98%A8%EB%88%84%EB%A6%AC%EC%8B%A0%EA%B7%B8%EB%A6%B0%EC%95%BD%EA%B5%AD-%EA%B2%BD%EC%83%81%EB%B6%81%EB%8F%84-%ED%8F%AC%ED%95%AD%EC%8B%9C-%EC%86%A1%EB%8F%84%EB%8F%99/", "workingTime": ["-", "09:00~13:00", "09:00~13:00", "09:00~13:00", "09:00~13:00", "09:00~13:00", "09:00~13:00", "-"]}, {"name": "\uc784\ucd08\uc57d\uad6d", "lat": "36.03244606717652", "lng": "129.37552474442526", "url": "/info/%EC%9E%84%EC%B4%88%EC%95%BD%EA%B5%AD-%EA%B2%BD%EC%83%81%EB%B6%81%EB%8F%84-%ED%8F%AC%ED%95%AD%EC%8B%9C-%EC%86%A1%EB%8F%84%EB%8F%99/", "workingTime": ["-", "09:00~18:00", "09:00~18:00", "09:00~18:00", "09:00~18:00", "09:00~18:00", "09:00~13:00", "-"]}]