[{"name": "\uc720\ub9bc\uc57d\uad6d", "lat": "35.257075000000000", "lng": "128.599205555555557", "url": "/info/%EC%9C%A0%EB%A6%BC%EC%95%BD%EA%B5%AD-%EA%B2%BD%EC%83%81%EB%82%A8%EB%8F%84-%EC%B0%BD%EC%9B%90%EC%8B%9C-%EC%86%8C%EA%B3%84%EB%8F%99/", "workingTime": ["-", "09:00~21:00", "09:00~21:00", "09:00~21:00", "09:00~21:00", "09:00~21:00", "09:00~18:00", "-"]}, {"name": "\ucc3d\uc6d0\ud669\uc57d\uad6d", "lat": "35.256646292965215", "lng": "128.59943329204944", "url": "/info/%EC%B0%BD%EC%9B%90%ED%99%A9%EC%95%BD%EA%B5%AD-%EA%B2%BD%EC%83%81%EB%82%A8%EB%8F%84-%EC%B0%BD%EC%9B%90%EC%8B%9C-%EC%86%8C%EA%B3%84%EB%8F%99/", "workingTime": ["-", "09:00~21:00", "09:00~21:00", "09:00~21:00", "09:00~21:00", "09:00~21:00", "09:00~18:00", "-"]}, {"name": "\uc18c\uacc4\uc57d\uad6d", "lat": "35.25747507350949", "lng": "128.59891337927834", "url": "/info/%EC%86%8C%EA%B3%84%EC%95%BD%EA%B5%AD-%EA%B2%BD%EC%83%81%EB%82%A8%EB%8F%84-%EC%B0%BD%EC%9B%90%EC%8B%9C-%EC%86%8C%EA%B3%84%EB%8F%99/", "workingTime": ["-", "09:00~20:00", "09:00~20:00", "09:00~20:00", "09:00~20:00", "09:00~20:00", "09:00~14:00", "-"]}, {"name": "\ubc30\uc57d\uad6d", "lat": "35.25619545407553", "lng": "128.60618001459866", "url": "/info/%EB%B0%B0%EC%95%BD%EA%B5%AD-%EA%B2%BD%EC%83%81%EB%82%A8%EB%8F%84-%EC%B0%BD%EC%9B%90%EC%8B%9C-%EC%86%8C%EA%B3%84%EB%8F%99/", "workingTime": ["-", "09:00~19:00", "09:00~19:00", "09:00~19:00", "09:00~19:00", "09:00~19:00", "-", "-"]}, {"name": "\uba54\ub514\ud31c\ud558\ub098\uc57d\uad6d", "lat": "35.25693676242091", "lng": "128.59954886716906", "url": "/info/%EB%A9%94%EB%94%94%ED%8C%9C%ED%95%98%EB%82%98%EC%95%BD%EA%B5%AD-%EA%B2%BD%EC%83%81%EB%82%A8%EB%8F%84-%EC%B0%BD%EC%9B%90%EC%8B%9C-%EC%86%8C%EA%B3%84%EB%8F%99/", "workingTime": ["-", "09:00~18:30", "09:00~18:30", "09:00~18:30", "09:00~18:30", "09:00~18:30", "09:00~13:00", "-"]}]