[{"name": "\uba54\ub514\ud31c\uc0c8\uac00\uc57c\uc57d\uad6d", "lat": "35.2609574510454", "lng": "128.8682959128041", "url": "/info/%EB%A9%94%EB%94%94%ED%8C%9C%EC%83%88%EA%B0%80%EC%95%BC%EC%95%BD%EA%B5%AD-%EA%B2%BD%EC%83%81%EB%82%A8%EB%8F%84-%EA%B9%80%ED%95%B4%EC%8B%9C-%EC%82%BC%EA%B3%84%EB%8F%99/", "workingTime": ["-", "09:00~19:30", "09:00~19:30", "09:00~19:30", "09:00~20:00", "09:00~19:30", "09:00~15:00", "09:00~12:30"]}, {"name": "\uac74\uac15\ud55c\uc6b0\ub9ac\uc57d\uad6d", "lat": "35.2722842937178", "lng": "128.865974236888", "url": "/info/%EA%B1%B4%EA%B0%95%ED%95%9C%EC%9A%B0%EB%A6%AC%EC%95%BD%EA%B5%AD-%EA%B2%BD%EC%83%81%EB%82%A8%EB%8F%84-%EA%B9%80%ED%95%B4%EC%8B%9C-%EC%82%BC%EA%B3%84%EB%8F%99/", "workingTime": ["1,2,3,4,5\uc9f8\uc8fc14:00~20:00", "09:00~21:00", "09:00~21:00", "09:00~21:00", "09:00~21:00", "09:00~21:00", "09:00~21:00", "09:00~21:00"]}, {"name": "\ub098\ub77c\uc57d\uad6d", "lat": "35.260346985298", "lng": "128.869858715136", "url": "/info/%EB%82%98%EB%9D%BC%EC%95%BD%EA%B5%AD-%EA%B2%BD%EC%83%81%EB%82%A8%EB%8F%84-%EA%B9%80%ED%95%B4%EC%8B%9C-%EC%82%BC%EA%B3%84%EB%8F%99/", "workingTime": ["-", "09:00~18:30", "09:00~18:30", "09:00~18:30", "09:00~18:30", "09:00~18:30", "09:00~13:30", "-"]}, {"name": "\uc6b0\ub9ac\uae08\uac15\uc57d\uad6d", "lat": "35.26401734806617", "lng": "128.86341724196674", "url": "/info/%EC%9A%B0%EB%A6%AC%EA%B8%88%EA%B0%95%EC%95%BD%EA%B5%AD-%EA%B2%BD%EC%83%81%EB%82%A8%EB%8F%84-%EA%B9%80%ED%95%B4%EC%8B%9C-%EC%82%BC%EA%B3%84%EB%8F%99/", "workingTime": ["-", "09:00~18:30", "09:00~18:30", "09:00~18:30", "09:00~18:30", "09:00~18:30", "09:00~13:30", "-"]}, {"name": "\uc2e0\uba85\uc57d\uad6d", "lat": "35.26947660768519", "lng": "128.8644279350178", "url": "/info/%EC%8B%A0%EB%AA%85%EC%95%BD%EA%B5%AD-%EA%B2%BD%EC%83%81%EB%82%A8%EB%8F%84-%EA%B9%80%ED%95%B4%EC%8B%9C-%EC%82%BC%EA%B3%84%EB%8F%99/", "workingTime": ["-", "09:00~19:00", "09:00~19:00", "09:00~19:00", "09:00~19:00", "09:00~19:00", "09:00~15:00", "-"]}, {"name": "\uc140\ud504\ucf00\uc5b4\ub958\uc57d\uad6d", "lat": "35.26313501608462", "lng": "128.86938966242138", "url": "/info/%EC%85%80%ED%94%84%EC%BC%80%EC%96%B4%EB%A5%98%EC%95%BD%EA%B5%AD-%EA%B2%BD%EC%83%81%EB%82%A8%EB%8F%84-%EA%B9%80%ED%95%B4%EC%8B%9C-%EC%82%BC%EA%B3%84%EB%8F%99/", "workingTime": ["-", "10:00~22:00", "10:00~22:00", "10:00~22:00", "10:00~22:00", "10:00~22:00", "10:00~22:00", "10:00~22:00"]}, {"name": "\uc0bc\uacc4\uc81c\uc77c\uc57d\uad6d", "lat": "35.2608317305", "lng": "128.8693806974", "url": "/info/%EC%82%BC%EA%B3%84%EC%A0%9C%EC%9D%BC%EC%95%BD%EA%B5%AD-%EA%B2%BD%EC%83%81%EB%82%A8%EB%8F%84-%EA%B9%80%ED%95%B4%EC%8B%9C-%EC%82%BC%EA%B3%84%EB%8F%99/", "workingTime": ["1,2,3,4,5\uc9f8\uc8fc10:00~21:30", "08:40~22:00", "08:40~22:00", "08:40~22:00", "08:40~22:00", "08:40~22:00", "08:40~22:00", "08:40~22:00"]}, {"name": "\ub2e4\uc628\uc57d\uad6d", "lat": "35.2607243356", "lng": "128.8679322979", "url": "/info/%EB%8B%A4%EC%98%A8%EC%95%BD%EA%B5%AD-%EA%B2%BD%EC%83%81%EB%82%A8%EB%8F%84-%EA%B9%80%ED%95%B4%EC%8B%9C-%EC%82%BC%EA%B3%84%EB%8F%99/", "workingTime": ["-", "09:00~19:00", "09:00~19:00", "09:00~19:00", "09:00~19:00", "09:00~19:00", "09:00~16:00", "-"]}, {"name": "\uc0bc\uacc4\ud654\uc815\uc57d\uad6d", "lat": "35.26788964", "lng": "128.8663562582", "url": "/info/%EC%82%BC%EA%B3%84%ED%99%94%EC%A0%95%EC%95%BD%EA%B5%AD-%EA%B2%BD%EC%83%81%EB%82%A8%EB%8F%84-%EA%B9%80%ED%95%B4%EC%8B%9C-%EC%82%BC%EA%B3%84%EB%8F%99/", "workingTime": ["-", "09:00~20:30", "09:00~20:30", "09:00~20:30", "09:00~20:30", "09:00~20:30", "09:00~18:00", "09:00~21:30"]}, {"name": "\ud2bc\ud2bc\uc628\ub204\ub9ac\uc57d\uad6d", "lat": "35.260268359", "lng": "128.8689810037", "url": "/info/%ED%8A%BC%ED%8A%BC%EC%98%A8%EB%88%84%EB%A6%AC%EC%95%BD%EA%B5%AD-%EA%B2%BD%EC%83%81%EB%82%A8%EB%8F%84-%EA%B9%80%ED%95%B4%EC%8B%9C-%EC%82%BC%EA%B3%84%EB%8F%99/", "workingTime": ["-", "09:00~19:00", "09:00~19:00", "09:00~19:00", "09:00~19:00", "09:00~19:00", "09:00~17:00", "09:00~13:00"]}, {"name": "\uc0bc\uacc4\uc870\uc740\uc57d\uad6d", "lat": "35.26276793160207", "lng": "128.86234036818018", "url": "/info/%EC%82%BC%EA%B3%84%EC%A1%B0%EC%9D%80%EC%95%BD%EA%B5%AD-%EA%B2%BD%EC%83%81%EB%82%A8%EB%8F%84-%EA%B9%80%ED%95%B4%EC%8B%9C-%EC%82%BC%EA%B3%84%EB%8F%99/", "workingTime": ["-", "09:00~18:30", "09:00~18:30", "09:00~18:30", "09:00~18:30", "09:00~18:30", "09:00~13:30", "-"]}, {"name": "\uc2a4\ud0c0\uc57d\uad6d", "lat": "35.2603095815333", "lng": "128.869450887188", "url": "/info/%EC%8A%A4%ED%83%80%EC%95%BD%EA%B5%AD-%EA%B2%BD%EC%83%81%EB%82%A8%EB%8F%84-%EA%B9%80%ED%95%B4%EC%8B%9C-%EC%82%BC%EA%B3%84%EB%8F%99/", "workingTime": ["-", "09:00~19:00", "09:00~19:00", "09:00~19:00", "09:00~19:00", "09:00~19:00", "09:00~13:00", "-"]}, {"name": "\uc9c4\uc0ac\ub791\uc57d\uad6d", "lat": "35.2638318426266", "lng": "128.863769724181", "url": "/info/%EC%A7%84%EC%82%AC%EB%9E%91%EC%95%BD%EA%B5%AD-%EA%B2%BD%EC%83%81%EB%82%A8%EB%8F%84-%EA%B9%80%ED%95%B4%EC%8B%9C-%EC%82%BC%EA%B3%84%EB%8F%99/", "workingTime": ["-", "09:00~18:00", "09:00~18:00", "09:00~18:00", "09:00~18:00", "09:00~18:00", "09:00~13:00", "-"]}, {"name": "\uc0c8\ubd04\uc57d\uad6d", "lat": "35.2696736355", "lng": "128.8640412434", "url": "/info/%EC%83%88%EB%B4%84%EC%95%BD%EA%B5%AD-%EA%B2%BD%EC%83%81%EB%82%A8%EB%8F%84-%EA%B9%80%ED%95%B4%EC%8B%9C-%EC%82%BC%EA%B3%84%EB%8F%99/", "workingTime": ["-", "09:00~18:30", "09:00~18:30", "09:00~18:30", "14:00~18:30", "09:00~18:30", "09:00~13:00", "-"]}, {"name": "\uc911\uc559\uc57d\uad6d", "lat": "35.2612297001", "lng": "128.8716180831", "url": "/info/%EC%A4%91%EC%95%99%EC%95%BD%EA%B5%AD-%EA%B2%BD%EC%83%81%EB%82%A8%EB%8F%84-%EA%B9%80%ED%95%B4%EC%8B%9C-%EC%82%BC%EA%B3%84%EB%8F%99/", "workingTime": ["-", "09:00~18:00", "09:00~18:00", "09:00~18:00", "09:00~18:00", "09:00~18:00", "09:00~13:00", "-"]}, {"name": "\uc0c8\uc5ec\uc0b0\uba54\ub514\uce7c\uc57d\uad6d", "lat": "35.26014625680774", "lng": "128.86754987180944", "url": "/info/%EC%83%88%EC%97%AC%EC%82%B0%EB%A9%94%EB%94%94%EC%B9%BC%EC%95%BD%EA%B5%AD-%EA%B2%BD%EC%83%81%EB%82%A8%EB%8F%84-%EA%B9%80%ED%95%B4%EC%8B%9C-%EC%82%BC%EA%B3%84%EB%8F%99/", "workingTime": ["-", "09:00~19:00", "09:00~19:00", "09:00~19:00", "09:00~19:00", "09:00~19:00", "09:00~13:00", "-"]}]