[{"name": "\ud3c9\ud654\uc57d\uad6d", "lat": "34.8564413331676", "lng": "128.428359732488", "url": "/info/%ED%8F%89%ED%99%94%EC%95%BD%EA%B5%AD-%EA%B2%BD%EC%83%81%EB%82%A8%EB%8F%84-%ED%86%B5%EC%98%81%EC%8B%9C-%EB%B6%81%EC%8B%A0%EB%8F%99/", "workingTime": ["-", "09:00~20:00", "09:00~20:00", "09:00~20:00", "09:00~20:00", "09:00~20:00", "09:00~21:00", "09:00~21:00"]}, {"name": "\ubd81\uc2e0\ubb34\uad81\ud654\uc57d\uad6d", "lat": "34.855766121637686", "lng": "128.42847392667878", "url": "/info/%EB%B6%81%EC%8B%A0%EB%AC%B4%EA%B6%81%ED%99%94%EC%95%BD%EA%B5%AD-%EA%B2%BD%EC%83%81%EB%82%A8%EB%8F%84-%ED%86%B5%EC%98%81%EC%8B%9C-%EB%B6%81%EC%8B%A0%EB%8F%99/", "workingTime": ["-", "08:50~19:30", "08:50~19:30", "08:50~19:30", "08:50~19:30", "08:50~19:30", "08:50~15:00", "08:50~13:00"]}, {"name": "\ub9c8\ub9ac\ub098\uc57d\uad6d", "lat": "34.856291938914985", "lng": "128.42790569291137", "url": "/info/%EB%A7%88%EB%A6%AC%EB%82%98%EC%95%BD%EA%B5%AD-%EA%B2%BD%EC%83%81%EB%82%A8%EB%8F%84-%ED%86%B5%EC%98%81%EC%8B%9C-%EB%B6%81%EC%8B%A0%EB%8F%99/", "workingTime": ["-", "09:00~20:00", "09:00~13:00", "09:00~13:00", "09:00~13:00", "09:00~13:00", "09:00~15:00", "-"]}, {"name": "\ud55c\uc0ac\ub791\uc57d\uad6d", "lat": "34.85741961398906", "lng": "128.4282060720434", "url": "/info/%ED%95%9C%EC%82%AC%EB%9E%91%EC%95%BD%EA%B5%AD-%EA%B2%BD%EC%83%81%EB%82%A8%EB%8F%84-%ED%86%B5%EC%98%81%EC%8B%9C-%EB%B6%81%EC%8B%A0%EB%8F%99/", "workingTime": ["-", "09:00~19:00", "09:00~19:00", "09:00~19:00", "09:00~19:00", "09:00~19:00", "09:00~15:00", "-"]}, {"name": "\ud558\uc640\uc774\uc57d\uad6d", "lat": "34.8544701693375", "lng": "128.42854433258674", "url": "/info/%ED%95%98%EC%99%80%EC%9D%B4%EC%95%BD%EA%B5%AD-%EA%B2%BD%EC%83%81%EB%82%A8%EB%8F%84-%ED%86%B5%EC%98%81%EC%8B%9C-%EB%B6%81%EC%8B%A0%EB%8F%99/", "workingTime": ["-", "09:00~18:30", "09:00~18:30", "09:00~18:30", "09:00~18:30", "09:00~18:30", "09:00~14:00", "-"]}, {"name": "\uc9c4\uc57d\uad6d", "lat": "34.8574606713895", "lng": "128.427488185814", "url": "/info/%EC%A7%84%EC%95%BD%EA%B5%AD-%EA%B2%BD%EC%83%81%EB%82%A8%EB%8F%84-%ED%86%B5%EC%98%81%EC%8B%9C-%EB%B6%81%EC%8B%A0%EB%8F%99/", "workingTime": ["-", "09:00~18:30", "09:00~18:30", "09:00~18:30", "09:00~18:30", "09:00~18:30", "09:00~13:00", "-"]}, {"name": "\ucc9c\uc9c0\uc57d\uad6d", "lat": "34.85245677675112", "lng": "128.43083182254537", "url": "/info/%EC%B2%9C%EC%A7%80%EC%95%BD%EA%B5%AD-%EA%B2%BD%EC%83%81%EB%82%A8%EB%8F%84-%ED%86%B5%EC%98%81%EC%8B%9C-%EB%B6%81%EC%8B%A0%EB%8F%99/", "workingTime": ["-", "09:00~18:00", "09:00~18:00", "09:00~18:00", "09:00~18:00", "09:00~18:00", "-", "-"]}, {"name": "\uc6b0\ub9ac\uc57d\uad6d", "lat": "34.854072347942534", "lng": "128.4290307220607", "url": "/info/%EC%9A%B0%EB%A6%AC%EC%95%BD%EA%B5%AD-%EA%B2%BD%EC%83%81%EB%82%A8%EB%8F%84-%ED%86%B5%EC%98%81%EC%8B%9C-%EB%B6%81%EC%8B%A0%EB%8F%99/", "workingTime": ["-", "09:00~19:00", "09:00~19:00", "09:00~19:00", "09:00~19:00", "09:00~19:00", "09:00~13:00", "09:00~13:00"]}, {"name": "\ubc31\ub450\uc0b0\uc57d\uad6d", "lat": "34.85388404234075", "lng": "128.42910181788517", "url": "/info/%EB%B0%B1%EB%91%90%EC%82%B0%EC%95%BD%EA%B5%AD-%EA%B2%BD%EC%83%81%EB%82%A8%EB%8F%84-%ED%86%B5%EC%98%81%EC%8B%9C-%EB%B6%81%EC%8B%A0%EB%8F%99/", "workingTime": ["-", "09:00~19:00", "09:00~19:00", "09:00~19:00", "09:00~19:00", "09:00~19:00", "09:00~14:00", "09:00~13:00"]}, {"name": "\uc720\uba85\ud504\ub77c\uc790\uc57d\uad6d", "lat": "34.85182369211724", "lng": "128.42833149866192", "url": "/info/%EC%9C%A0%EB%AA%85%ED%94%84%EB%9D%BC%EC%9E%90%EC%95%BD%EA%B5%AD-%EA%B2%BD%EC%83%81%EB%82%A8%EB%8F%84-%ED%86%B5%EC%98%81%EC%8B%9C-%EB%B6%81%EC%8B%A0%EB%8F%99/", "workingTime": ["-", "09:00~19:00", "09:00~19:00", "09:00~19:00", "09:00~19:00", "09:00~19:00", "09:00~14:00", "-"]}, {"name": "\ub300\ud55c\uc57d\uad6d", "lat": "34.85213363898422", "lng": "128.42864736013388", "url": "/info/%EB%8C%80%ED%95%9C%EC%95%BD%EA%B5%AD-%EA%B2%BD%EC%83%81%EB%82%A8%EB%8F%84-%ED%86%B5%EC%98%81%EC%8B%9C-%EB%B6%81%EC%8B%A0%EB%8F%99/", "workingTime": ["-", "09:00~18:30", "09:00~18:30", "09:00~18:30", "09:00~18:30", "09:00~18:30", "09:00~13:00", "-"]}, {"name": "\uadf8\ub79c\ub4dc\uc57d\uad6d", "lat": "34.856175121105444", "lng": "128.42833666181517", "url": "/info/%EA%B7%B8%EB%9E%9C%EB%93%9C%EC%95%BD%EA%B5%AD-%EA%B2%BD%EC%83%81%EB%82%A8%EB%8F%84-%ED%86%B5%EC%98%81%EC%8B%9C-%EB%B6%81%EC%8B%A0%EB%8F%99/", "workingTime": ["-", "09:00~19:00", "09:00~19:00", "09:00~19:00", "09:00~19:00", "09:00~19:00", "09:00~14:00", "-"]}]