[{"name": "\ud589\ub9bc\uc57d\uad6d", "lat": "36.4170500406", "lng": "128.1508783903", "url": "/info/%ED%96%89%EB%A6%BC%EC%95%BD%EA%B5%AD-%EA%B2%BD%EC%83%81%EB%B6%81%EB%8F%84-%EC%83%81%EC%A3%BC%EC%8B%9C-%EB%AC%B4%EC%96%91%EB%8F%99/", "workingTime": ["-", "09:00~20:30", "09:00~20:30", "09:00~20:30", "09:00~20:30", "09:00~20:30", "09:00~13:00", "-"]}, {"name": "\ud0dc\ud3c9\uc591\uc57d\uad6d", "lat": "36.4229219403581", "lng": "128.155426430023", "url": "/info/%ED%83%9C%ED%8F%89%EC%96%91%EC%95%BD%EA%B5%AD-%EA%B2%BD%EC%83%81%EB%B6%81%EB%8F%84-%EC%83%81%EC%A3%BC%EC%8B%9C-%EB%AC%B4%EC%96%91%EB%8F%99/", "workingTime": ["1,3,5\uc9f8\uc8fc08:00~21:00", "08:00~21:00", "08:00~21:00", "08:00~21:00", "08:00~21:00", "08:00~21:00", "08:00~21:00", "08:00~21:00"]}, {"name": "\uc6b0\uc8fc\uc628\ub204\ub9ac\uc57d\uad6d", "lat": "36.41982080936867", "lng": "128.152110062957", "url": "/info/%EC%9A%B0%EC%A3%BC%EC%98%A8%EB%88%84%EB%A6%AC%EC%95%BD%EA%B5%AD-%EA%B2%BD%EC%83%81%EB%B6%81%EB%8F%84-%EC%83%81%EC%A3%BC%EC%8B%9C-%EB%AC%B4%EC%96%91%EB%8F%99/", "workingTime": ["-", "09:00~18:30", "09:00~18:30", "09:00~18:30", "09:00~18:30", "09:00~18:30", "09:00~13:00", "-"]}, {"name": "\uc7a5\uc57d\uad6d", "lat": "36.41818283227096", "lng": "128.1521720870495", "url": "/info/%EC%9E%A5%EC%95%BD%EA%B5%AD-%EA%B2%BD%EC%83%81%EB%B6%81%EB%8F%84-%EC%83%81%EC%A3%BC%EC%8B%9C-%EB%AC%B4%EC%96%91%EB%8F%99/", "workingTime": ["-", "08:30~18:30", "08:30~18:30", "08:30~18:30", "08:30~18:30", "08:30~18:30", "08:30~13:00", "-"]}, {"name": "\uc870\uc740\uc57d\uad6d", "lat": "36.41808319460765", "lng": "128.1532573125212", "url": "/info/%EC%A1%B0%EC%9D%80%EC%95%BD%EA%B5%AD-%EA%B2%BD%EC%83%81%EB%B6%81%EB%8F%84-%EC%83%81%EC%A3%BC%EC%8B%9C-%EB%AC%B4%EC%96%91%EB%8F%99/", "workingTime": ["-", "09:00~18:00", "09:00~18:00", "09:00~18:00", "09:00~18:00", "09:00~18:00", "09:00~13:00", "-"]}, {"name": "\ub179\uc2ed\uc790\uc57d\uad6d", "lat": "36.422711654802995", "lng": "128.15871483030926", "url": "/info/%EB%85%B9%EC%8B%AD%EC%9E%90%EC%95%BD%EA%B5%AD-%EA%B2%BD%EC%83%81%EB%B6%81%EB%8F%84-%EC%83%81%EC%A3%BC%EC%8B%9C-%EB%AC%B4%EC%96%91%EB%8F%99/", "workingTime": ["-", "08:30~19:00", "08:30~19:00", "08:30~19:00", "08:30~19:00", "08:30~19:00", "08:30~12:00", "-"]}]