[{"name": "\uc544\uc138\uc544\uc57d\uad6d", "lat": "35.45630735864829", "lng": "128.52698954666334", "url": "/info/%EC%95%84%EC%84%B8%EC%95%84%EC%95%BD%EA%B5%AD-%EA%B2%BD%EC%83%81%EB%82%A8%EB%8F%84-%EC%B0%BD%EB%85%95%EA%B5%B0-%EC%98%81%EC%82%B0%EB%A9%B4/", "workingTime": ["1,2,3,4,5\uc9f8\uc8fc09:00~20:00", "08:00~21:00", "08:00~21:00", "08:00~21:00", "08:00~21:00", "08:00~21:00", "08:00~21:00", "-"]}, {"name": "\uc81c\uc77c\uc57d\uad6d", "lat": "35.454664729985446", "lng": "128.52982629923366", "url": "/info/%EC%A0%9C%EC%9D%BC%EC%95%BD%EA%B5%AD-%EA%B2%BD%EC%83%81%EB%82%A8%EB%8F%84-%EC%B0%BD%EB%85%95%EA%B5%B0-%EC%98%81%EC%82%B0%EB%A9%B4/", "workingTime": ["1,2,3,4,5\uc9f8\uc8fc08:00~20:00", "08:00~20:00", "08:00~20:00", "08:00~20:00", "08:00~20:00", "08:00~20:00", "08:00~20:00", "-"]}, {"name": "\uc601\uc0b0\uc57d\uad6d", "lat": "35.45831055253445", "lng": "128.52601813695043", "url": "/info/%EC%98%81%EC%82%B0%EC%95%BD%EA%B5%AD-%EA%B2%BD%EC%83%81%EB%82%A8%EB%8F%84-%EC%B0%BD%EB%85%95%EA%B5%B0-%EC%98%81%EC%82%B0%EB%A9%B4/", "workingTime": ["-", "09:00~19:00", "09:00~19:00", "09:00~19:00", "09:00~19:00", "09:00~19:00", "09:00~15:00", "-"]}, {"name": "\uc0c8\ud589\ubcf5\uc57d\uad6d", "lat": "35.4566729222293", "lng": "128.527148567639", "url": "/info/%EC%83%88%ED%96%89%EB%B3%B5%EC%95%BD%EA%B5%AD-%EA%B2%BD%EC%83%81%EB%82%A8%EB%8F%84-%EC%B0%BD%EB%85%95%EA%B5%B0-%EC%98%81%EC%82%B0%EB%A9%B4/", "workingTime": ["-", "00:00~00:01", "-", "-", "-", "-", "-", "-"]}, {"name": "\uc131\ubaa8\uc57d\uad6d", "lat": "35.456729759944004", "lng": "128.52665386829517", "url": "/info/%EC%84%B1%EB%AA%A8%EC%95%BD%EA%B5%AD-%EA%B2%BD%EC%83%81%EB%82%A8%EB%8F%84-%EC%B0%BD%EB%85%95%EA%B5%B0-%EC%98%81%EC%82%B0%EB%A9%B4/", "workingTime": ["-", "08:30~18:00", "08:30~18:00", "08:30~18:00", "08:30~18:00", "08:30~18:00", "08:30~13:00", "-"]}]