[{"name": "\ubc14\ub978\uc57d\uad6d", "lat": "34.8929602581253", "lng": "128.690956803128", "url": "/info/%EB%B0%94%EB%A5%B8%EC%95%BD%EA%B5%AD-%EA%B2%BD%EC%83%81%EB%82%A8%EB%8F%84-%EA%B1%B0%EC%A0%9C%EC%8B%9C-%EC%98%A5%ED%8F%AC%EB%8F%99/", "workingTime": ["1,2,3,4,5\uc9f8\uc8fc10:00~21:00", "10:00~21:00", "10:00~21:00", "10:00~21:00", "10:00~21:00", "10:00~21:00", "10:00~22:00", "10:00~21:00"]}, {"name": "\uc625\ud3ec\ub85c\uc57d\uad6d", "lat": "34.895424330988234", "lng": "128.69074921812802", "url": "/info/%EC%98%A5%ED%8F%AC%EB%A1%9C%EC%95%BD%EA%B5%AD-%EA%B2%BD%EC%83%81%EB%82%A8%EB%8F%84-%EA%B1%B0%EC%A0%9C%EC%8B%9C-%EC%98%A5%ED%8F%AC%EB%8F%99/", "workingTime": ["1,2,3,4,5\uc9f8\uc8fc09:00~12:00", "09:00~21:30", "09:00~21:30", "09:00~21:30", "09:00~21:30", "09:00~21:30", "09:00~21:30", "09:00~12:00"]}, {"name": "\uacbd\ub0a8\uc57d\uad6d", "lat": "34.895139232824526", "lng": "128.69051148052682", "url": "/info/%EA%B2%BD%EB%82%A8%EC%95%BD%EA%B5%AD-%EA%B2%BD%EC%83%81%EB%82%A8%EB%8F%84-%EA%B1%B0%EC%A0%9C%EC%8B%9C-%EC%98%A5%ED%8F%AC%EB%8F%99/", "workingTime": ["-", "09:00~19:30", "09:00~19:30", "09:00~19:30", "09:00~19:30", "09:00~19:30", "09:00~14:00", "-"]}, {"name": "\uc81c\uc77c\uc628\ub204\ub9ac\uc57d\uad6d", "lat": "34.89529013704586", "lng": "128.690780096296", "url": "/info/%EC%A0%9C%EC%9D%BC%EC%98%A8%EB%88%84%EB%A6%AC%EC%95%BD%EA%B5%AD-%EA%B2%BD%EC%83%81%EB%82%A8%EB%8F%84-%EA%B1%B0%EC%A0%9C%EC%8B%9C-%EC%98%A5%ED%8F%AC%EB%8F%99/", "workingTime": ["-", "09:00~21:00", "09:00~21:00", "09:00~21:00", "09:00~21:00", "09:00~21:00", "09:00~17:00", "-"]}, {"name": "\uc138\uad11\uc57d\uad6d", "lat": "34.8942381882", "lng": "128.6920230389", "url": "/info/%EC%84%B8%EA%B4%91%EC%95%BD%EA%B5%AD-%EA%B2%BD%EC%83%81%EB%82%A8%EB%8F%84-%EA%B1%B0%EC%A0%9C%EC%8B%9C-%EC%98%A5%ED%8F%AC%EB%8F%99/", "workingTime": ["-", "09:00~20:00", "09:00~20:00", "09:00~20:00", "09:00~20:00", "09:00~20:00", "09:00~18:00", "-"]}, {"name": "\ud55c\ub9c8\uc74c\uc57d\uad6d", "lat": "34.89451410255474", "lng": "128.69058917294026", "url": "/info/%ED%95%9C%EB%A7%88%EC%9D%8C%EC%95%BD%EA%B5%AD-%EA%B2%BD%EC%83%81%EB%82%A8%EB%8F%84-%EA%B1%B0%EC%A0%9C%EC%8B%9C-%EC%98%A5%ED%8F%AC%EB%8F%99/", "workingTime": ["-", "09:00~19:00", "09:00~19:00", "09:00~19:00", "09:00~19:00", "09:00~19:00", "09:00~14:00", "09:00~13:00"]}, {"name": "\uc138\uc6d0\uc57d\uad6d", "lat": "34.895148833501956", "lng": "128.69082972022568", "url": "/info/%EC%84%B8%EC%9B%90%EC%95%BD%EA%B5%AD-%EA%B2%BD%EC%83%81%EB%82%A8%EB%8F%84-%EA%B1%B0%EC%A0%9C%EC%8B%9C-%EC%98%A5%ED%8F%AC%EB%8F%99/", "workingTime": ["-", "09:00~19:00", "09:00~19:00", "09:00~19:00", "09:00~19:00", "09:00~19:00", "09:00~15:00", "09:00~13:00"]}, {"name": "\ub530\ub73b\ud55c\uc57d\uad6d", "lat": "34.89353460159874", "lng": "128.6918073400459", "url": "/info/%EB%94%B0%EB%9C%BB%ED%95%9C%EC%95%BD%EA%B5%AD-%EA%B2%BD%EC%83%81%EB%82%A8%EB%8F%84-%EA%B1%B0%EC%A0%9C%EC%8B%9C-%EC%98%A5%ED%8F%AC%EB%8F%99/", "workingTime": ["1,2,3,4,5\uc9f8\uc8fc09:00~13:00", "09:00~21:00", "09:00~21:00", "09:00~21:00", "09:00~21:00", "09:00~21:00", "09:00~16:00", "09:00~13:00"]}, {"name": "\ucc9c\uc0ac\uc57d\uad6d", "lat": "34.887534269274354", "lng": "128.69165805983536", "url": "/info/%EC%B2%9C%EC%82%AC%EC%95%BD%EA%B5%AD-%EA%B2%BD%EC%83%81%EB%82%A8%EB%8F%84-%EA%B1%B0%EC%A0%9C%EC%8B%9C-%EC%98%A5%ED%8F%AC%EB%8F%99/", "workingTime": ["-", "10:00~22:00", "10:00~22:00", "10:00~22:00", "10:00~22:00", "10:00~22:00", "10:00~22:00", "10:00~22:00"]}]