[{"name": "\ub298\ud478\ub978\uc57d\uad6d", "lat": "35.5201383482", "lng": "127.7316392197", "url": "/info/%EB%8A%98%ED%91%B8%EB%A5%B8%EC%95%BD%EA%B5%AD-%EA%B2%BD%EC%83%81%EB%82%A8%EB%8F%84-%ED%95%A8%EC%96%91%EA%B5%B0-%ED%95%A8%EC%96%91%EC%9D%8D/", "workingTime": ["-", "07:00~20:30", "07:00~20:30", "07:00~20:30", "07:00~20:30", "07:00~20:30", "07:00~20:30", "07:00~20:30"]}, {"name": "\ud558\uc57d\uad6d", "lat": "35.519421008876684", "lng": "127.7273325787656", "url": "/info/%ED%95%98%EC%95%BD%EA%B5%AD-%EA%B2%BD%EC%83%81%EB%82%A8%EB%8F%84-%ED%95%A8%EC%96%91%EA%B5%B0-%ED%95%A8%EC%96%91%EC%9D%8D/", "workingTime": ["-", "08:00~20:30", "08:00~20:30", "08:00~20:30", "08:00~20:30", "08:00~20:30", "08:00~17:00", "08:00~13:00"]}, {"name": "\ud589\ubcf5\uc57d\uad6d", "lat": "35.5203349479158", "lng": "127.728895078128", "url": "/info/%ED%96%89%EB%B3%B5%EC%95%BD%EA%B5%AD-%EA%B2%BD%EC%83%81%EB%82%A8%EB%8F%84-%ED%95%A8%EC%96%91%EA%B5%B0-%ED%95%A8%EC%96%91%EC%9D%8D/", "workingTime": ["2,4\uc9f8\uc8fc09:00~18:00", "08:00~18:00", "08:00~18:00", "08:00~18:00", "08:00~18:00", "08:00~18:00", "09:00~18:00", "-"]}, {"name": "\uc0ac\ub791\uc57d\uad6d", "lat": "35.518457509737324", "lng": "127.72808676227052", "url": "/info/%EC%82%AC%EB%9E%91%EC%95%BD%EA%B5%AD-%EA%B2%BD%EC%83%81%EB%82%A8%EB%8F%84-%ED%95%A8%EC%96%91%EA%B5%B0-%ED%95%A8%EC%96%91%EC%9D%8D/", "workingTime": ["-", "08:30~19:30", "08:30~19:30", "08:30~19:30", "08:30~19:30", "08:30~19:30", "08:30~16:00", "-"]}, {"name": "\uc0c8\ub3d9\uc0b0\uc57d\uad6d", "lat": "35.51998690858475", "lng": "127.73212656875253", "url": "/info/%EC%83%88%EB%8F%99%EC%82%B0%EC%95%BD%EA%B5%AD-%EA%B2%BD%EC%83%81%EB%82%A8%EB%8F%84-%ED%95%A8%EC%96%91%EA%B5%B0-%ED%95%A8%EC%96%91%EC%9D%8D/", "workingTime": ["1,2,3,4,5\uc9f8\uc8fc08:30~20:00", "08:30~20:00", "08:30~20:00", "08:30~20:00", "08:30~20:00", "08:30~20:00", "08:30~20:00", "08:30~20:00"]}, {"name": "\ud55c\ub4e4\uc57d\uad6d", "lat": "35.520557036705306", "lng": "127.72905817818685", "url": "/info/%ED%95%9C%EB%93%A4%EC%95%BD%EA%B5%AD-%EA%B2%BD%EC%83%81%EB%82%A8%EB%8F%84-%ED%95%A8%EC%96%91%EA%B5%B0-%ED%95%A8%EC%96%91%EC%9D%8D/", "workingTime": ["1,2,3,4,5\uc9f8\uc8fc09:00~21:00", "08:30~21:00", "08:30~21:00", "08:30~21:00", "08:30~21:00", "08:30~21:00", "08:30~18:30", "08:30~20:30"]}, {"name": "\ub3d9\ud574\ubb3c\uc57d\uad6d", "lat": "35.5185194066", "lng": "127.7287009569", "url": "/info/%EB%8F%99%ED%95%B4%EB%AC%BC%EC%95%BD%EA%B5%AD-%EA%B2%BD%EC%83%81%EB%82%A8%EB%8F%84-%ED%95%A8%EC%96%91%EA%B5%B0-%ED%95%A8%EC%96%91%EC%9D%8D/", "workingTime": ["-", "08:00~19:00", "08:00~19:00", "08:00~19:00", "08:00~19:00", "08:00~19:00", "08:00~14:00", "-"]}, {"name": "\uc131\uc2e4\uc57d\uad6d", "lat": "35.51840489783996", "lng": "127.72795912439065", "url": "/info/%EC%84%B1%EC%8B%A4%EC%95%BD%EA%B5%AD-%EA%B2%BD%EC%83%81%EB%82%A8%EB%8F%84-%ED%95%A8%EC%96%91%EA%B5%B0-%ED%95%A8%EC%96%91%EC%9D%8D/", "workingTime": ["-", "08:30~19:00", "08:30~19:00", "08:30~19:00", "08:30~19:00", "08:30~19:00", "08:30~13:30", "-"]}, {"name": "\ud568\uc591\uc57d\uad6d", "lat": "35.5186345159995", "lng": "127.727204932452", "url": "/info/%ED%95%A8%EC%96%91%EC%95%BD%EA%B5%AD-%EA%B2%BD%EC%83%81%EB%82%A8%EB%8F%84-%ED%95%A8%EC%96%91%EA%B5%B0-%ED%95%A8%EC%96%91%EC%9D%8D/", "workingTime": ["-", "08:30~20:00", "08:30~20:00", "08:30~20:00", "08:30~20:00", "08:30~20:00", "08:30~13:30", "-"]}, {"name": "\uc815\ubcf4\uc57d\uad6d", "lat": "35.52038829457112", "lng": "127.72786677452932", "url": "/info/%EC%A0%95%EB%B3%B4%EC%95%BD%EA%B5%AD-%EA%B2%BD%EC%83%81%EB%82%A8%EB%8F%84-%ED%95%A8%EC%96%91%EA%B5%B0-%ED%95%A8%EC%96%91%EC%9D%8D/", "workingTime": ["-", "08:30~18:00", "08:30~18:00", "08:30~18:00", "08:30~18:00", "08:30~18:00", "08:30~13:00", "-"]}, {"name": "\ubbf8\ub798\uc628\ub204\ub9ac\uc57d\uad6d", "lat": "35.518960007147854", "lng": "127.72603159818587", "url": "/info/%EB%AF%B8%EB%9E%98%EC%98%A8%EB%88%84%EB%A6%AC%EC%95%BD%EA%B5%AD-%EA%B2%BD%EC%83%81%EB%82%A8%EB%8F%84-%ED%95%A8%EC%96%91%EA%B5%B0-%ED%95%A8%EC%96%91%EC%9D%8D/", "workingTime": ["-", "08:30~18:00", "08:30~18:00", "08:30~18:00", "08:30~18:00", "08:30~18:00", "08:30~13:00", "-"]}, {"name": "\ud3c9\ud654\uc57d\uad6d", "lat": "35.51972089972679", "lng": "127.73210728242173", "url": "/info/%ED%8F%89%ED%99%94%EC%95%BD%EA%B5%AD-%EA%B2%BD%EC%83%81%EB%82%A8%EB%8F%84-%ED%95%A8%EC%96%91%EA%B5%B0-%ED%95%A8%EC%96%91%EC%9D%8D/", "workingTime": ["-", "08:30~19:00", "08:30~19:00", "08:30~19:00", "08:30~19:00", "08:30~19:00", "08:30~13:00", "08:30~13:00"]}, {"name": "\uc81c\uc77c\uc57d\uad6d", "lat": "35.518691914429276", "lng": "127.72747594115847", "url": "/info/%EC%A0%9C%EC%9D%BC%EC%95%BD%EA%B5%AD-%EA%B2%BD%EC%83%81%EB%82%A8%EB%8F%84-%ED%95%A8%EC%96%91%EA%B5%B0-%ED%95%A8%EC%96%91%EC%9D%8D/", "workingTime": ["-", "09:00~18:00", "09:00~18:00", "09:00~18:00", "09:00~18:00", "09:00~18:00", "09:00~13:00", "-"]}, {"name": "\ud30c\ub780\uc57d\uad6d", "lat": "35.52143330317236", "lng": "127.73140765989828", "url": "/info/%ED%8C%8C%EB%9E%80%EC%95%BD%EA%B5%AD-%EA%B2%BD%EC%83%81%EB%82%A8%EB%8F%84-%ED%95%A8%EC%96%91%EA%B5%B0-%ED%95%A8%EC%96%91%EC%9D%8D/", "workingTime": ["-", "08:30~18:30", "08:30~18:30", "08:30~18:30", "08:30~18:30", "08:30~18:30", "08:30~13:30", "08:30~13:30"]}, {"name": "\uc0bc\uc131\uc57d\uad6d", "lat": "35.52127044887152", "lng": "127.72972166700575", "url": "/info/%EC%82%BC%EC%84%B1%EC%95%BD%EA%B5%AD-%EA%B2%BD%EC%83%81%EB%82%A8%EB%8F%84-%ED%95%A8%EC%96%91%EA%B5%B0-%ED%95%A8%EC%96%91%EC%9D%8D/", "workingTime": ["-", "08:30~18:00", "08:30~18:00", "08:30~18:00", "08:30~18:00", "08:30~18:00", "08:30~13:00", "08:30~13:00"]}]