[{"name": "\uad11\uc57d\uad6d", "lat": "36.411063805051", "lng": "129.36981932171", "url": "/info/%EA%B4%91%EC%95%BD%EA%B5%AD-%EA%B2%BD%EC%83%81%EB%B6%81%EB%8F%84-%EC%98%81%EB%8D%95%EA%B5%B0-%EC%98%81%EB%8D%95%EC%9D%8D/", "workingTime": ["-", "09:00~18:00", "09:00~18:00", "09:00~18:00", "09:00~18:00", "09:00~18:00", "09:00~13:00", "-"]}, {"name": "\ud070\uc0ac\ub791\uc57d\uad6d", "lat": "36.41105441327841", "lng": "129.368399784741", "url": "/info/%ED%81%B0%EC%82%AC%EB%9E%91%EC%95%BD%EA%B5%AD-%EA%B2%BD%EC%83%81%EB%B6%81%EB%8F%84-%EC%98%81%EB%8D%95%EA%B5%B0-%EC%98%81%EB%8D%95%EC%9D%8D/", "workingTime": ["-", "08:30~19:00", "08:30~19:00", "08:30~19:00", "08:30~19:00", "08:30~19:00", "08:30~14:00", "-"]}, {"name": "\ub300\uad6c\uc57d\uad6d", "lat": "36.41174035528596", "lng": "129.3679747653825", "url": "/info/%EB%8C%80%EA%B5%AC%EC%95%BD%EA%B5%AD-%EA%B2%BD%EC%83%81%EB%B6%81%EB%8F%84-%EC%98%81%EB%8D%95%EA%B5%B0-%EC%98%81%EB%8D%95%EC%9D%8D/", "workingTime": ["-", "08:00~18:00", "08:00~18:00", "08:00~18:00", "08:00~18:00", "08:00~18:00", "08:00~14:00", "-"]}, {"name": "\uc601\ub355\uc885\ud569\uc57d\uad6d", "lat": "36.41167806141986", "lng": "129.37002379943877", "url": "/info/%EC%98%81%EB%8D%95%EC%A2%85%ED%95%A9%EC%95%BD%EA%B5%AD-%EA%B2%BD%EC%83%81%EB%B6%81%EB%8F%84-%EC%98%81%EB%8D%95%EA%B5%B0-%EC%98%81%EB%8D%95%EC%9D%8D/", "workingTime": ["-", "08:30~18:30", "08:30~18:30", "08:30~18:30", "08:30~18:30", "08:30~18:30", "08:30~14:00", "-"]}, {"name": "\uc81c\uc77c\uc57d\uad6d", "lat": "36.41135242028985", "lng": "129.36809228152555", "url": "/info/%EC%A0%9C%EC%9D%BC%EC%95%BD%EA%B5%AD-%EA%B2%BD%EC%83%81%EB%B6%81%EB%8F%84-%EC%98%81%EB%8D%95%EA%B5%B0-%EC%98%81%EB%8D%95%EC%9D%8D/", "workingTime": ["-", "08:30~19:00", "08:30~19:00", "08:30~19:00", "08:30~19:00", "08:30~19:00", "08:30~15:00", "-"]}, {"name": "\uc5f0\ud569\uc57d\uad6d", "lat": "36.41191453504697", "lng": "129.36809597723064", "url": "/info/%EC%97%B0%ED%95%A9%EC%95%BD%EA%B5%AD-%EA%B2%BD%EC%83%81%EB%B6%81%EB%8F%84-%EC%98%81%EB%8D%95%EA%B5%B0-%EC%98%81%EB%8D%95%EC%9D%8D/", "workingTime": ["-", "09:00~18:30", "09:00~18:30", "09:00~18:30", "09:00~18:30", "09:00~18:30", "09:00~13:00", "-"]}, {"name": "\uc218\uc815\uc57d\uad6d", "lat": "36.410627369", "lng": "129.3699428217", "url": "/info/%EC%88%98%EC%A0%95%EC%95%BD%EA%B5%AD-%EA%B2%BD%EC%83%81%EB%B6%81%EB%8F%84-%EC%98%81%EB%8D%95%EA%B5%B0-%EC%98%81%EB%8D%95%EC%9D%8D/", "workingTime": ["-", "09:00~18:00", "09:00~18:00", "09:00~18:00", "09:00~18:00", "09:00~18:00", "09:00~13:00", "-"]}, {"name": "\ucc38\uc57d\uad6d", "lat": "36.4112346463", "lng": "129.3685791409", "url": "/info/%EC%B0%B8%EC%95%BD%EA%B5%AD-%EA%B2%BD%EC%83%81%EB%B6%81%EB%8F%84-%EC%98%81%EB%8D%95%EA%B5%B0-%EC%98%81%EB%8D%95%EC%9D%8D/", "workingTime": ["-", "07:30~18:00", "07:30~18:00", "07:30~18:00", "07:30~18:00", "07:30~18:00", "07:30~13:00", "-"]}, {"name": "\uc8fc\uc57d\uad6d", "lat": "36.41099267034408", "lng": "129.37023926778366", "url": "/info/%EC%A3%BC%EC%95%BD%EA%B5%AD-%EA%B2%BD%EC%83%81%EB%B6%81%EB%8F%84-%EC%98%81%EB%8D%95%EA%B5%B0-%EC%98%81%EB%8D%95%EC%9D%8D/", "workingTime": ["-", "09:00~18:00", "09:00~18:00", "09:00~18:00", "09:00~18:00", "09:00~18:00", "09:00~12:30", "-"]}]