[{"name": "\ud2bc\ud2bc\uc57d\uad6d", "lat": "35.41424687987399", "lng": "129.17000851431132", "url": "/info/%ED%8A%BC%ED%8A%BC%EC%95%BD%EA%B5%AD-%EA%B2%BD%EC%83%81%EB%82%A8%EB%8F%84-%EC%96%91%EC%82%B0%EC%8B%9C-%EC%82%BC%ED%98%B8%EB%8F%99/", "workingTime": ["1,2,3,4,5\uc9f8\uc8fc09:00~21:00", "09:00~21:00", "09:00~21:00", "09:00~21:00", "09:00~21:00", "09:00~21:00", "09:00~21:00", "09:00~21:00"]}, {"name": "\uc194\uc57d\uad6d", "lat": "35.41436213248085", "lng": "129.1707932574717", "url": "/info/%EC%86%94%EC%95%BD%EA%B5%AD-%EA%B2%BD%EC%83%81%EB%82%A8%EB%8F%84-%EC%96%91%EC%82%B0%EC%8B%9C-%EC%82%BC%ED%98%B8%EB%8F%99/", "workingTime": ["1,2,3,4,5\uc9f8\uc8fc11:00~19:00", "09:00~21:00", "09:00~21:00", "09:00~21:00", "09:00~21:00", "09:00~21:00", "09:00~20:00", "09:00~17:00"]}, {"name": "\ub3d9\uba85\ub2f9\uc57d\uad6d", "lat": "35.4160672505452", "lng": "129.172329662889", "url": "/info/%EB%8F%99%EB%AA%85%EB%8B%B9%EC%95%BD%EA%B5%AD-%EA%B2%BD%EC%83%81%EB%82%A8%EB%8F%84-%EC%96%91%EC%82%B0%EC%8B%9C-%EC%82%BC%ED%98%B8%EB%8F%99/", "workingTime": ["-", "09:00~20:00", "09:00~20:00", "09:00~20:00", "09:00~20:00", "09:00~20:00", "09:00~18:00", "09:00~18:00"]}, {"name": "\uce5c\uc808\ud55c\uc57d\uad6d", "lat": "35.41698349651763", "lng": "129.17356913689213", "url": "/info/%EC%B9%9C%EC%A0%88%ED%95%9C%EC%95%BD%EA%B5%AD-%EA%B2%BD%EC%83%81%EB%82%A8%EB%8F%84-%EC%96%91%EC%82%B0%EC%8B%9C-%EC%82%BC%ED%98%B8%EB%8F%99/", "workingTime": ["-", "09:00~20:00", "09:00~20:00", "09:00~20:00", "09:00~20:00", "09:00~20:00", "09:00~19:00", "09:00~19:00"]}, {"name": "\ubd80\ubd80\uc57d\uad6d", "lat": "35.41577196552227", "lng": "129.1723918158666", "url": "/info/%EB%B6%80%EB%B6%80%EC%95%BD%EA%B5%AD-%EA%B2%BD%EC%83%81%EB%82%A8%EB%8F%84-%EC%96%91%EC%82%B0%EC%8B%9C-%EC%82%BC%ED%98%B8%EB%8F%99/", "workingTime": ["-", "09:00~19:00", "09:00~19:00", "09:00~19:00", "09:00~19:00", "09:00~19:00", "09:00~17:00", "-"]}, {"name": "\uc6b0\ub9ac\ub124\uc57d\uad6d", "lat": "35.41585324000894", "lng": "129.17208137982385", "url": "/info/%EC%9A%B0%EB%A6%AC%EB%84%A4%EC%95%BD%EA%B5%AD-%EA%B2%BD%EC%83%81%EB%82%A8%EB%8F%84-%EC%96%91%EC%82%B0%EC%8B%9C-%EC%82%BC%ED%98%B8%EB%8F%99/", "workingTime": ["-", "09:00~20:00", "09:00~20:00", "09:00~20:00", "09:00~20:00", "09:00~20:00", "09:00~17:00", "-"]}, {"name": "\uc5f4\ub9b0\uc57d\uad6d", "lat": "35.414033779839784", "lng": "129.1704342926044", "url": "/info/%EC%97%B4%EB%A6%B0%EC%95%BD%EA%B5%AD-%EA%B2%BD%EC%83%81%EB%82%A8%EB%8F%84-%EC%96%91%EC%82%B0%EC%8B%9C-%EC%82%BC%ED%98%B8%EB%8F%99/", "workingTime": ["-", "09:00~22:00", "09:00~22:00", "09:00~22:00", "09:00~22:00", "09:00~22:00", "09:00~17:00", "-"]}, {"name": "\uc0c8\uc815\ub2e4\uc6b4\uc57d\uad6d", "lat": "35.41418904522732", "lng": "129.17021830659894", "url": "/info/%EC%83%88%EC%A0%95%EB%8B%A4%EC%9A%B4%EC%95%BD%EA%B5%AD-%EA%B2%BD%EC%83%81%EB%82%A8%EB%8F%84-%EC%96%91%EC%82%B0%EC%8B%9C-%EC%82%BC%ED%98%B8%EB%8F%99/", "workingTime": ["-", "09:00~20:00", "09:00~20:00", "09:00~20:00", "09:00~20:00", "09:00~20:00", "09:00~16:30", "-"]}, {"name": "\uadf8\ub9b0\uc57d\uad6d", "lat": "35.4126355281", "lng": "129.166986833", "url": "/info/%EA%B7%B8%EB%A6%B0%EC%95%BD%EA%B5%AD-%EA%B2%BD%EC%83%81%EB%82%A8%EB%8F%84-%EC%96%91%EC%82%B0%EC%8B%9C-%EC%82%BC%ED%98%B8%EB%8F%99/", "workingTime": ["-", "10:00~22:00", "10:00~22:00", "10:00~22:00", "10:00~22:00", "10:00~22:00", "10:00~22:00", "10:00~22:00"]}, {"name": "\ud574\ub728\ub294\uc57d\uad6d", "lat": "35.41743875069144", "lng": "129.17408570863182", "url": "/info/%ED%95%B4%EB%9C%A8%EB%8A%94%EC%95%BD%EA%B5%AD-%EA%B2%BD%EC%83%81%EB%82%A8%EB%8F%84-%EC%96%91%EC%82%B0%EC%8B%9C-%EC%82%BC%ED%98%B8%EB%8F%99/", "workingTime": ["-", "09:00~19:00", "09:00~19:00", "09:00~19:00", "09:00~19:00", "09:00~19:00", "09:00~14:00", "-"]}, {"name": "\ube44\ud0c0\uc57d\uad6d", "lat": "35.40752413075005", "lng": "129.17164222920232", "url": "/info/%EB%B9%84%ED%83%80%EC%95%BD%EA%B5%AD-%EA%B2%BD%EC%83%81%EB%82%A8%EB%8F%84-%EC%96%91%EC%82%B0%EC%8B%9C-%EC%82%BC%ED%98%B8%EB%8F%99/", "workingTime": ["-", "08:30~19:30", "08:30~19:30", "08:30~19:30", "08:30~19:30", "08:30~19:30", "08:30~16:30", "-"]}, {"name": "\uc138\uba85\uc57d\uad6d", "lat": "35.41595808761014", "lng": "129.17264134727634", "url": "/info/%EC%84%B8%EB%AA%85%EC%95%BD%EA%B5%AD-%EA%B2%BD%EC%83%81%EB%82%A8%EB%8F%84-%EC%96%91%EC%82%B0%EC%8B%9C-%EC%82%BC%ED%98%B8%EB%8F%99/", "workingTime": ["1,2,3,4,5\uc9f8\uc8fc09:00~13:00", "09:00~20:00", "09:00~20:00", "09:00~20:00", "09:00~20:00", "09:00~20:00", "09:00~15:00", "09:00~15:00"]}, {"name": "\uba54\ub514\ud31c\ub300\uc601\ub2f9\uc57d\uad6d", "lat": "35.414605235469196", "lng": "129.17112767251902", "url": "/info/%EB%A9%94%EB%94%94%ED%8C%9C%EB%8C%80%EC%98%81%EB%8B%B9%EC%95%BD%EA%B5%AD-%EA%B2%BD%EC%83%81%EB%82%A8%EB%8F%84-%EC%96%91%EC%82%B0%EC%8B%9C-%EC%82%BC%ED%98%B8%EB%8F%99/", "workingTime": ["1,3\uc9f8\uc8fc09:00~13:00", "09:00~19:00", "09:00~19:00", "09:00~19:00", "09:00~19:00", "09:00~19:00", "09:00~16:00", "-"]}, {"name": "\uc2a4\ub9c8\uc77c\uc57d\uad6d", "lat": "", "lng": "", "url": "/info/%EC%8A%A4%EB%A7%88%EC%9D%BC%EC%95%BD%EA%B5%AD-%EA%B2%BD%EC%83%81%EB%82%A8%EB%8F%84-%EC%96%91%EC%82%B0%EC%8B%9C-%EC%82%BC%ED%98%B8%EB%8F%99/", "workingTime": ["-", "-", "-", "-", "-", "-", "-", "-"]}]