[{"name": "\uae30\ub9b0\uc57d\uad6d", "lat": "36.08047518266224", "lng": "128.41107155546916", "url": "/info/%EA%B8%B0%EB%A6%B0%EC%95%BD%EA%B5%AD-%EA%B2%BD%EC%83%81%EB%B6%81%EB%8F%84-%EC%B9%A0%EA%B3%A1%EA%B5%B0-%EC%84%9D%EC%A0%81%EC%9D%8D/", "workingTime": ["-", "09:00~18:30", "09:00~18:30", "09:00~18:30", "09:00~18:30", "09:00~18:30", "09:00~14:00", "09:00~14:00"]}, {"name": "\uc6b0\ub9ac\uc628\ub204\ub9ac\uc57d\uad6d", "lat": "36.0683605894631", "lng": "128.404378788653", "url": "/info/%EC%9A%B0%EB%A6%AC%EC%98%A8%EB%88%84%EB%A6%AC%EC%95%BD%EA%B5%AD-%EA%B2%BD%EC%83%81%EB%B6%81%EB%8F%84-%EC%B9%A0%EA%B3%A1%EA%B5%B0-%EC%84%9D%EC%A0%81%EC%9D%8D/", "workingTime": ["-", "09:00~19:00", "09:00~19:00", "09:00~19:00", "09:00~19:00", "09:00~19:00", "09:00~14:00", "-"]}, {"name": "\ud478\ub978\uc628\ub204\ub9ac\uc57d\uad6d", "lat": "36.0791707678765", "lng": "128.411899359002", "url": "/info/%ED%91%B8%EB%A5%B8%EC%98%A8%EB%88%84%EB%A6%AC%EC%95%BD%EA%B5%AD-%EA%B2%BD%EC%83%81%EB%B6%81%EB%8F%84-%EC%B9%A0%EA%B3%A1%EA%B5%B0-%EC%84%9D%EC%A0%81%EC%9D%8D/", "workingTime": ["-", "08:30~20:00", "08:30~20:00", "08:30~20:00", "08:30~20:00", "08:30~20:00", "09:00~15:00", "-"]}, {"name": "\uc548\uc2ec\uc57d\uad6d", "lat": "36.0755367729465", "lng": "128.392846857176", "url": "/info/%EC%95%88%EC%8B%AC%EC%95%BD%EA%B5%AD-%EA%B2%BD%EC%83%81%EB%B6%81%EB%8F%84-%EC%B9%A0%EA%B3%A1%EA%B5%B0-%EC%84%9D%EC%A0%81%EC%9D%8D/", "workingTime": ["-", "09:00~18:30", "09:00~18:30", "09:00~18:30", "09:00~18:30", "09:00~18:30", "09:00~14:00", "-"]}, {"name": "\uc870\uc544\uc57d\uad6d", "lat": "36.072671870412066", "lng": "128.394086610271", "url": "/info/%EC%A1%B0%EC%95%84%EC%95%BD%EA%B5%AD-%EA%B2%BD%EC%83%81%EB%B6%81%EB%8F%84-%EC%B9%A0%EA%B3%A1%EA%B5%B0-%EC%84%9D%EC%A0%81%EC%9D%8D/", "workingTime": ["-", "09:00~18:30", "09:00~18:30", "09:00~18:30", "09:00~18:30", "09:00~18:30", "09:00~14:00", "09:00~14:00"]}, {"name": "\uc11d\uc801\uacbd\ubd81\uc57d\uad6d", "lat": "36.08011319866738", "lng": "128.41281671259716", "url": "/info/%EC%84%9D%EC%A0%81%EA%B2%BD%EB%B6%81%EC%95%BD%EA%B5%AD-%EA%B2%BD%EC%83%81%EB%B6%81%EB%8F%84-%EC%B9%A0%EA%B3%A1%EA%B5%B0-%EC%84%9D%EC%A0%81%EC%9D%8D/", "workingTime": ["-", "09:00~20:00", "09:00~20:00", "09:00~20:00", "09:00~20:00", "09:00~20:00", "09:00~16:00", "09:00~16:00"]}, {"name": "\uad7f\ub370\uc774\uc57d\uad6d", "lat": "36.07935223846323", "lng": "128.41132002374013", "url": "/info/%EA%B5%BF%EB%8D%B0%EC%9D%B4%EC%95%BD%EA%B5%AD-%EA%B2%BD%EC%83%81%EB%B6%81%EB%8F%84-%EC%B9%A0%EA%B3%A1%EA%B5%B0-%EC%84%9D%EC%A0%81%EC%9D%8D/", "workingTime": ["-", "09:00~18:00", "09:00~18:00", "09:00~18:00", "09:00~18:00", "09:00~18:00", "10:00~17:00", "-"]}, {"name": "\uc0c8\ubd04\uc57d\uad6d", "lat": "36.07801919798761", "lng": "128.40973323570972", "url": "/info/%EC%83%88%EB%B4%84%EC%95%BD%EA%B5%AD-%EA%B2%BD%EC%83%81%EB%B6%81%EB%8F%84-%EC%B9%A0%EA%B3%A1%EA%B5%B0-%EC%84%9D%EC%A0%81%EC%9D%8D/", "workingTime": ["-", "09:00~20:30", "09:00~20:30", "09:00~20:30", "09:00~20:30", "09:00~20:30", "09:00~14:00", "-"]}, {"name": "\ud070\uae38\uc57d\uad6d", "lat": "36.0762147753", "lng": "128.3944288864", "url": "/info/%ED%81%B0%EA%B8%B8%EC%95%BD%EA%B5%AD-%EA%B2%BD%EC%83%81%EB%B6%81%EB%8F%84-%EC%B9%A0%EA%B3%A1%EA%B5%B0-%EC%84%9D%EC%A0%81%EC%9D%8D/", "workingTime": ["-", "09:00~19:00", "09:00~19:00", "09:00~19:00", "09:00~19:00", "09:00~19:00", "09:00~14:00", "-"]}, {"name": "\ub4e4\uaf43\uc57d\uad6d", "lat": "36.0755484364466", "lng": "128.394261602417", "url": "/info/%EB%93%A4%EA%BD%83%EC%95%BD%EA%B5%AD-%EA%B2%BD%EC%83%81%EB%B6%81%EB%8F%84-%EC%B9%A0%EA%B3%A1%EA%B5%B0-%EC%84%9D%EC%A0%81%EC%9D%8D/", "workingTime": ["-", "08:30~19:00", "08:30~19:00", "08:30~19:00", "08:30~19:00", "08:30~19:00", "08:30~13:00", "-"]}, {"name": "\uc0ac\ub791\uc774\uac00\ub4dd\ud55c\uc57d\uad6d", "lat": "36.074687765387786", "lng": "128.39314323438504", "url": "/info/%EC%82%AC%EB%9E%91%EC%9D%B4%EA%B0%80%EB%93%9D%ED%95%9C%EC%95%BD%EA%B5%AD-%EA%B2%BD%EC%83%81%EB%B6%81%EB%8F%84-%EC%B9%A0%EA%B3%A1%EA%B5%B0-%EC%84%9D%EC%A0%81%EC%9D%8D/", "workingTime": ["-", "09:00~19:00", "09:00~19:00", "09:00~19:00", "09:00~19:00", "09:00~19:00", "09:00~13:00", "-"]}]