[{"name": "\ud55c\uc194\uc57d\uad6d", "lat": "35.381555536326516", "lng": "129.15101326892002", "url": "/info/%ED%95%9C%EC%86%94%EC%95%BD%EA%B5%AD-%EA%B2%BD%EC%83%81%EB%82%A8%EB%8F%84-%EC%96%91%EC%82%B0%EC%8B%9C-%ED%8F%89%EC%82%B0%EB%8F%99/", "workingTime": ["-", "09:00~21:00", "09:00~21:00", "09:00~21:00", "09:00~21:00", "09:00~21:00", "09:00~21:00", "-"]}, {"name": "\uac74\uac15\uc57d\uad6d", "lat": "35.38664447256666", "lng": "129.14374061818953", "url": "/info/%EA%B1%B4%EA%B0%95%EC%95%BD%EA%B5%AD-%EA%B2%BD%EC%83%81%EB%82%A8%EB%8F%84-%EC%96%91%EC%82%B0%EC%8B%9C-%ED%8F%89%EC%82%B0%EB%8F%99/", "workingTime": ["-", "08:30~20:00", "08:30~20:00", "08:30~20:00", "08:30~20:00", "08:30~20:00", "08:30~16:00", "-"]}, {"name": "\ud558\ub098\uc57d\uad6d", "lat": "35.3813010842", "lng": "129.1537456266", "url": "/info/%ED%95%98%EB%82%98%EC%95%BD%EA%B5%AD-%EA%B2%BD%EC%83%81%EB%82%A8%EB%8F%84-%EC%96%91%EC%82%B0%EC%8B%9C-%ED%8F%89%EC%82%B0%EB%8F%99/", "workingTime": ["-", "09:00~18:30", "09:00~18:30", "09:00~18:30", "09:00~18:30", "09:00~18:30", "-", "-"]}, {"name": "\ud0d1\uc57d\uad6d", "lat": "35.3813022276222", "lng": "129.153747197401", "url": "/info/%ED%83%91%EC%95%BD%EA%B5%AD-%EA%B2%BD%EC%83%81%EB%82%A8%EB%8F%84-%EC%96%91%EC%82%B0%EC%8B%9C-%ED%8F%89%EC%82%B0%EB%8F%99/", "workingTime": ["-", "10:00~18:00", "10:00~18:00", "10:00~18:00", "10:00~18:00", "10:00~18:00", "10:00~13:00", "-"]}, {"name": "\ubbf8\ub798\uc57d\uad6d", "lat": "35.3813219379", "lng": "129.1529803695", "url": "/info/%EB%AF%B8%EB%9E%98%EC%95%BD%EA%B5%AD-%EA%B2%BD%EC%83%81%EB%82%A8%EB%8F%84-%EC%96%91%EC%82%B0%EC%8B%9C-%ED%8F%89%EC%82%B0%EB%8F%99/", "workingTime": ["-", "09:00~18:00", "09:00~18:00", "09:00~18:00", "09:00~18:00", "09:00~18:00", "-", "-"]}, {"name": "\uc0ac\ub791\uc778\uc57d\uad6d", "lat": "35.38173510831728", "lng": "129.15388322594498", "url": "/info/%EC%82%AC%EB%9E%91%EC%9D%B8%EC%95%BD%EA%B5%AD-%EA%B2%BD%EC%83%81%EB%82%A8%EB%8F%84-%EC%96%91%EC%82%B0%EC%8B%9C-%ED%8F%89%EC%82%B0%EB%8F%99/", "workingTime": ["-", "09:00~18:00", "09:00~18:00", "09:00~18:00", "09:00~18:00", "09:00~18:00", "-", "-"]}]