[{"name": "\ud55c\uc0ac\ub791\uc57d\uad6d", "lat": "35.82315538379705", "lng": "128.72234174771194", "url": "/info/%ED%95%9C%EC%82%AC%EB%9E%91%EC%95%BD%EA%B5%AD-%EA%B2%BD%EC%83%81%EB%B6%81%EB%8F%84-%EA%B2%BD%EC%82%B0%EC%8B%9C-%EC%98%A5%EC%82%B0%EB%8F%99/", "workingTime": ["1,2,3,4,5\uc9f8\uc8fc09:00~13:00", "09:00~19:30", "09:00~19:30", "09:00~19:30", "09:00~19:30", "09:00~19:30", "09:00~16:00", "09:00~13:00"]}, {"name": "\uc720\ub9bc\uc57d\uad6d", "lat": "35.827631108650195", "lng": "128.72650053801243", "url": "/info/%EC%9C%A0%EB%A6%BC%EC%95%BD%EA%B5%AD-%EA%B2%BD%EC%83%81%EB%B6%81%EB%8F%84-%EA%B2%BD%EC%82%B0%EC%8B%9C-%EC%98%A5%EC%82%B0%EB%8F%99/", "workingTime": ["-", "09:00~20:30", "09:00~20:30", "09:00~20:30", "09:00~20:30", "09:00~20:30", "09:00~20:00", "-"]}, {"name": "\uc778\uacfc\uc6d0\uc57d\uad6d", "lat": "35.822763891702635", "lng": "128.72226667336204", "url": "/info/%EC%9D%B8%EA%B3%BC%EC%9B%90%EC%95%BD%EA%B5%AD-%EA%B2%BD%EC%83%81%EB%B6%81%EB%8F%84-%EA%B2%BD%EC%82%B0%EC%8B%9C-%EC%98%A5%EC%82%B0%EB%8F%99/", "workingTime": ["-", "09:00~20:00", "09:00~20:00", "09:00~20:00", "09:00~20:00", "09:00~20:00", "09:00~19:00", "-"]}, {"name": "\uba85\ubcf4\uc628\ub204\ub9ac\uc57d\uad6d", "lat": "35.82297035784812", "lng": "128.72173470821852", "url": "/info/%EB%AA%85%EB%B3%B4%EC%98%A8%EB%88%84%EB%A6%AC%EC%95%BD%EA%B5%AD-%EA%B2%BD%EC%83%81%EB%B6%81%EB%8F%84-%EA%B2%BD%EC%82%B0%EC%8B%9C-%EC%98%A5%EC%82%B0%EB%8F%99/", "workingTime": ["-", "08:30~18:30", "08:30~18:30", "08:30~18:30", "08:30~18:30", "08:30~18:30", "08:30~16:00", "-"]}, {"name": "\ub2e4\uc628\uc57d\uad6d", "lat": "35.8223473464245", "lng": "128.719806965845", "url": "/info/%EB%8B%A4%EC%98%A8%EC%95%BD%EA%B5%AD-%EA%B2%BD%EC%83%81%EB%B6%81%EB%8F%84-%EA%B2%BD%EC%82%B0%EC%8B%9C-%EC%98%A5%EC%82%B0%EB%8F%99/", "workingTime": ["-", "09:00~19:00", "09:00~19:00", "09:00~19:00", "09:00~19:00", "09:00~19:00", "09:00~14:00", "-"]}]