[{"name": "\uc815\ubb38\uc784\uc57d\uad6d", "lat": "36.8267419258", "lng": "128.6250334775", "url": "/info/%EC%A0%95%EB%AC%B8%EC%9E%84%EC%95%BD%EA%B5%AD-%EA%B2%BD%EC%83%81%EB%B6%81%EB%8F%84-%EC%98%81%EC%A3%BC%EC%8B%9C-%EC%98%81%EC%A3%BC%EB%8F%99/", "workingTime": ["-", "09:30~17:30", "09:30~17:30", "09:30~17:30", "09:30~17:30", "09:30~17:30", "09:00~13:00", "-"]}, {"name": "\uc601\uc8fc\uc57d\uad6d", "lat": "36.8235137284787", "lng": "128.62495849250408", "url": "/info/%EC%98%81%EC%A3%BC%EC%95%BD%EA%B5%AD-%EA%B2%BD%EC%83%81%EB%B6%81%EB%8F%84-%EC%98%81%EC%A3%BC%EC%8B%9C-%EC%98%81%EC%A3%BC%EB%8F%99/", "workingTime": ["-", "08:30~19:00", "08:30~19:00", "08:30~19:00", "08:30~19:00", "08:30~19:00", "08:30~14:00", "-"]}, {"name": "\uacbd\ubd81\uc57d\uad6d", "lat": "36.82344790342363", "lng": "128.62304961099295", "url": "/info/%EA%B2%BD%EB%B6%81%EC%95%BD%EA%B5%AD-%EA%B2%BD%EC%83%81%EB%B6%81%EB%8F%84-%EC%98%81%EC%A3%BC%EC%8B%9C-%EC%98%81%EC%A3%BC%EB%8F%99/", "workingTime": ["-", "08:30~18:30", "08:30~18:30", "08:30~18:30", "08:30~18:30", "08:30~18:30", "08:30~14:30", "09:00~15:00"]}, {"name": "\ub3d9\uc0b0\uc57d\uad6d", "lat": "36.8231369812", "lng": "128.6235182134", "url": "/info/%EB%8F%99%EC%82%B0%EC%95%BD%EA%B5%AD-%EA%B2%BD%EC%83%81%EB%B6%81%EB%8F%84-%EC%98%81%EC%A3%BC%EC%8B%9C-%EC%98%81%EC%A3%BC%EB%8F%99/", "workingTime": ["-", "09:00~18:30", "09:00~18:30", "09:00~18:30", "09:00~18:30", "09:00~18:30", "09:00~13:00", "-"]}, {"name": "365\uc57d\uad6d", "lat": "36.8247467145", "lng": "128.6209700131", "url": "/info/365%EC%95%BD%EA%B5%AD-%EA%B2%BD%EC%83%81%EB%B6%81%EB%8F%84-%EC%98%81%EC%A3%BC%EC%8B%9C-%EC%98%81%EC%A3%BC%EB%8F%99/", "workingTime": ["-", "09:00~21:00", "09:00~21:00", "09:00~21:00", "09:00~21:00", "09:00~21:00", "09:00~18:00", "-"]}, {"name": "\uc18c\ubc31\uc0b0\uc57d\uad6d", "lat": "36.82444879780877", "lng": "128.6213303418479", "url": "/info/%EC%86%8C%EB%B0%B1%EC%82%B0%EC%95%BD%EA%B5%AD-%EA%B2%BD%EC%83%81%EB%B6%81%EB%8F%84-%EC%98%81%EC%A3%BC%EC%8B%9C-%EC%98%81%EC%A3%BC%EB%8F%99/", "workingTime": ["-", "08:30~22:00", "08:30~22:00", "08:30~22:00", "08:30~22:00", "08:30~22:00", "08:30~22:00", "09:00~21:00"]}, {"name": "\ubcf4\uac74\uc57d\uad6d", "lat": "36.823367657486564", "lng": "128.6226479379164", "url": "/info/%EB%B3%B4%EA%B1%B4%EC%95%BD%EA%B5%AD-%EA%B2%BD%EC%83%81%EB%B6%81%EB%8F%84-%EC%98%81%EC%A3%BC%EC%8B%9C-%EC%98%81%EC%A3%BC%EB%8F%99/", "workingTime": ["-", "08:10~21:00", "08:10~21:00", "08:10~21:00", "08:10~21:00", "08:10~21:00", "08:10~21:00", "-"]}, {"name": "\uc7a5\ucd98\ub2f9\uc57d\uad6d", "lat": "36.823937315339386", "lng": "128.62514789043462", "url": "/info/%EC%9E%A5%EC%B6%98%EB%8B%B9%EC%95%BD%EA%B5%AD-%EA%B2%BD%EC%83%81%EB%B6%81%EB%8F%84-%EC%98%81%EC%A3%BC%EC%8B%9C-%EC%98%81%EC%A3%BC%EB%8F%99/", "workingTime": ["1,2,3,4,5\uc9f8\uc8fc08:30~23:00", "08:30~23:00", "08:30~23:00", "08:30~23:00", "08:30~23:00", "08:30~23:00", "08:30~23:00", "08:30~23:00"]}, {"name": "\uc720\ud55c\uc57d\uad6d", "lat": "36.82261615149288", "lng": "128.62357796585982", "url": "/info/%EC%9C%A0%ED%95%9C%EC%95%BD%EA%B5%AD-%EA%B2%BD%EC%83%81%EB%B6%81%EB%8F%84-%EC%98%81%EC%A3%BC%EC%8B%9C-%EC%98%81%EC%A3%BC%EB%8F%99/", "workingTime": ["-", "08:30~19:30", "08:30~19:30", "08:30~19:30", "08:30~19:30", "08:30~19:30", "08:30~13:00", "-"]}, {"name": "\ud55c\uc194\uc57d\uad6d", "lat": "36.82180706448451", "lng": "128.6239733052207", "url": "/info/%ED%95%9C%EC%86%94%EC%95%BD%EA%B5%AD-%EA%B2%BD%EC%83%81%EB%B6%81%EB%8F%84-%EC%98%81%EC%A3%BC%EC%8B%9C-%EC%98%81%EC%A3%BC%EB%8F%99/", "workingTime": ["-", "08:40~19:00", "08:40~19:00", "08:40~19:00", "08:40~19:00", "08:40~19:00", "09:00~13:20", "-"]}, {"name": "\ub300\ud765\uc57d\uad6d", "lat": "36.82644995924374", "lng": "128.62548800060256", "url": "/info/%EB%8C%80%ED%9D%A5%EC%95%BD%EA%B5%AD-%EA%B2%BD%EC%83%81%EB%B6%81%EB%8F%84-%EC%98%81%EC%A3%BC%EC%8B%9C-%EC%98%81%EC%A3%BC%EB%8F%99/", "workingTime": ["-", "09:00~19:00", "09:00~19:00", "09:00~19:00", "09:00~19:00", "09:00~19:00", "09:00~14:00", "-"]}, {"name": "\uc131\ubaa8\uc57d\uad6d", "lat": "36.822517637629865", "lng": "128.6241945197786", "url": "/info/%EC%84%B1%EB%AA%A8%EC%95%BD%EA%B5%AD-%EA%B2%BD%EC%83%81%EB%B6%81%EB%8F%84-%EC%98%81%EC%A3%BC%EC%8B%9C-%EC%98%81%EC%A3%BC%EB%8F%99/", "workingTime": ["-", "08:10~19:00", "08:10~19:00", "08:10~19:00", "08:10~19:00", "08:10~19:00", "08:30~14:00", "08:30~14:00"]}, {"name": "\uc6b0\ub9ac\uc57d\uad6d", "lat": "36.82611391531594", "lng": "128.6221186014298", "url": "/info/%EC%9A%B0%EB%A6%AC%EC%95%BD%EA%B5%AD-%EA%B2%BD%EC%83%81%EB%B6%81%EB%8F%84-%EC%98%81%EC%A3%BC%EC%8B%9C-%EC%98%81%EC%A3%BC%EB%8F%99/", "workingTime": ["-", "09:00~18:00", "09:00~18:00", "09:00~18:00", "09:00~18:00", "09:00~18:00", "09:00~14:00", "-"]}, {"name": "21\uc138\uae30\uc57d\uad6d", "lat": "36.82192904909673", "lng": "128.62435117465816", "url": "/info/21%EC%84%B8%EA%B8%B0%EC%95%BD%EA%B5%AD-%EA%B2%BD%EC%83%81%EB%B6%81%EB%8F%84-%EC%98%81%EC%A3%BC%EC%8B%9C-%EC%98%81%EC%A3%BC%EB%8F%99/", "workingTime": ["-", "09:00~18:00", "09:00~18:00", "09:00~18:00", "09:00~18:00", "09:00~18:00", "09:00~13:00", "-"]}, {"name": "\ud0dc\ubc31\uc0b0\uc57d\uad6d", "lat": "36.82537085188872", "lng": "128.62137219590042", "url": "/info/%ED%83%9C%EB%B0%B1%EC%82%B0%EC%95%BD%EA%B5%AD-%EA%B2%BD%EC%83%81%EB%B6%81%EB%8F%84-%EC%98%81%EC%A3%BC%EC%8B%9C-%EC%98%81%EC%A3%BC%EB%8F%99/", "workingTime": ["-", "08:30~18:00", "08:30~18:00", "08:30~18:00", "08:30~18:00", "08:30~18:00", "08:30~13:00", "-"]}, {"name": "\ud30c\ud2f0\ub9c8\uc57d\uad6d", "lat": "36.82262023327049", "lng": "128.62407116634893", "url": "/info/%ED%8C%8C%ED%8B%B0%EB%A7%88%EC%95%BD%EA%B5%AD-%EA%B2%BD%EC%83%81%EB%B6%81%EB%8F%84-%EC%98%81%EC%A3%BC%EC%8B%9C-%EC%98%81%EC%A3%BC%EB%8F%99/", "workingTime": ["-", "08:30~18:00", "08:30~18:00", "08:30~18:00", "08:30~18:00", "08:30~18:00", "08:30~13:00", "-"]}, {"name": "\uae40\uc57d\uad6d", "lat": "36.8260060349", "lng": "128.6256096789", "url": "/info/%EA%B9%80%EC%95%BD%EA%B5%AD-%EA%B2%BD%EC%83%81%EB%B6%81%EB%8F%84-%EC%98%81%EC%A3%BC%EC%8B%9C-%EC%98%81%EC%A3%BC%EB%8F%99/", "workingTime": ["-", "08:30~18:00", "08:30~18:00", "08:30~18:00", "08:30~18:00", "08:30~18:00", "08:30~12:30", "-"]}]