[{"name": "\uc73c\ub738\uc57d\uad6d", "lat": "35.23067472600642", "lng": "128.8934754099473", "url": "/info/%EC%9C%BC%EB%9C%B8%EC%95%BD%EA%B5%AD-%EA%B2%BD%EC%83%81%EB%82%A8%EB%8F%84-%EA%B9%80%ED%95%B4%EC%8B%9C-%EC%82%BC%EC%A0%95%EB%8F%99/", "workingTime": ["1,2,3,4,5\uc9f8\uc8fc15:00~21:00", "09:00~21:00", "09:00~21:00", "09:00~21:00", "09:00~21:00", "09:00~21:00", "09:00~21:00", "15:00~21:00"]}, {"name": "\uc131\uc740\uc57d\uad6d", "lat": "35.230636111111110", "lng": "128.893827777777773", "url": "/info/%EC%84%B1%EC%9D%80%EC%95%BD%EA%B5%AD-%EA%B2%BD%EC%83%81%EB%82%A8%EB%8F%84-%EA%B9%80%ED%95%B4%EC%8B%9C-%EC%82%BC%EC%A0%95%EB%8F%99/", "workingTime": ["-", "09:00~19:00", "09:00~19:00", "09:00~19:00", "09:00~19:00", "09:00~19:00", "09:00~13:30", "-"]}, {"name": "\ud587\ub2d8\uc57d\uad6d", "lat": "35.2347576119", "lng": "128.894708236", "url": "/info/%ED%96%87%EB%8B%98%EC%95%BD%EA%B5%AD-%EA%B2%BD%EC%83%81%EB%82%A8%EB%8F%84-%EA%B9%80%ED%95%B4%EC%8B%9C-%EC%82%BC%EC%A0%95%EB%8F%99/", "workingTime": ["3\uc9f8\uc8fc08:30~12:00", "08:30~18:30", "08:30~18:30", "08:30~18:30", "08:30~18:30", "08:30~18:30", "08:30~14:00", "08:30~12:00"]}, {"name": "\ub204\ub9ac\ud31c\uc57d\uad6d", "lat": "35.22665038437135", "lng": "128.90078696760355", "url": "/info/%EB%88%84%EB%A6%AC%ED%8C%9C%EC%95%BD%EA%B5%AD-%EA%B2%BD%EC%83%81%EB%82%A8%EB%8F%84-%EA%B9%80%ED%95%B4%EC%8B%9C-%EC%82%BC%EC%A0%95%EB%8F%99/", "workingTime": ["1,3,5\uc9f8\uc8fc10:00~21:30", "10:00~21:30", "10:00~21:30", "10:00~21:30", "10:00~21:30", "10:00~21:30", "10:00~21:30", "10:00~21:30"]}, {"name": "\ud587\uc0b4\uc57d\uad6d", "lat": "35.22956705985271", "lng": "128.89408503698243", "url": "/info/%ED%96%87%EC%82%B4%EC%95%BD%EA%B5%AD-%EA%B2%BD%EC%83%81%EB%82%A8%EB%8F%84-%EA%B9%80%ED%95%B4%EC%8B%9C-%EC%82%BC%EC%A0%95%EB%8F%99/", "workingTime": ["1,2,3,4,5\uc9f8\uc8fc08:50~12:30", "08:50~21:00", "08:50~21:00", "08:50~21:00", "08:50~21:00", "08:50~21:00", "08:50~17:00", "08:50~17:00"]}, {"name": "\ub300\uc9c4\uc57d\uad6d", "lat": "35.23205759436043", "lng": "128.8959485572472", "url": "/info/%EB%8C%80%EC%A7%84%EC%95%BD%EA%B5%AD-%EA%B2%BD%EC%83%81%EB%82%A8%EB%8F%84-%EA%B9%80%ED%95%B4%EC%8B%9C-%EC%82%BC%EC%A0%95%EB%8F%99/", "workingTime": ["-", "09:00~19:00", "09:00~19:00", "09:00~19:00", "09:00~19:00", "09:00~19:00", "09:00~14:00", "-"]}, {"name": "\uc0c8\ubcf5\uc74c\uc57d\uad6d", "lat": "35.23074445206302", "lng": "128.8934797580336", "url": "/info/%EC%83%88%EB%B3%B5%EC%9D%8C%EC%95%BD%EA%B5%AD-%EA%B2%BD%EC%83%81%EB%82%A8%EB%8F%84-%EA%B9%80%ED%95%B4%EC%8B%9C-%EC%82%BC%EC%A0%95%EB%8F%99/", "workingTime": ["1,2,3,4,5\uc9f8\uc8fc22:00~24:00", "09:00~24:00", "09:00~24:00", "09:00~24:00", "09:00~24:00", "09:00~24:00", "22:00~24:00", "22:00~24:00"]}, {"name": "1\ubc88\uc57d\uad6d", "lat": "35.2310303167298", "lng": "128.893395808861", "url": "/info/1%EB%B2%88%EC%95%BD%EA%B5%AD-%EA%B2%BD%EC%83%81%EB%82%A8%EB%8F%84-%EA%B9%80%ED%95%B4%EC%8B%9C-%EC%82%BC%EC%A0%95%EB%8F%99/", "workingTime": ["-", "08:15~18:00", "08:15~18:00", "08:15~18:00", "08:15~18:00", "08:15~18:00", "08:15~13:00", "-"]}]