[{"name": "\uc21c\ucc3d\uc57d\uad6d", "lat": "36.825760823639115", "lng": "128.62528066358018", "url": "/info/%EC%88%9C%EC%B0%BD%EC%95%BD%EA%B5%AD-%EA%B2%BD%EC%83%81%EB%B6%81%EB%8F%84-%EC%98%81%EC%A3%BC%EC%8B%9C-%ED%95%98%EB%A7%9D%EB%8F%99/", "workingTime": ["-", "09:30~19:00", "09:30~19:00", "09:30~19:00", "09:30~19:00", "09:30~19:00", "09:30~19:00", "-"]}, {"name": "\ud55c\uc131\uc57d\uad6d", "lat": "36.82340340839688", "lng": "128.62636501860612", "url": "/info/%ED%95%9C%EC%84%B1%EC%95%BD%EA%B5%AD-%EA%B2%BD%EC%83%81%EB%B6%81%EB%8F%84-%EC%98%81%EC%A3%BC%EC%8B%9C-%ED%95%98%EB%A7%9D%EB%8F%99/", "workingTime": ["1,2,3,4,5\uc9f8\uc8fc09:00~19:00", "09:00~21:00", "09:00~21:00", "09:00~21:00", "09:00~21:00", "09:00~21:00", "09:00~21:00", "09:00~19:00"]}, {"name": "\uba85\ubb38\uc57d\uad6d", "lat": "36.82744287464915", "lng": "128.62641009948595", "url": "/info/%EB%AA%85%EB%AC%B8%EC%95%BD%EA%B5%AD-%EA%B2%BD%EC%83%81%EB%B6%81%EB%8F%84-%EC%98%81%EC%A3%BC%EC%8B%9C-%ED%95%98%EB%A7%9D%EB%8F%99/", "workingTime": ["-", "08:30~18:30", "08:30~18:30", "08:30~18:30", "08:30~18:30", "08:30~18:30", "08:30~13:00", "-"]}, {"name": "\ud76c\ub9dd\uc628\ub204\ub9ac\uc57d\uad6d", "lat": "36.826309591176816", "lng": "128.6260756390587", "url": "/info/%ED%9D%AC%EB%A7%9D%EC%98%A8%EB%88%84%EB%A6%AC%EC%95%BD%EA%B5%AD-%EA%B2%BD%EC%83%81%EB%B6%81%EB%8F%84-%EC%98%81%EC%A3%BC%EC%8B%9C-%ED%95%98%EB%A7%9D%EB%8F%99/", "workingTime": ["-", "08:30~19:00", "08:30~19:00", "08:30~19:00", "08:30~19:00", "08:30~19:00", "08:30~14:00", "-"]}, {"name": "\uc81c2\uacbd\ubd81\uc57d\uad6d", "lat": "36.8259016776389", "lng": "128.62605024162397", "url": "/info/%EC%A0%9C2%EA%B2%BD%EB%B6%81%EC%95%BD%EA%B5%AD-%EA%B2%BD%EC%83%81%EB%B6%81%EB%8F%84-%EC%98%81%EC%A3%BC%EC%8B%9C-%ED%95%98%EB%A7%9D%EB%8F%99/", "workingTime": ["-", "08:30~19:00", "08:30~19:00", "08:30~19:00", "08:30~19:00", "08:30~19:00", "08:30~14:00", "08:30~12:00"]}, {"name": "\uc138\uacc4\ub85c\uc57d\uad6d", "lat": "36.82600603490444", "lng": "128.62560967886222", "url": "/info/%EC%84%B8%EA%B3%84%EB%A1%9C%EC%95%BD%EA%B5%AD-%EA%B2%BD%EC%83%81%EB%B6%81%EB%8F%84-%EC%98%81%EC%A3%BC%EC%8B%9C-%ED%95%98%EB%A7%9D%EB%8F%99/", "workingTime": ["-", "08:30~18:30", "08:30~18:30", "08:30~18:30", "08:30~18:30", "08:30~18:30", "08:30~13:00", "-"]}, {"name": "\uc5f4\ub9b0\uc57d\uad6d", "lat": "36.81495738198805", "lng": "128.61944120488948", "url": "/info/%EC%97%B4%EB%A6%B0%EC%95%BD%EA%B5%AD-%EA%B2%BD%EC%83%81%EB%B6%81%EB%8F%84-%EC%98%81%EC%A3%BC%EC%8B%9C-%ED%95%98%EB%A7%9D%EB%8F%99/", "workingTime": ["-", "08:00~19:00", "08:00~19:00", "08:00~19:00", "08:00~19:00", "08:00~19:00", "08:00~13:00", "-"]}, {"name": "\uacbd\ud76c\uc57d\uad6d", "lat": "36.82550524946623", "lng": "128.62552182863163", "url": "/info/%EA%B2%BD%ED%9D%AC%EC%95%BD%EA%B5%AD-%EA%B2%BD%EC%83%81%EB%B6%81%EB%8F%84-%EC%98%81%EC%A3%BC%EC%8B%9C-%ED%95%98%EB%A7%9D%EB%8F%99/", "workingTime": ["-", "08:30~19:00", "08:30~19:00", "08:30~19:00", "08:30~19:00", "08:30~19:00", "08:30~14:00", "-"]}, {"name": "\uc120\ube44\uc57d\uad6d", "lat": "36.8261520886116", "lng": "128.626169569449", "url": "/info/%EC%84%A0%EB%B9%84%EC%95%BD%EA%B5%AD-%EA%B2%BD%EC%83%81%EB%B6%81%EB%8F%84-%EC%98%81%EC%A3%BC%EC%8B%9C-%ED%95%98%EB%A7%9D%EB%8F%99/", "workingTime": ["-", "08:00~18:00", "08:00~18:00", "08:00~18:00", "08:00~18:00", "08:00~18:00", "08:00~13:00", "08:00~13:00"]}, {"name": "\uc911\uc559\uc57d\uad6d", "lat": "36.82562157874764", "lng": "128.62598374407122", "url": "/info/%EC%A4%91%EC%95%99%EC%95%BD%EA%B5%AD-%EA%B2%BD%EC%83%81%EB%B6%81%EB%8F%84-%EC%98%81%EC%A3%BC%EC%8B%9C-%ED%95%98%EB%A7%9D%EB%8F%99/", "workingTime": ["-", "09:00~18:00", "09:00~18:00", "09:00~18:00", "09:00~18:00", "09:00~18:00", "09:00~12:00", "-"]}]