[{"name": "\uc194\uc57d\uad6d", "lat": "35.2377597370357", "lng": "128.67526711791", "url": "/info/%EC%86%94%EC%95%BD%EA%B5%AD-%EA%B2%BD%EC%83%81%EB%82%A8%EB%8F%84-%EC%B0%BD%EC%9B%90%EC%8B%9C-%EB%B0%98%EB%A6%BC%EB%8F%99/", "workingTime": ["2,4\uc9f8\uc8fc11:00~17:00", "10:00~21:00", "10:00~21:00", "10:00~21:00", "10:00~21:00", "10:00~21:00", "10:00~19:00", "-"]}, {"name": "\uc0ac\ub791\ubcf5\uc74c\uc57d\uad6d", "lat": "35.23533600889333", "lng": "128.66981559229308", "url": "/info/%EC%82%AC%EB%9E%91%EB%B3%B5%EC%9D%8C%EC%95%BD%EA%B5%AD-%EA%B2%BD%EC%83%81%EB%82%A8%EB%8F%84-%EC%B0%BD%EC%9B%90%EC%8B%9C-%EB%B0%98%EB%A6%BC%EB%8F%99/", "workingTime": ["-", "09:00~19:00", "09:00~19:00", "09:00~19:00", "09:00~19:00", "09:00~19:00", "09:00~16:30", "-"]}, {"name": "\ub3c4\ub2f4\uc57d\uad6d", "lat": "35.2359522536", "lng": "128.6712523921", "url": "/info/%EB%8F%84%EB%8B%B4%EC%95%BD%EA%B5%AD-%EA%B2%BD%EC%83%81%EB%82%A8%EB%8F%84-%EC%B0%BD%EC%9B%90%EC%8B%9C-%EB%B0%98%EB%A6%BC%EB%8F%99/", "workingTime": ["-", "08:30~19:30", "08:30~19:30", "08:30~19:30", "08:30~19:30", "08:30~19:30", "09:00~16:00", "-"]}, {"name": "\ud589\ubcf5\ud55c\uc57d\uad6d", "lat": "35.23601863799715", "lng": "128.6718111455604", "url": "/info/%ED%96%89%EB%B3%B5%ED%95%9C%EC%95%BD%EA%B5%AD-%EA%B2%BD%EC%83%81%EB%82%A8%EB%8F%84-%EC%B0%BD%EC%9B%90%EC%8B%9C-%EB%B0%98%EB%A6%BC%EB%8F%99/", "workingTime": ["-", "09:00~19:00", "09:00~20:00", "09:00~19:00", "09:00~20:00", "09:00~19:00", "09:00~14:00", "-"]}, {"name": "\ubc18\uc1a1\uc57d\uad6d", "lat": "35.235494444444441", "lng": "128.670641666666654", "url": "/info/%EB%B0%98%EC%86%A1%EC%95%BD%EA%B5%AD-%EA%B2%BD%EC%83%81%EB%82%A8%EB%8F%84-%EC%B0%BD%EC%9B%90%EC%8B%9C-%EB%B0%98%EB%A6%BC%EB%8F%99/", "workingTime": ["1,2,3,4,5\uc9f8\uc8fc09:00~15:00", "08:00~20:30", "09:00~20:30", "09:00~20:30", "09:00~20:30", "08:00~20:30", "09:00~19:00", "09:00~19:00"]}, {"name": "\uc218\uc601\uc57d\uad6d", "lat": "35.236037490947965", "lng": "128.6710827995314", "url": "/info/%EC%88%98%EC%98%81%EC%95%BD%EA%B5%AD-%EA%B2%BD%EC%83%81%EB%82%A8%EB%8F%84-%EC%B0%BD%EC%9B%90%EC%8B%9C-%EB%B0%98%EB%A6%BC%EB%8F%99/", "workingTime": ["-", "09:00~18:30", "09:00~18:30", "09:00~18:30", "09:00~18:30", "09:00~18:30", "09:00~15:00", "09:00~13:00"]}]