[{"name": "\ub0b4\uc1a1\ub4dc\ub9bc\uc57d\uad6d", "lat": "35.3191017446161", "lng": "129.066656675627", "url": "/info/%EB%82%B4%EC%86%A1%EB%93%9C%EB%A6%BC%EC%95%BD%EA%B5%AD-%EA%B2%BD%EC%83%81%EB%82%A8%EB%8F%84-%EC%96%91%EC%82%B0%EC%8B%9C-%EB%8F%99%EB%A9%B4/", "workingTime": ["-", "09:00~20:00", "09:00~20:00", "09:00~20:00", "09:00~20:00", "09:00~20:00", "09:00~14:00", "-"]}, {"name": "\ud3ec\ub3c4\ub098\ubb34\uc57d\uad6d", "lat": "35.3160180102", "lng": "129.0269544019", "url": "/info/%ED%8F%AC%EB%8F%84%EB%82%98%EB%AC%B4%EC%95%BD%EA%B5%AD-%EA%B2%BD%EC%83%81%EB%82%A8%EB%8F%84-%EC%96%91%EC%82%B0%EC%8B%9C-%EB%8F%99%EB%A9%B4/", "workingTime": ["-", "09:00~20:00", "09:00~20:00", "09:00~20:00", "09:00~20:00", "09:00~20:00", "09:00~18:00", "-"]}, {"name": "\uc870\uc774\uc57d\uad6d", "lat": "35.152507644", "lng": "128.6653784433", "url": "/info/%EC%A1%B0%EC%9D%B4%EC%95%BD%EA%B5%AD-%EA%B2%BD%EC%83%81%EB%82%A8%EB%8F%84-%EC%96%91%EC%82%B0%EC%8B%9C-%EB%8F%99%EB%A9%B4/", "workingTime": ["-", "08:30~19:30", "08:30~19:30", "08:30~19:30", "08:30~19:30", "08:30~19:30", "08:30~14:00", "-"]}, {"name": "\ubbf8\uc18c\uac00\uc788\ub294\uc57d\uad6d", "lat": "35.31615188755977", "lng": "129.02563400751282", "url": "/info/%EB%AF%B8%EC%86%8C%EA%B0%80%EC%9E%88%EB%8A%94%EC%95%BD%EA%B5%AD-%EA%B2%BD%EC%83%81%EB%82%A8%EB%8F%84-%EC%96%91%EC%82%B0%EC%8B%9C-%EB%8F%99%EB%A9%B4/", "workingTime": ["-", "09:00~20:00", "09:00~20:00", "09:00~20:00", "09:00~20:00", "09:00~20:00", "09:00~17:00", "-"]}, {"name": "\uc720\ud55c\uc57d\uad6d", "lat": "35.30658230981928", "lng": "129.02516668692576", "url": "/info/%EC%9C%A0%ED%95%9C%EC%95%BD%EA%B5%AD-%EA%B2%BD%EC%83%81%EB%82%A8%EB%8F%84-%EC%96%91%EC%82%B0%EC%8B%9C-%EB%8F%99%EB%A9%B4/", "workingTime": ["1,2,3,4,5\uc9f8\uc8fc10:00~21:00", "10:00~21:00", "10:00~21:00", "10:00~21:00", "10:00~21:00", "10:00~21:00", "10:00~21:00", "10:00~21:00"]}, {"name": "\ub514\uc5e0\uc528\ud61c\uc6d0\uc57d\uad6d", "lat": "35.3177174614", "lng": "129.0257786123", "url": "/info/%EB%94%94%EC%97%A0%EC%94%A8%ED%98%9C%EC%9B%90%EC%95%BD%EA%B5%AD-%EA%B2%BD%EC%83%81%EB%82%A8%EB%8F%84-%EC%96%91%EC%82%B0%EC%8B%9C-%EB%8F%99%EB%A9%B4/", "workingTime": ["-", "09:00~20:00", "09:00~20:00", "09:00~20:00", "09:00~21:00", "09:00~20:00", "09:00~16:00", "-"]}, {"name": "\uc0c8\uc2f9\uc57d\uad6d", "lat": "35.3198673443", "lng": "129.0252561146", "url": "/info/%EC%83%88%EC%8B%B9%EC%95%BD%EA%B5%AD-%EA%B2%BD%EC%83%81%EB%82%A8%EB%8F%84-%EC%96%91%EC%82%B0%EC%8B%9C-%EB%8F%99%EB%A9%B4/", "workingTime": ["1,2,3,4,5\uc9f8\uc8fc09:00~17:00", "09:00~20:00", "09:00~20:00", "-", "09:00~20:00", "09:00~20:00", "09:00~17:00", "09:00~17:00"]}, {"name": "\ud6c8\ud6c8\uc57d\uad6d", "lat": "35.31712736594355", "lng": "129.0257155139978", "url": "/info/%ED%9B%88%ED%9B%88%EC%95%BD%EA%B5%AD-%EA%B2%BD%EC%83%81%EB%82%A8%EB%8F%84-%EC%96%91%EC%82%B0%EC%8B%9C-%EB%8F%99%EB%A9%B4/", "workingTime": ["1,2,3,4,5\uc9f8\uc8fc09:00~14:00", "09:00~21:00", "09:00~21:00", "09:00~21:00", "09:00~21:00", "09:00~21:00", "09:00~18:00", "09:00~14:00"]}, {"name": "\uc1a1\uc57d\uad6d", "lat": "35.31599865839994", "lng": "129.02724857047718", "url": "/info/%EC%86%A1%EC%95%BD%EA%B5%AD-%EA%B2%BD%EC%83%81%EB%82%A8%EB%8F%84-%EC%96%91%EC%82%B0%EC%8B%9C-%EB%8F%99%EB%A9%B4/", "workingTime": ["-", "09:00~19:00", "09:00~19:00", "09:00~19:00", "09:00~19:00", "09:00~19:00", "09:00~13:00", "-"]}]