[{"name": "\ubbf8\ubcf4\uc57d\uad6d", "lat": "35.16488237454452", "lng": "128.12728082498668", "url": "/info/%EB%AF%B8%EB%B3%B4%EC%95%BD%EA%B5%AD-%EA%B2%BD%EC%83%81%EB%82%A8%EB%8F%84-%EC%A7%84%EC%A3%BC%EC%8B%9C-%EC%B6%A9%EB%AC%B4%EA%B3%B5%EB%8F%99/", "workingTime": ["1,2,3,4,5\uc9f8\uc8fc09:00~13:00", "09:00~20:00", "09:00~20:00", "09:00~20:00", "09:00~20:00", "09:00~20:00", "09:00~16:00", "09:00~13:00"]}, {"name": "\uc62c\ub9ac\ube0c\uc57d\uad6d", "lat": "35.1801540327483", "lng": "128.139841256694", "url": "/info/%EC%98%AC%EB%A6%AC%EB%B8%8C%EC%95%BD%EA%B5%AD-%EA%B2%BD%EC%83%81%EB%82%A8%EB%8F%84-%EC%A7%84%EC%A3%BC%EC%8B%9C-%EC%B6%A9%EB%AC%B4%EA%B3%B5%EB%8F%99/", "workingTime": ["1,2,3,4,5\uc9f8\uc8fc11:00~21:00", "11:00~21:00", "11:00~21:00", "11:00~21:00", "11:00~21:00", "11:00~21:00", "11:00~21:00", "11:00~21:00"]}, {"name": "\uc544\uc2ac\ub780\uc57d\uad6d", "lat": "35.1746095179074", "lng": "128.152774279876", "url": "/info/%EC%95%84%EC%8A%AC%EB%9E%80%EC%95%BD%EA%B5%AD-%EA%B2%BD%EC%83%81%EB%82%A8%EB%8F%84-%EC%A7%84%EC%A3%BC%EC%8B%9C-%EC%B6%A9%EB%AC%B4%EA%B3%B5%EB%8F%99/", "workingTime": ["1,3,5\uc9f8\uc8fc10:30~17:00", "09:00~21:00", "09:00~21:00", "09:00~21:00", "09:00~21:00", "09:00~21:00", "09:00~17:00", "10:30~17:00"]}, {"name": "\ucda9\ubb34\uacf5\uc57d\uad6d", "lat": "35.1720177429974", "lng": "128.148648471765", "url": "/info/%EC%B6%A9%EB%AC%B4%EA%B3%B5%EC%95%BD%EA%B5%AD-%EA%B2%BD%EC%83%81%EB%82%A8%EB%8F%84-%EC%A7%84%EC%A3%BC%EC%8B%9C-%EC%B6%A9%EB%AC%B4%EA%B3%B5%EB%8F%99/", "workingTime": ["2,4\uc9f8\uc8fc13:00~18:00", "09:00~21:00", "09:00~21:00", "09:00~21:00", "09:00~21:00", "09:00~21:00", "09:00~15:00", "-"]}, {"name": "\ud601\uc2e0\uc81c\uc77c\uc57d\uad6d", "lat": "35.176215450767636", "lng": "128.14856174618282", "url": "/info/%ED%98%81%EC%8B%A0%EC%A0%9C%EC%9D%BC%EC%95%BD%EA%B5%AD-%EA%B2%BD%EC%83%81%EB%82%A8%EB%8F%84-%EC%A7%84%EC%A3%BC%EC%8B%9C-%EC%B6%A9%EB%AC%B4%EA%B3%B5%EB%8F%99/", "workingTime": ["-", "08:30~20:00", "08:30~20:00", "08:30~20:00", "08:30~20:00", "08:30~20:00", "08:30~15:00", "08:30~13:00"]}, {"name": "\uc635\ud2f0\ub9c8\ubbf8\uc18c\uc57d\uad6d", "lat": "35.16733409360964", "lng": "128.1276483324627", "url": "/info/%EC%98%B5%ED%8B%B0%EB%A7%88%EB%AF%B8%EC%86%8C%EC%95%BD%EA%B5%AD-%EA%B2%BD%EC%83%81%EB%82%A8%EB%8F%84-%EC%A7%84%EC%A3%BC%EC%8B%9C-%EC%B6%A9%EB%AC%B4%EA%B3%B5%EB%8F%99/", "workingTime": ["-", "09:00~19:00", "09:00~19:00", "09:00~19:00", "09:00~19:00", "09:00~19:00", "09:00~17:00", "-"]}, {"name": "\uc6b0\ub9ac\ub3d9\ub124\uc57d\uad6d", "lat": "35.1762154508", "lng": "128.1485617462", "url": "/info/%EC%9A%B0%EB%A6%AC%EB%8F%99%EB%84%A4%EC%95%BD%EA%B5%AD-%EA%B2%BD%EC%83%81%EB%82%A8%EB%8F%84-%EC%A7%84%EC%A3%BC%EC%8B%9C-%EC%B6%A9%EB%AC%B4%EA%B3%B5%EB%8F%99/", "workingTime": ["-", "10:00~18:00", "10:00~18:00", "10:00~18:00", "10:00~18:00", "10:00~18:00", "10:00~14:00", "-"]}, {"name": "\ud558\uc774\uc57d\uad6d", "lat": "35.16488237454452", "lng": "128.12728082498666", "url": "/info/%ED%95%98%EC%9D%B4%EC%95%BD%EA%B5%AD-%EA%B2%BD%EC%83%81%EB%82%A8%EB%8F%84-%EC%A7%84%EC%A3%BC%EC%8B%9C-%EC%B6%A9%EB%AC%B4%EA%B3%B5%EB%8F%99/", "workingTime": ["-", "09:00~19:00", "09:00~19:00", "09:00~19:00", "09:00~19:00", "09:00~19:00", "09:00~14:00", "-"]}, {"name": "\uc544\ub984\uc57d\uad6d", "lat": "35.16977012150096", "lng": "128.1324017838019", "url": "/info/%EC%95%84%EB%A6%84%EC%95%BD%EA%B5%AD-%EA%B2%BD%EC%83%81%EB%82%A8%EB%8F%84-%EC%A7%84%EC%A3%BC%EC%8B%9C-%EC%B6%A9%EB%AC%B4%EA%B3%B5%EB%8F%99/", "workingTime": ["-", "09:00~18:30", "09:00~18:30", "09:00~18:30", "09:00~18:30", "09:00~18:30", "09:00~13:00", "-"]}, {"name": "\ub298\ubc97\uc628\ub204\ub9ac\uc57d\uad6d", "lat": "35.1783150764301", "lng": "128.1460477841389", "url": "/info/%EB%8A%98%EB%B2%97%EC%98%A8%EB%88%84%EB%A6%AC%EC%95%BD%EA%B5%AD-%EA%B2%BD%EC%83%81%EB%82%A8%EB%8F%84-%EC%A7%84%EC%A3%BC%EC%8B%9C-%EC%B6%A9%EB%AC%B4%EA%B3%B5%EB%8F%99/", "workingTime": ["-", "08:30~18:30", "08:30~18:30", "08:30~18:30", "08:30~18:30", "08:30~18:30", "-", "-"]}, {"name": "\ubbfc\ub4e4\ub808\ud55c\uc57d\uad6d", "lat": "35.17954901017991", "lng": "128.06874836540737", "url": "/info/%EB%AF%BC%EB%93%A4%EB%A0%88%ED%95%9C%EC%95%BD%EA%B5%AD-%EA%B2%BD%EC%83%81%EB%82%A8%EB%8F%84-%EC%A7%84%EC%A3%BC%EC%8B%9C-%EC%B6%A9%EB%AC%B4%EA%B3%B5%EB%8F%99/", "workingTime": ["-", "09:00~21:00", "09:00~21:00", "09:00~21:00", "09:00~21:00", "09:00~21:00", "09:00~13:00", "-"]}, {"name": "\ubc1d\uc740\uc57d\uad6d", "lat": "35.17585000181791", "lng": "128.14870150327744", "url": "/info/%EB%B0%9D%EC%9D%80%EC%95%BD%EA%B5%AD-%EA%B2%BD%EC%83%81%EB%82%A8%EB%8F%84-%EC%A7%84%EC%A3%BC%EC%8B%9C-%EC%B6%A9%EB%AC%B4%EA%B3%B5%EB%8F%99/", "workingTime": ["-", "09:00~19:00", "09:00~19:00", "09:00~19:00", "09:00~19:00", "09:00~19:00", "09:00~13:00", "-"]}, {"name": "\ud601\uc2e0\uc628\ub204\ub9ac\uc57d\uad6d", "lat": "35.1726845128", "lng": "128.14909604", "url": "/info/%ED%98%81%EC%8B%A0%EC%98%A8%EB%88%84%EB%A6%AC%EC%95%BD%EA%B5%AD-%EA%B2%BD%EC%83%81%EB%82%A8%EB%8F%84-%EC%A7%84%EC%A3%BC%EC%8B%9C-%EC%B6%A9%EB%AC%B4%EA%B3%B5%EB%8F%99/", "workingTime": ["-", "09:00~13:00", "09:00~13:00", "09:00~13:00", "09:00~13:00", "09:00~13:00", "-", "-"]}]