[{"name": "\uacbd\uc8fc\uc218\uc57d\uad6d", "lat": "35.8465527912472", "lng": "129.228263043485", "url": "/info/%EA%B2%BD%EC%A3%BC%EC%88%98%EC%95%BD%EA%B5%AD-%EA%B2%BD%EC%83%81%EB%B6%81%EB%8F%84-%EA%B2%BD%EC%A3%BC%EC%8B%9C-%EB%8F%99%EC%B2%9C%EB%8F%99/", "workingTime": ["-", "09:00~18:30", "09:00~18:30", "09:00~18:30", "09:00~18:30", "09:00~18:30", "09:00~13:00", "-"]}, {"name": "\uc0bc\uad11\uc57d\uad6d", "lat": "35.85503598499214", "lng": "129.22278034768453", "url": "/info/%EC%82%BC%EA%B4%91%EC%95%BD%EA%B5%AD-%EA%B2%BD%EC%83%81%EB%B6%81%EB%8F%84-%EA%B2%BD%EC%A3%BC%EC%8B%9C-%EB%8F%99%EC%B2%9C%EB%8F%99/", "workingTime": ["-", "10:30~22:00", "10:30~22:00", "10:30~22:00", "10:30~22:00", "10:30~22:00", "10:30~22:00", "10:30~22:00"]}, {"name": "\uccad\ub9bc\uc57d\uad6d", "lat": "35.84883329722173", "lng": "129.23114225865424", "url": "/info/%EC%B2%AD%EB%A6%BC%EC%95%BD%EA%B5%AD-%EA%B2%BD%EC%83%81%EB%B6%81%EB%8F%84-%EA%B2%BD%EC%A3%BC%EC%8B%9C-%EB%8F%99%EC%B2%9C%EB%8F%99/", "workingTime": ["-", "09:00~22:00", "09:00~22:00", "09:00~22:00", "09:00~22:00", "09:00~22:00", "09:00~20:00", "09:00~21:00"]}, {"name": "\uacbd\ubd81\uc628\ub204\ub9ac\uc57d\uad6d", "lat": "35.85676629405003", "lng": "129.22405103919857", "url": "/info/%EA%B2%BD%EB%B6%81%EC%98%A8%EB%88%84%EB%A6%AC%EC%95%BD%EA%B5%AD-%EA%B2%BD%EC%83%81%EB%B6%81%EB%8F%84-%EA%B2%BD%EC%A3%BC%EC%8B%9C-%EB%8F%99%EC%B2%9C%EB%8F%99/", "workingTime": ["-", "09:00~20:00", "09:00~20:00", "09:00~20:00", "09:00~20:00", "09:00~20:00", "09:00~17:00", "-"]}, {"name": "\ub3d9\ucc9c\uc81c\uc77c\uc57d\uad6d", "lat": "35.85396632478308", "lng": "129.22643830955354", "url": "/info/%EB%8F%99%EC%B2%9C%EC%A0%9C%EC%9D%BC%EC%95%BD%EA%B5%AD-%EA%B2%BD%EC%83%81%EB%B6%81%EB%8F%84-%EA%B2%BD%EC%A3%BC%EC%8B%9C-%EB%8F%99%EC%B2%9C%EB%8F%99/", "workingTime": ["-", "08:30~19:00", "08:30~19:00", "08:30~19:00", "08:30~19:00", "08:30~19:00", "08:30~13:00", "-"]}]