[{"name": "\uc7a5\uc548\uc57d\uad6d", "lat": "35.1891444653", "lng": "128.1219375546", "url": "/info/%EC%9E%A5%EC%95%88%EC%95%BD%EA%B5%AD-%EA%B2%BD%EC%83%81%EB%82%A8%EB%8F%84-%EC%A7%84%EC%A3%BC%EC%8B%9C-%ED%95%98%EB%8C%80%EB%8F%99/", "workingTime": ["-", "09:00~23:00", "09:00~23:00", "09:00~23:00", "09:00~23:00", "09:00~23:00", "08:00~21:00", "-"]}, {"name": "\uc0bc\uc804\uc57d\uad6d", "lat": "35.192569444444445", "lng": "128.122074999999995", "url": "/info/%EC%82%BC%EC%A0%84%EC%95%BD%EA%B5%AD-%EA%B2%BD%EC%83%81%EB%82%A8%EB%8F%84-%EC%A7%84%EC%A3%BC%EC%8B%9C-%ED%95%98%EB%8C%80%EB%8F%99/", "workingTime": ["1,3\uc9f8\uc8fc09:00~20:30", "09:00~20:30", "09:00~20:30", "09:00~20:30", "09:00~20:30", "09:00~20:30", "09:00~20:30", "09:00~20:30"]}, {"name": "\uc870\uc544\uc57d\uad6d", "lat": "35.1865978177428", "lng": "128.122495500302", "url": "/info/%EC%A1%B0%EC%95%84%EC%95%BD%EA%B5%AD-%EA%B2%BD%EC%83%81%EB%82%A8%EB%8F%84-%EC%A7%84%EC%A3%BC%EC%8B%9C-%ED%95%98%EB%8C%80%EB%8F%99/", "workingTime": ["-", "09:00~19:00", "09:00~19:00", "09:00~19:00", "09:00~19:00", "09:00~19:00", "09:00~14:00", "-"]}, {"name": "\ub3d9\ubcf4\uc57d\uad6d", "lat": "35.19279236669297", "lng": "128.11692510955407", "url": "/info/%EB%8F%99%EB%B3%B4%EC%95%BD%EA%B5%AD-%EA%B2%BD%EC%83%81%EB%82%A8%EB%8F%84-%EC%A7%84%EC%A3%BC%EC%8B%9C-%ED%95%98%EB%8C%80%EB%8F%99/", "workingTime": ["-", "09:00~21:00", "09:00~21:00", "09:00~21:00", "09:00~21:00", "09:00~21:00", "09:00~21:00", "-"]}, {"name": "\uc601\uc2e0\uc57d\uad6d", "lat": "35.191126975167975", "lng": "128.12224025319296", "url": "/info/%EC%98%81%EC%8B%A0%EC%95%BD%EA%B5%AD-%EA%B2%BD%EC%83%81%EB%82%A8%EB%8F%84-%EC%A7%84%EC%A3%BC%EC%8B%9C-%ED%95%98%EB%8C%80%EB%8F%99/", "workingTime": ["-", "09:00~19:00", "09:00~19:00", "09:00~19:00", "09:00~19:00", "09:00~19:00", "09:00~14:00", "-"]}, {"name": "\uc0ac\ub791\uc57d\uad6d", "lat": "35.19290477947474", "lng": "128.12036868908936", "url": "/info/%EC%82%AC%EB%9E%91%EC%95%BD%EA%B5%AD-%EA%B2%BD%EC%83%81%EB%82%A8%EB%8F%84-%EC%A7%84%EC%A3%BC%EC%8B%9C-%ED%95%98%EB%8C%80%EB%8F%99/", "workingTime": ["-", "09:00~13:00", "09:00~13:00", "09:00~13:00", "09:00~13:00", "09:00~13:00", "-", "09:00~12:00"]}, {"name": "\uac74\uac15\uc57d\uad6d", "lat": "35.19328111121922", "lng": "128.12670552789055", "url": "/info/%EA%B1%B4%EA%B0%95%EC%95%BD%EA%B5%AD-%EA%B2%BD%EC%83%81%EB%82%A8%EB%8F%84-%EC%A7%84%EC%A3%BC%EC%8B%9C-%ED%95%98%EB%8C%80%EB%8F%99/", "workingTime": ["-", "08:00~19:00", "08:00~19:00", "08:00~19:00", "08:00~19:00", "08:00~19:00", "08:00~12:00", "-"]}, {"name": "\ub3c4\ub3d9\uc57d\uad6d", "lat": "35.1935169877417", "lng": "128.122086387235", "url": "/info/%EB%8F%84%EB%8F%99%EC%95%BD%EA%B5%AD-%EA%B2%BD%EC%83%81%EB%82%A8%EB%8F%84-%EC%A7%84%EC%A3%BC%EC%8B%9C-%ED%95%98%EB%8C%80%EB%8F%99/", "workingTime": ["-", "08:20~18:00", "08:20~18:00", "08:20~12:30", "08:20~18:00", "08:20~18:00", "08:20~13:00", "-"]}, {"name": "\uc885\uc810\uc628\ub204\ub9ac\uc57d\uad6d", "lat": "35.188015477085045", "lng": "128.12238753456293", "url": "/info/%EC%A2%85%EC%A0%90%EC%98%A8%EB%88%84%EB%A6%AC%EC%95%BD%EA%B5%AD-%EA%B2%BD%EC%83%81%EB%82%A8%EB%8F%84-%EC%A7%84%EC%A3%BC%EC%8B%9C-%ED%95%98%EB%8C%80%EB%8F%99/", "workingTime": ["-", "09:00~19:30", "09:00~19:30", "09:00~19:30", "09:00~19:30", "09:00~19:30", "09:00~13:00", "-"]}, {"name": "\ucd5c\uc131\ubb38\ud55c\uc57d\uad6d", "lat": "35.189092888366204", "lng": "128.124658410589", "url": "/info/%EC%B5%9C%EC%84%B1%EB%AC%B8%ED%95%9C%EC%95%BD%EA%B5%AD-%EA%B2%BD%EC%83%81%EB%82%A8%EB%8F%84-%EC%A7%84%EC%A3%BC%EC%8B%9C-%ED%95%98%EB%8C%80%EB%8F%99/", "workingTime": ["-", "09:00~18:00", "09:00~18:00", "09:00~18:00", "09:00~18:00", "09:00~18:00", "09:00~13:00", "-"]}, {"name": "\uc6b0\ub9ac\uc57d\uad6d", "lat": "35.190180555555557", "lng": "128.122197222222212", "url": "/info/%EC%9A%B0%EB%A6%AC%EC%95%BD%EA%B5%AD-%EA%B2%BD%EC%83%81%EB%82%A8%EB%8F%84-%EC%A7%84%EC%A3%BC%EC%8B%9C-%ED%95%98%EB%8C%80%EB%8F%99/", "workingTime": ["-", "09:00~13:00", "09:00~13:00", "09:00~13:00", "09:00~13:00", "09:00~13:00", "-", "-"]}, {"name": "\ub178\ubca8\ud3c9\ud654\uc57d\uad6d", "lat": "35.1900785207", "lng": "128.1222929426", "url": "/info/%EB%85%B8%EB%B2%A8%ED%8F%89%ED%99%94%EC%95%BD%EA%B5%AD-%EA%B2%BD%EC%83%81%EB%82%A8%EB%8F%84-%EC%A7%84%EC%A3%BC%EC%8B%9C-%ED%95%98%EB%8C%80%EB%8F%99/", "workingTime": ["-", "09:00~18:00", "09:00~18:00", "09:00~18:00", "09:00~18:00", "09:00~18:00", "-", "-"]}]