[{"name": "\uc6b0\ub9ac\uc57d\uad6d", "lat": "35.918955848", "lng": "128.2846739967", "url": "/info/%EC%9A%B0%EB%A6%AC%EC%95%BD%EA%B5%AD-%EA%B2%BD%EC%83%81%EB%B6%81%EB%8F%84-%EC%84%B1%EC%A3%BC%EA%B5%B0-%EC%84%B1%EC%A3%BC%EC%9D%8D/", "workingTime": ["-", "08:00~20:00", "08:00~20:00", "08:00~20:00", "08:00~20:00", "08:00~20:00", "08:00~14:30", "-"]}, {"name": "\uc138\uc885\uc57d\uad6d", "lat": "35.9172044494", "lng": "128.2863118775", "url": "/info/%EC%84%B8%EC%A2%85%EC%95%BD%EA%B5%AD-%EA%B2%BD%EC%83%81%EB%B6%81%EB%8F%84-%EC%84%B1%EC%A3%BC%EA%B5%B0-%EC%84%B1%EC%A3%BC%EC%9D%8D/", "workingTime": ["-", "08:30~19:00", "08:30~19:00", "08:30~19:00", "08:30~19:00", "08:30~19:00", "09:00~13:00", "08:30~13:00"]}, {"name": "\ub2e4\uc19c\uc57d\uad6d", "lat": "35.91885883555277", "lng": "128.28683057981675", "url": "/info/%EB%8B%A4%EC%86%9C%EC%95%BD%EA%B5%AD-%EA%B2%BD%EC%83%81%EB%B6%81%EB%8F%84-%EC%84%B1%EC%A3%BC%EA%B5%B0-%EC%84%B1%EC%A3%BC%EC%9D%8D/", "workingTime": ["3\uc9f8\uc8fc08:30~21:00", "08:30~21:00", "08:30~21:00", "08:30~21:00", "08:30~21:00", "08:30~21:00", "08:30~21:00", "-"]}, {"name": "\ud76c\ub9dd\uc57d\uad6d", "lat": "35.9195654806423", "lng": "128.2873250476309", "url": "/info/%ED%9D%AC%EB%A7%9D%EC%95%BD%EA%B5%AD-%EA%B2%BD%EC%83%81%EB%B6%81%EB%8F%84-%EC%84%B1%EC%A3%BC%EA%B5%B0-%EC%84%B1%EC%A3%BC%EC%9D%8D/", "workingTime": ["-", "08:40~19:00", "08:40~19:00", "08:40~19:00", "08:40~19:00", "08:40~19:00", "08:40~13:30", "08:40~14:00"]}, {"name": "\ubcf4\uac74\uc57d\uad6d", "lat": "35.91771332600397", "lng": "128.29066007135384", "url": "/info/%EB%B3%B4%EA%B1%B4%EC%95%BD%EA%B5%AD-%EA%B2%BD%EC%83%81%EB%B6%81%EB%8F%84-%EC%84%B1%EC%A3%BC%EA%B5%B0-%EC%84%B1%EC%A3%BC%EC%9D%8D/", "workingTime": ["1,2,3,4,5\uc9f8\uc8fc08:30~21:00", "08:30~22:00", "08:30~22:00", "08:30~22:00", "08:30~22:00", "08:30~22:00", "08:30~21:00", "-"]}, {"name": "\uc131\uc8fc\uacbd\ubd81\uc57d\uad6d", "lat": "35.91740422504534", "lng": "128.28923258257348", "url": "/info/%EC%84%B1%EC%A3%BC%EA%B2%BD%EB%B6%81%EC%95%BD%EA%B5%AD-%EA%B2%BD%EC%83%81%EB%B6%81%EB%8F%84-%EC%84%B1%EC%A3%BC%EA%B5%B0-%EC%84%B1%EC%A3%BC%EC%9D%8D/", "workingTime": ["-", "08:30~19:00", "08:30~19:00", "08:30~19:00", "08:30~19:00", "08:30~19:00", "08:30~14:00", "-"]}, {"name": "\uc81c\uc77c\uc57d\uad6d", "lat": "35.91786368544629", "lng": "128.28677014411156", "url": "/info/%EC%A0%9C%EC%9D%BC%EC%95%BD%EA%B5%AD-%EA%B2%BD%EC%83%81%EB%B6%81%EB%8F%84-%EC%84%B1%EC%A3%BC%EA%B5%B0-%EC%84%B1%EC%A3%BC%EC%9D%8D/", "workingTime": ["-", "08:30~20:00", "08:30~20:00", "08:30~20:00", "08:30~20:00", "08:30~20:00", "08:30~20:00", "-"]}, {"name": "\uc0bc\uc77c\uc57d\uad6d", "lat": "35.91613508662339", "lng": "128.2858602908794", "url": "/info/%EC%82%BC%EC%9D%BC%EC%95%BD%EA%B5%AD-%EA%B2%BD%EC%83%81%EB%B6%81%EB%8F%84-%EC%84%B1%EC%A3%BC%EA%B5%B0-%EC%84%B1%EC%A3%BC%EC%9D%8D/", "workingTime": ["-", "08:00~18:00", "08:00~18:00", "08:00~18:00", "08:00~18:00", "08:00~18:00", "08:00~14:00", "-"]}, {"name": "\ud61c\ubbfc\uc57d\uad6d", "lat": "35.91863381266798", "lng": "128.28714156919116", "url": "/info/%ED%98%9C%EB%AF%BC%EC%95%BD%EA%B5%AD-%EA%B2%BD%EC%83%81%EB%B6%81%EB%8F%84-%EC%84%B1%EC%A3%BC%EA%B5%B0-%EC%84%B1%EC%A3%BC%EC%9D%8D/", "workingTime": ["2,4,5\uc9f8\uc8fc08:30~21:00", "08:30~21:00", "08:30~21:00", "08:30~21:00", "08:30~21:00", "08:30~21:00", "08:30~21:00", "-"]}, {"name": "\ubc31\uc0b0\uc57d\uad6d", "lat": "35.91881850728183", "lng": "128.28507664276987", "url": "/info/%EB%B0%B1%EC%82%B0%EC%95%BD%EA%B5%AD-%EA%B2%BD%EC%83%81%EB%B6%81%EB%8F%84-%EC%84%B1%EC%A3%BC%EA%B5%B0-%EC%84%B1%EC%A3%BC%EC%9D%8D/", "workingTime": ["-", "08:30~21:30", "08:30~21:30", "08:30~21:30", "08:30~21:30", "08:30~21:30", "08:30~12:00", "08:30~21:30"]}, {"name": "\ud589\ubcf5\uc57d\uad6d", "lat": "35.918664190707396", "lng": "128.28379961870968", "url": "/info/%ED%96%89%EB%B3%B5%EC%95%BD%EA%B5%AD-%EA%B2%BD%EC%83%81%EB%B6%81%EB%8F%84-%EC%84%B1%EC%A3%BC%EA%B5%B0-%EC%84%B1%EC%A3%BC%EC%9D%8D/", "workingTime": ["-", "08:30~17:30", "08:30~17:30", "08:30~17:30", "08:30~17:30", "08:30~17:30", "08:30~12:30", "-"]}, {"name": "\uc0ac\ub791\uc57d\uad6d", "lat": "35.91703577314688", "lng": "128.28590588987288", "url": "/info/%EC%82%AC%EB%9E%91%EC%95%BD%EA%B5%AD-%EA%B2%BD%EC%83%81%EB%B6%81%EB%8F%84-%EC%84%B1%EC%A3%BC%EA%B5%B0-%EC%84%B1%EC%A3%BC%EC%9D%8D/", "workingTime": ["-", "08:30~18:30", "08:30~18:30", "08:30~18:30", "08:30~14:00", "-", "-", "-"]}]