[{"name": "\ubcf4\uad11\uc57d\uad6d", "lat": "35.23329628296206", "lng": "128.8809359790583", "url": "/info/%EB%B3%B4%EA%B4%91%EC%95%BD%EA%B5%AD-%EA%B2%BD%EC%83%81%EB%82%A8%EB%8F%84-%EA%B9%80%ED%95%B4%EC%8B%9C-%EC%84%9C%EC%83%81%EB%8F%99/", "workingTime": ["1,3\uc9f8\uc8fc09:00~18:00", "09:00~20:00", "09:00~20:00", "09:00~20:00", "09:00~20:00", "09:00~20:00", "09:00~19:00", "09:00~18:00"]}, {"name": "\uc11c\uc0c1\uc57d\uad6d", "lat": "35.233555555555554", "lng": "128.881044444444456", "url": "/info/%EC%84%9C%EC%83%81%EC%95%BD%EA%B5%AD-%EA%B2%BD%EC%83%81%EB%82%A8%EB%8F%84-%EA%B9%80%ED%95%B4%EC%8B%9C-%EC%84%9C%EC%83%81%EB%8F%99/", "workingTime": ["-", "09:00~18:30", "09:00~18:30", "09:00~18:30", "09:00~18:30", "09:00~18:30", "09:00~13:30", "-"]}, {"name": "\ud55c\ucc3d\uc57d\uad6d", "lat": "35.235527777777776", "lng": "128.881272222222236", "url": "/info/%ED%95%9C%EC%B0%BD%EC%95%BD%EA%B5%AD-%EA%B2%BD%EC%83%81%EB%82%A8%EB%8F%84-%EA%B9%80%ED%95%B4%EC%8B%9C-%EC%84%9C%EC%83%81%EB%8F%99/", "workingTime": ["-", "09:00~19:00", "09:00~19:00", "09:00~19:00", "09:00~19:00", "09:00~19:00", "09:00~19:00", "09:00~19:00"]}, {"name": "\uc77c\uc9c4\uac74\uc7ac\ub2f9\uc57d\uad6d", "lat": "35.233482454343864", "lng": "128.87916094582866", "url": "/info/%EC%9D%BC%EC%A7%84%EA%B1%B4%EC%9E%AC%EB%8B%B9%EC%95%BD%EA%B5%AD-%EA%B2%BD%EC%83%81%EB%82%A8%EB%8F%84-%EA%B9%80%ED%95%B4%EC%8B%9C-%EC%84%9C%EC%83%81%EB%8F%99/", "workingTime": ["-", "09:00~21:00", "09:00~21:00", "09:00~21:00", "09:00~21:00", "09:00~21:00", "09:00~21:00", "09:00~21:00"]}, {"name": "\ub3d9\uc2e0\uc57d\uad6d", "lat": "35.23479567688057", "lng": "128.88117821185395", "url": "/info/%EB%8F%99%EC%8B%A0%EC%95%BD%EA%B5%AD-%EA%B2%BD%EC%83%81%EB%82%A8%EB%8F%84-%EA%B9%80%ED%95%B4%EC%8B%9C-%EC%84%9C%EC%83%81%EB%8F%99/", "workingTime": ["-", "09:00~20:30", "09:00~20:30", "09:00~20:30", "09:00~20:30", "09:00~20:30", "09:00~20:00", "08:20~20:30"]}, {"name": "\ud589\ubcf5\ud55c\uc57d\uad6d", "lat": "35.23427862231775", "lng": "128.8815852592473", "url": "/info/%ED%96%89%EB%B3%B5%ED%95%9C%EC%95%BD%EA%B5%AD-%EA%B2%BD%EC%83%81%EB%82%A8%EB%8F%84-%EA%B9%80%ED%95%B4%EC%8B%9C-%EC%84%9C%EC%83%81%EB%8F%99/", "workingTime": ["-", "09:00~19:00", "09:00~19:00", "09:00~19:00", "09:00~19:00", "09:00~19:00", "09:00~16:00", "-"]}, {"name": "\uba85\ubb38\uc57d\uad6d", "lat": "35.234075943250986", "lng": "128.88163769629261", "url": "/info/%EB%AA%85%EB%AC%B8%EC%95%BD%EA%B5%AD-%EA%B2%BD%EC%83%81%EB%82%A8%EB%8F%84-%EA%B9%80%ED%95%B4%EC%8B%9C-%EC%84%9C%EC%83%81%EB%8F%99/", "workingTime": ["1,2,3,4,5\uc9f8\uc8fc10:00~20:00", "09:00~21:00", "09:00~21:00", "09:00~21:00", "09:00~21:00", "09:00~21:00", "09:00~21:00", "09:00~21:00"]}, {"name": "\uc2e0\uc2e0\uc57d\uad6d", "lat": "35.2332950914", "lng": "128.8814763445", "url": "/info/%EC%8B%A0%EC%8B%A0%EC%95%BD%EA%B5%AD-%EA%B2%BD%EC%83%81%EB%82%A8%EB%8F%84-%EA%B9%80%ED%95%B4%EC%8B%9C-%EC%84%9C%EC%83%81%EB%8F%99/", "workingTime": ["-", "09:00~20:00", "09:00~20:00", "09:00~20:00", "09:00~20:00", "09:00~20:00", "09:00~21:00", "-"]}, {"name": "\uc815\ub2e4\uc6b4\uc57d\uad6d", "lat": "35.23361779387277", "lng": "128.8811235348756", "url": "/info/%EC%A0%95%EB%8B%A4%EC%9A%B4%EC%95%BD%EA%B5%AD-%EA%B2%BD%EC%83%81%EB%82%A8%EB%8F%84-%EA%B9%80%ED%95%B4%EC%8B%9C-%EC%84%9C%EC%83%81%EB%8F%99/", "workingTime": ["-", "09:00~18:30", "09:00~18:30", "09:00~18:30", "09:00~18:30", "09:00~18:30", "09:00~13:00", "-"]}]