[{"name": "\uc2dc\uc7a5\ud070\uc57d\uad6d", "lat": "36.035046753077", "lng": "129.365673889724", "url": "/info/%EC%8B%9C%EC%9E%A5%ED%81%B0%EC%95%BD%EA%B5%AD-%EA%B2%BD%EC%83%81%EB%B6%81%EB%8F%84-%ED%8F%AC%ED%95%AD%EC%8B%9C-%EC%A3%BD%EB%8F%84%EB%8F%99/", "workingTime": ["1,2,3,4,5\uc9f8\uc8fc06:00~20:00", "06:00~20:00", "06:00~20:00", "06:00~20:00", "06:00~20:00", "06:00~20:00", "06:00~20:00", "06:00~20:00"]}, {"name": "\ud070\ub098\ubb34\uc57d\uad6d", "lat": "36.0290164639906", "lng": "129.36269838695", "url": "/info/%ED%81%B0%EB%82%98%EB%AC%B4%EC%95%BD%EA%B5%AD-%EA%B2%BD%EC%83%81%EB%B6%81%EB%8F%84-%ED%8F%AC%ED%95%AD%EC%8B%9C-%EC%A3%BD%EB%8F%84%EB%8F%99/", "workingTime": ["-", "09:30~18:30", "09:30~18:30", "09:30~18:30", "09:30~18:30", "09:30~18:30", "09:30~13:30", "-"]}, {"name": "\ubc31\ubbfc\uc57d\uad6d", "lat": "36.021999486586495", "lng": "129.35462625384437", "url": "/info/%EB%B0%B1%EB%AF%BC%EC%95%BD%EA%B5%AD-%EA%B2%BD%EC%83%81%EB%B6%81%EB%8F%84-%ED%8F%AC%ED%95%AD%EC%8B%9C-%EC%A3%BD%EB%8F%84%EB%8F%99/", "workingTime": ["-", "09:00~20:00", "09:00~20:00", "09:00~20:00", "09:00~20:00", "09:00~20:00", "09:00~17:30", "-"]}, {"name": "\uc131\ud654\uc57d\uad6d", "lat": "36.03195903699516", "lng": "129.3657044365092", "url": "/info/%EC%84%B1%ED%99%94%EC%95%BD%EA%B5%AD-%EA%B2%BD%EC%83%81%EB%B6%81%EB%8F%84-%ED%8F%AC%ED%95%AD%EC%8B%9C-%EC%A3%BD%EB%8F%84%EB%8F%99/", "workingTime": ["1\uc9f8\uc8fc09:00~11:30", "08:30~20:00", "08:30~20:00", "08:30~20:00", "08:30~20:00", "08:30~20:00", "08:30~16:00", "-"]}, {"name": "\ud574\uc1a1\uc57d\uad6d", "lat": "36.02559746458482", "lng": "129.36063646929773", "url": "/info/%ED%95%B4%EC%86%A1%EC%95%BD%EA%B5%AD-%EA%B2%BD%EC%83%81%EB%B6%81%EB%8F%84-%ED%8F%AC%ED%95%AD%EC%8B%9C-%EC%A3%BD%EB%8F%84%EB%8F%99/", "workingTime": ["-", "09:00~19:00", "09:00~19:00", "09:00~19:00", "09:00~19:00", "09:00~19:00", "09:00~14:00", "-"]}, {"name": "\uac1c\ud48d\uc57d\uad6d", "lat": "36.034750969002204", "lng": "129.36576129331974", "url": "/info/%EA%B0%9C%ED%92%8D%EC%95%BD%EA%B5%AD-%EA%B2%BD%EC%83%81%EB%B6%81%EB%8F%84-%ED%8F%AC%ED%95%AD%EC%8B%9C-%EC%A3%BD%EB%8F%84%EB%8F%99/", "workingTime": ["1,2,3,4,5\uc9f8\uc8fc07:00~19:00", "07:00~19:00", "07:00~19:00", "07:00~19:00", "07:00~19:00", "07:00~19:00", "07:00~19:00", "07:00~19:00"]}, {"name": "\ub179\uc2ed\uc790\uc57d\uad6d", "lat": "36.021743386326705", "lng": "129.35224959542063", "url": "/info/%EB%85%B9%EC%8B%AD%EC%9E%90%EC%95%BD%EA%B5%AD-%EA%B2%BD%EC%83%81%EB%B6%81%EB%8F%84-%ED%8F%AC%ED%95%AD%EC%8B%9C-%EC%A3%BD%EB%8F%84%EB%8F%99/", "workingTime": ["-", "09:00~18:30", "09:00~18:30", "09:00~18:30", "09:00~18:30", "09:00~18:30", "09:00~13:30", "-"]}, {"name": "\ub300\ud559\uc57d\uad6d", "lat": "36.0177108474271", "lng": "129.35370461713953", "url": "/info/%EB%8C%80%ED%95%99%EC%95%BD%EA%B5%AD-%EA%B2%BD%EC%83%81%EB%B6%81%EB%8F%84-%ED%8F%AC%ED%95%AD%EC%8B%9C-%EC%A3%BD%EB%8F%84%EB%8F%99/", "workingTime": ["2,4,5\uc9f8\uc8fc09:00~16:00", "09:00~19:00", "09:00~19:00", "09:00~19:00", "09:00~19:00", "09:00~19:00", "09:00~17:00", "09:00~16:00"]}, {"name": "\ub3c5\uc77c\uc57d\uad6d", "lat": "36.03304652293314", "lng": "129.3668462081167", "url": "/info/%EB%8F%85%EC%9D%BC%EC%95%BD%EA%B5%AD-%EA%B2%BD%EC%83%81%EB%B6%81%EB%8F%84-%ED%8F%AC%ED%95%AD%EC%8B%9C-%EC%A3%BD%EB%8F%84%EB%8F%99/", "workingTime": ["-", "07:30~20:00", "07:30~20:00", "07:30~20:00", "07:30~20:00", "07:30~20:00", "07:30~14:00", "-"]}, {"name": "\ub3d9\uad6d\uc57d\uad6d", "lat": "36.0229570499162", "lng": "129.351816435459", "url": "/info/%EB%8F%99%EA%B5%AD%EC%95%BD%EA%B5%AD-%EA%B2%BD%EC%83%81%EB%B6%81%EB%8F%84-%ED%8F%AC%ED%95%AD%EC%8B%9C-%EC%A3%BD%EB%8F%84%EB%8F%99/", "workingTime": ["-", "09:00~20:00", "09:00~20:00", "09:00~20:00", "09:00~20:00", "09:00~20:00", "09:00~16:00", "-"]}, {"name": "\uba85\uac15\uc57d\uad6d", "lat": "36.04134216583757", "lng": "129.35130578616304", "url": "/info/%EB%AA%85%EA%B0%95%EC%95%BD%EA%B5%AD-%EA%B2%BD%EC%83%81%EB%B6%81%EB%8F%84-%ED%8F%AC%ED%95%AD%EC%8B%9C-%EC%A3%BD%EB%8F%84%EB%8F%99/", "workingTime": ["-", "09:30~18:30", "09:30~18:30", "09:30~18:30", "09:30~18:30", "09:30~18:30", "09:30~14:00", "-"]}, {"name": "\ubbf8\ub798\uc57d\uad6d", "lat": "36.03264195127033", "lng": "129.36543201242122", "url": "/info/%EB%AF%B8%EB%9E%98%EC%95%BD%EA%B5%AD-%EA%B2%BD%EC%83%81%EB%B6%81%EB%8F%84-%ED%8F%AC%ED%95%AD%EC%8B%9C-%EC%A3%BD%EB%8F%84%EB%8F%99/", "workingTime": ["1,3\uc9f8\uc8fc09:00~13:00", "09:00~20:30", "09:00~19:00", "09:00~19:00", "09:00~20:30", "09:00~19:00", "09:00~16:00", "09:00~16:00"]}, {"name": "\uc0c8\uacbd\ubd81\uc57d\uad6d", "lat": "36.03437609886966", "lng": "129.36523806377826", "url": "/info/%EC%83%88%EA%B2%BD%EB%B6%81%EC%95%BD%EA%B5%AD-%EA%B2%BD%EC%83%81%EB%B6%81%EB%8F%84-%ED%8F%AC%ED%95%AD%EC%8B%9C-%EC%A3%BD%EB%8F%84%EB%8F%99/", "workingTime": ["-", "09:00~19:00", "09:00~19:00", "09:00~19:00", "09:00~19:00", "09:00~19:00", "09:00~15:00", "-"]}, {"name": "\uc218\uc57d\uad6d", "lat": "36.02182647197779", "lng": "129.35492738288892", "url": "/info/%EC%88%98%EC%95%BD%EA%B5%AD-%EA%B2%BD%EC%83%81%EB%B6%81%EB%8F%84-%ED%8F%AC%ED%95%AD%EC%8B%9C-%EC%A3%BD%EB%8F%84%EB%8F%99/", "workingTime": ["-", "09:00~14:00", "09:00~14:00", "09:00~14:00", "09:00~14:00", "09:00~14:00", "09:00~14:00", "-"]}, {"name": "\uc218\ud37c\uc57d\uad6d", "lat": "36.03410188354407", "lng": "129.36415720511513", "url": "/info/%EC%88%98%ED%8D%BC%EC%95%BD%EA%B5%AD-%EA%B2%BD%EC%83%81%EB%B6%81%EB%8F%84-%ED%8F%AC%ED%95%AD%EC%8B%9C-%EC%A3%BD%EB%8F%84%EB%8F%99/", "workingTime": ["-", "09:00~19:00", "09:00~19:00", "09:00~19:00", "09:00~19:00", "09:00~19:00", "09:00~15:00", "-"]}, {"name": "\uc628\ub204\ub9ac\ub300\uc655\uc57d\uad6d", "lat": "36.03400576223", "lng": "129.36537564504206", "url": "/info/%EC%98%A8%EB%88%84%EB%A6%AC%EB%8C%80%EC%99%95%EC%95%BD%EA%B5%AD-%EA%B2%BD%EC%83%81%EB%B6%81%EB%8F%84-%ED%8F%AC%ED%95%AD%EC%8B%9C-%EC%A3%BD%EB%8F%84%EB%8F%99/", "workingTime": ["-", "08:50~19:00", "08:50~19:00", "08:50~19:00", "08:50~19:00", "08:50~19:00", "08:50~19:00", "-"]}, {"name": "\uc9c0\uc131\uc57d\uad6d", "lat": "36.03142873072749", "lng": "129.36465519292113", "url": "/info/%EC%A7%80%EC%84%B1%EC%95%BD%EA%B5%AD-%EA%B2%BD%EC%83%81%EB%B6%81%EB%8F%84-%ED%8F%AC%ED%95%AD%EC%8B%9C-%EC%A3%BD%EB%8F%84%EB%8F%99/", "workingTime": ["-", "09:00~20:00", "09:00~20:00", "09:00~20:00", "09:00~20:00", "09:00~20:00", "09:00~18:00", "-"]}, {"name": "\uac70\ubd81\uc774\uc57d\uad6d", "lat": "36.03206946871024", "lng": "129.36576985585162", "url": "/info/%EA%B1%B0%EB%B6%81%EC%9D%B4%EC%95%BD%EA%B5%AD-%EA%B2%BD%EC%83%81%EB%B6%81%EB%8F%84-%ED%8F%AC%ED%95%AD%EC%8B%9C-%EC%A3%BD%EB%8F%84%EB%8F%99/", "workingTime": ["1,2,3,4,5\uc9f8\uc8fc11:00~22:00", "09:00~22:00", "09:00~22:00", "09:00~22:00", "09:00~22:00", "09:00~22:00", "09:00~22:00", "09:00~22:00"]}, {"name": "\ud3ec\ud56d\uc138\uba85\uc57d\uad6d", "lat": "36.034557569207884", "lng": "129.36572050200488", "url": "/info/%ED%8F%AC%ED%95%AD%EC%84%B8%EB%AA%85%EC%95%BD%EA%B5%AD-%EA%B2%BD%EC%83%81%EB%B6%81%EB%8F%84-%ED%8F%AC%ED%95%AD%EC%8B%9C-%EC%A3%BD%EB%8F%84%EB%8F%99/", "workingTime": ["-", "06:00~19:00", "06:00~19:00", "06:00~19:00", "06:00~19:00", "06:00~19:00", "06:00~18:00", "-"]}, {"name": "\ud3ec\ud56d\uc81c\uc77c\uc57d\uad6d", "lat": "36.0312957717", "lng": "129.3644537553", "url": "/info/%ED%8F%AC%ED%95%AD%EC%A0%9C%EC%9D%BC%EC%95%BD%EA%B5%AD-%EA%B2%BD%EC%83%81%EB%B6%81%EB%8F%84-%ED%8F%AC%ED%95%AD%EC%8B%9C-%EC%A3%BD%EB%8F%84%EB%8F%99/", "workingTime": ["-", "09:00~20:00", "09:00~20:00", "09:00~20:00", "09:00~20:00", "09:00~20:00", "09:00~16:00", "-"]}, {"name": "\ud558\ub098\uc57d\uad6d", "lat": "36.020083955367014", "lng": "129.3552702121426", "url": "/info/%ED%95%98%EB%82%98%EC%95%BD%EA%B5%AD-%EA%B2%BD%EC%83%81%EB%B6%81%EB%8F%84-%ED%8F%AC%ED%95%AD%EC%8B%9C-%EC%A3%BD%EB%8F%84%EB%8F%99/", "workingTime": ["-", "09:00~20:00", "09:00~20:00", "09:00~20:00", "09:00~20:00", "09:00~20:00", "09:00~16:00", "-"]}, {"name": "\uc9c4\uc57d\uad6d", "lat": "36.0317022837", "lng": "129.3648563653", "url": "/info/%EC%A7%84%EC%95%BD%EA%B5%AD-%EA%B2%BD%EC%83%81%EB%B6%81%EB%8F%84-%ED%8F%AC%ED%95%AD%EC%8B%9C-%EC%A3%BD%EB%8F%84%EB%8F%99/", "workingTime": ["-", "09:00~18:30", "09:00~18:30", "09:00~18:30", "09:00~18:30", "09:00~18:30", "09:00~13:00", "-"]}, {"name": "\ubc31\uc57d\uad6d", "lat": "36.0327847141044", "lng": "129.36534131748564", "url": "/info/%EB%B0%B1%EC%95%BD%EA%B5%AD-%EA%B2%BD%EC%83%81%EB%B6%81%EB%8F%84-%ED%8F%AC%ED%95%AD%EC%8B%9C-%EC%A3%BD%EB%8F%84%EB%8F%99/", "workingTime": ["-", "09:00~18:30", "09:00~18:30", "09:00~18:30", "09:00~18:30", "09:00~18:30", "09:00~13:00", "-"]}, {"name": "\ud070\uc0ac\ub791\uc57d\uad6d", "lat": "36.026576420528876", "lng": "129.3606809403536", "url": "/info/%ED%81%B0%EC%82%AC%EB%9E%91%EC%95%BD%EA%B5%AD-%EA%B2%BD%EC%83%81%EB%B6%81%EB%8F%84-%ED%8F%AC%ED%95%AD%EC%8B%9C-%EC%A3%BD%EB%8F%84%EB%8F%99/", "workingTime": ["-", "09:00~18:00", "09:00~18:00", "09:00~18:00", "09:00~18:00", "09:00~18:00", "09:00~13:00", "-"]}, {"name": "\uc218\uc5f0\uc57d\uad6d", "lat": "36.0190301599284", "lng": "129.357595166731", "url": "/info/%EC%88%98%EC%97%B0%EC%95%BD%EA%B5%AD-%EA%B2%BD%EC%83%81%EB%B6%81%EB%8F%84-%ED%8F%AC%ED%95%AD%EC%8B%9C-%EC%A3%BD%EB%8F%84%EB%8F%99/", "workingTime": ["-", "-", "-", "-", "-", "-", "-", "-"]}, {"name": "\ubaa8\uc544\uc57d\uad6d", "lat": "36.0631176946543", "lng": "129.371538069875", "url": "/info/%EB%AA%A8%EC%95%84%EC%95%BD%EA%B5%AD-%EA%B2%BD%EC%83%81%EB%B6%81%EB%8F%84-%ED%8F%AC%ED%95%AD%EC%8B%9C-%EC%A3%BD%EB%8F%84%EB%8F%99/", "workingTime": ["-", "09:00~19:00", "09:00~19:00", "09:00~19:00", "09:00~19:00", "09:00~19:00", "09:00~13:00", "-"]}, {"name": "\ud5ec\uc2a4\ud50c\ub7ec\uc2a4\uc57d\uad6d", "lat": "36.03074808654608", "lng": "129.3640824242905", "url": "/info/%ED%97%AC%EC%8A%A4%ED%94%8C%EB%9F%AC%EC%8A%A4%EC%95%BD%EA%B5%AD-%EA%B2%BD%EC%83%81%EB%B6%81%EB%8F%84-%ED%8F%AC%ED%95%AD%EC%8B%9C-%EC%A3%BD%EB%8F%84%EB%8F%99/", "workingTime": ["-", "09:00~18:30", "09:00~18:30", "09:00~18:30", "09:00~18:30", "09:00~18:30", "09:00~13:00", "-"]}, {"name": "\ub298\ud478\ub978\uc57d\uad6d", "lat": "36.02915592134627", "lng": "129.36274114394632", "url": "/info/%EB%8A%98%ED%91%B8%EB%A5%B8%EC%95%BD%EA%B5%AD-%EA%B2%BD%EC%83%81%EB%B6%81%EB%8F%84-%ED%8F%AC%ED%95%AD%EC%8B%9C-%EC%A3%BD%EB%8F%84%EB%8F%99/", "workingTime": ["-", "09:00~18:00", "09:00~18:00", "09:00~18:00", "09:00~18:00", "09:00~18:00", "-", "-"]}, {"name": "\uc138\uc6d0\uc57d\uad6d", "lat": "36.03093209712402", "lng": "129.36697374780726", "url": "/info/%EC%84%B8%EC%9B%90%EC%95%BD%EA%B5%AD-%EA%B2%BD%EC%83%81%EB%B6%81%EB%8F%84-%ED%8F%AC%ED%95%AD%EC%8B%9C-%EC%A3%BD%EB%8F%84%EB%8F%99/", "workingTime": ["-", "09:00~17:00", "09:00~17:00", "09:00~17:00", "09:00~17:00", "09:00~17:00", "-", "-"]}, {"name": "\uc2a4\ub9c8\uc77c\uc57d\uad6d", "lat": "36.02353633229587", "lng": "129.3589487604772", "url": "/info/%EC%8A%A4%EB%A7%88%EC%9D%BC%EC%95%BD%EA%B5%AD-%EA%B2%BD%EC%83%81%EB%B6%81%EB%8F%84-%ED%8F%AC%ED%95%AD%EC%8B%9C-%EC%A3%BD%EB%8F%84%EB%8F%99/", "workingTime": ["-", "08:30~18:30", "08:30~18:30", "08:30~18:30", "08:30~18:30", "08:30~18:30", "08:30~13:00", "-"]}, {"name": "\uc624\uac70\ub9ac\uc57d\uad6d", "lat": "36.03246689079127", "lng": "129.36555809785995", "url": "/info/%EC%98%A4%EA%B1%B0%EB%A6%AC%EC%95%BD%EA%B5%AD-%EA%B2%BD%EC%83%81%EB%B6%81%EB%8F%84-%ED%8F%AC%ED%95%AD%EC%8B%9C-%EC%A3%BD%EB%8F%84%EB%8F%99/", "workingTime": ["1,2,3,4,5\uc9f8\uc8fc08:30~00:30", "08:30~00:30", "08:30~00:30", "08:30~00:30", "08:30~00:30", "08:30~00:30", "08:30~00:30", "08:30~00:30"]}, {"name": "\uc7a5\uc57d\uad6d", "lat": "36.033416954600135", "lng": "129.3660380115421", "url": "/info/%EC%9E%A5%EC%95%BD%EA%B5%AD-%EA%B2%BD%EC%83%81%EB%B6%81%EB%8F%84-%ED%8F%AC%ED%95%AD%EC%8B%9C-%EC%A3%BD%EB%8F%84%EB%8F%99/", "workingTime": ["-", "09:00~18:00", "09:00~18:00", "09:00~18:00", "09:00~18:00", "09:00~18:00", "09:00~13:00", "-"]}, {"name": "\uc990\uac70\uc6b4\uc57d\uad6d", "lat": "36.033018117919504", "lng": "129.3664593372023", "url": "/info/%EC%A6%90%EA%B1%B0%EC%9A%B4%EC%95%BD%EA%B5%AD-%EA%B2%BD%EC%83%81%EB%B6%81%EB%8F%84-%ED%8F%AC%ED%95%AD%EC%8B%9C-%EC%A3%BD%EB%8F%84%EB%8F%99/", "workingTime": ["-", "09:00~13:00", "09:00~13:00", "09:00~13:00", "09:00~13:00", "09:00~13:00", "09:00~13:00", "-"]}, {"name": "\ud55c\ub3c5\uc57d\uad6d", "lat": "36.03335174518383", "lng": "129.36617203374126", "url": "/info/%ED%95%9C%EB%8F%85%EC%95%BD%EA%B5%AD-%EA%B2%BD%EC%83%81%EB%B6%81%EB%8F%84-%ED%8F%AC%ED%95%AD%EC%8B%9C-%EC%A3%BD%EB%8F%84%EB%8F%99/", "workingTime": ["-", "09:00~17:30", "09:00~17:30", "09:00~17:30", "09:00~17:30", "09:00~17:30", "09:00~12:30", "-"]}, {"name": "\ud55c\uc0ac\ub791\uc57d\uad6d", "lat": "36.0335029106", "lng": "129.3645596915", "url": "/info/%ED%95%9C%EC%82%AC%EB%9E%91%EC%95%BD%EA%B5%AD-%EA%B2%BD%EC%83%81%EB%B6%81%EB%8F%84-%ED%8F%AC%ED%95%AD%EC%8B%9C-%EC%A3%BD%EB%8F%84%EB%8F%99/", "workingTime": ["1,2,3,4,5\uc9f8\uc8fc15:30~18:00", "08:00~18:00", "08:00~18:00", "08:00~18:00", "08:00~18:00", "08:00~18:00", "08:00~12:00", "-"]}, {"name": "\ud5e4\uc138\ub4dc \uc628\ub204\ub9ac \uc57d\uad6d", "lat": "36.022036223018794", "lng": "129.35814450386348", "url": "/info/%ED%97%A4%EC%84%B8%EB%93%9C+%EC%98%A8%EB%88%84%EB%A6%AC+%EC%95%BD%EA%B5%AD-%EA%B2%BD%EC%83%81%EB%B6%81%EB%8F%84-%ED%8F%AC%ED%95%AD%EC%8B%9C-%EC%A3%BD%EB%8F%84%EB%8F%99/", "workingTime": ["-", "09:00~18:30", "09:00~18:30", "09:00~18:30", "09:00~18:30", "09:00~18:30", "09:00~13:00", "-"]}, {"name": "\ud76c\ub9dd\uc57d\uad6d", "lat": "36.027491915154115", "lng": "129.35749413885398", "url": "/info/%ED%9D%AC%EB%A7%9D%EC%95%BD%EA%B5%AD-%EA%B2%BD%EC%83%81%EB%B6%81%EB%8F%84-%ED%8F%AC%ED%95%AD%EC%8B%9C-%EC%A3%BD%EB%8F%84%EB%8F%99/", "workingTime": ["-", "00:00~00:01", "00:00~00:01", "00:00~00:01", "00:00~00:01", "00:00~00:01", "-", "-"]}, {"name": "\ud798\ucc2c\uc57d\uad6d", "lat": "36.01948636533017", "lng": "129.3550772985679", "url": "/info/%ED%9E%98%EC%B0%AC%EC%95%BD%EA%B5%AD-%EA%B2%BD%EC%83%81%EB%B6%81%EB%8F%84-%ED%8F%AC%ED%95%AD%EC%8B%9C-%EC%A3%BD%EB%8F%84%EB%8F%99/", "workingTime": ["-", "09:00~18:00", "09:00~18:00", "09:00~18:00", "09:00~18:00", "09:00~18:00", "09:00~13:00", "-"]}]