[{"name": "\uac10\uacc4\ud2bc\ud2bc\uc57d\uad6d", "lat": "35.3015720782349", "lng": "128.59431444442", "url": "/info/%EA%B0%90%EA%B3%84%ED%8A%BC%ED%8A%BC%EC%95%BD%EA%B5%AD-%EA%B2%BD%EC%83%81%EB%82%A8%EB%8F%84-%EC%B0%BD%EC%9B%90%EC%8B%9C-%EB%B6%81%EB%A9%B4/", "workingTime": ["-", "09:00~21:00", "09:00~21:00", "09:00~21:00", "09:00~21:00", "09:00~21:00", "09:00~18:30", "-"]}, {"name": "\uac10\uacc4\ubbf8\uc18c\uc57d\uad6d", "lat": "35.3015558358", "lng": "128.5955594563", "url": "/info/%EA%B0%90%EA%B3%84%EB%AF%B8%EC%86%8C%EC%95%BD%EA%B5%AD-%EA%B2%BD%EC%83%81%EB%82%A8%EB%8F%84-%EC%B0%BD%EC%9B%90%EC%8B%9C-%EB%B6%81%EB%A9%B4/", "workingTime": ["-", "09:00~20:00", "09:00~20:00", "09:00~20:00", "09:00~20:00", "09:00~20:00", "09:00~17:00", "-"]}, {"name": "2\uce35\ud558\ub298\uc57d\uad6d", "lat": "35.3172244387", "lng": "128.5852851528", "url": "/info/2%EC%B8%B5%ED%95%98%EB%8A%98%EC%95%BD%EA%B5%AD-%EA%B2%BD%EC%83%81%EB%82%A8%EB%8F%84-%EC%B0%BD%EC%9B%90%EC%8B%9C-%EB%B6%81%EB%A9%B4/", "workingTime": ["-", "10:00~18:00", "10:00~18:00", "10:00~18:00", "10:00~18:00", "10:00~18:00", "10:00~15:00", "-"]}, {"name": "\ud55c\uc131\uc57d\uad6d", "lat": "35.301941741277794", "lng": "128.5936321888937", "url": "/info/%ED%95%9C%EC%84%B1%EC%95%BD%EA%B5%AD-%EA%B2%BD%EC%83%81%EB%82%A8%EB%8F%84-%EC%B0%BD%EC%9B%90%EC%8B%9C-%EB%B6%81%EB%A9%B4/", "workingTime": ["-", "09:00~19:00", "09:00~19:00", "09:00~19:00", "09:00~19:00", "09:00~19:00", "09:00~15:00", "-"]}, {"name": "\uc5f4\ub9b0\uc57d\uad6d", "lat": "35.305279024580095", "lng": "128.59642852692497", "url": "/info/%EC%97%B4%EB%A6%B0%EC%95%BD%EA%B5%AD-%EA%B2%BD%EC%83%81%EB%82%A8%EB%8F%84-%EC%B0%BD%EC%9B%90%EC%8B%9C-%EB%B6%81%EB%A9%B4/", "workingTime": ["1,2,3,4,5\uc9f8\uc8fc10:00~22:00", "10:00~22:00", "10:00~22:00", "10:00~22:00", "10:00~22:00", "10:00~22:00", "10:00~22:00", "10:00~22:00"]}, {"name": "\uac10\uacc4\ud604\ub300\uc57d\uad6d", "lat": "35.30188019146572", "lng": "128.5955658252352", "url": "/info/%EA%B0%90%EA%B3%84%ED%98%84%EB%8C%80%EC%95%BD%EA%B5%AD-%EA%B2%BD%EC%83%81%EB%82%A8%EB%8F%84-%EC%B0%BD%EC%9B%90%EC%8B%9C-%EB%B6%81%EB%A9%B4/", "workingTime": ["-", "09:00~19:00", "09:00~19:00", "09:00~19:00", "09:00~19:00", "09:00~19:00", "09:00~15:00", "-"]}, {"name": "\ub9c8\uae08\uc0b0\uc57d\uad6d", "lat": "35.34710074902392", "lng": "128.60779420495035", "url": "/info/%EB%A7%88%EA%B8%88%EC%82%B0%EC%95%BD%EA%B5%AD-%EA%B2%BD%EC%83%81%EB%82%A8%EB%8F%84-%EC%B0%BD%EC%9B%90%EC%8B%9C-%EB%B6%81%EB%A9%B4/", "workingTime": ["2,4\uc9f8\uc8fc12:00~18:00", "08:30~20:15", "08:30~20:15", "08:30~20:15", "08:30~20:15", "08:30~20:15", "08:30~18:30", "08:30~18:30"]}, {"name": "\ud574\ub2d8\uc57d\uad6d", "lat": "35.3015558358", "lng": "128.5955594563", "url": "/info/%ED%95%B4%EB%8B%98%EC%95%BD%EA%B5%AD-%EA%B2%BD%EC%83%81%EB%82%A8%EB%8F%84-%EC%B0%BD%EC%9B%90%EC%8B%9C-%EB%B6%81%EB%A9%B4/", "workingTime": ["-", "09:00~19:00", "09:00~20:00", "09:00~19:00", "09:00~19:00", "09:00~20:00", "-", "-"]}, {"name": "\uc560\ud50c\uc57d\uad6d", "lat": "35.301980063", "lng": "128.5940067175", "url": "/info/%EC%95%A0%ED%94%8C%EC%95%BD%EA%B5%AD-%EA%B2%BD%EC%83%81%EB%82%A8%EB%8F%84-%EC%B0%BD%EC%9B%90%EC%8B%9C-%EB%B6%81%EB%A9%B4/", "workingTime": ["-", "09:00~18:30", "09:00~18:30", "09:00~13:00", "09:00~18:30", "09:00~18:30", "09:00~13:00", "-"]}, {"name": "\uc11c\uc815\uc57d\uad6d", "lat": "35.3019615899", "lng": "128.5943141715", "url": "/info/%EC%84%9C%EC%A0%95%EC%95%BD%EA%B5%AD-%EA%B2%BD%EC%83%81%EB%82%A8%EB%8F%84-%EC%B0%BD%EC%9B%90%EC%8B%9C-%EB%B6%81%EB%A9%B4/", "workingTime": ["-", "09:00~19:00", "09:00~19:00", "09:00~19:00", "09:00~19:00", "09:00~19:00", "-", "-"]}, {"name": "\ubb34\ub3d9\ud2bc\ud2bc\uc57d\uad6d", "lat": "35.31794528849533", "lng": "128.5852948259689", "url": "/info/%EB%AC%B4%EB%8F%99%ED%8A%BC%ED%8A%BC%EC%95%BD%EA%B5%AD-%EA%B2%BD%EC%83%81%EB%82%A8%EB%8F%84-%EC%B0%BD%EC%9B%90%EC%8B%9C-%EB%B6%81%EB%A9%B4/", "workingTime": ["-", "09:00~19:00", "09:00~19:00", "09:00~19:00", "09:00~19:00", "09:00~19:00", "09:00~13:00", "-"]}, {"name": "\uc0c8\ubd81\uba74\uc628\ucc9c\uc57d\uad6d", "lat": "35.3537547425", "lng": "128.6088534274", "url": "/info/%EC%83%88%EB%B6%81%EB%A9%B4%EC%98%A8%EC%B2%9C%EC%95%BD%EA%B5%AD-%EA%B2%BD%EC%83%81%EB%82%A8%EB%8F%84-%EC%B0%BD%EC%9B%90%EC%8B%9C-%EB%B6%81%EB%A9%B4/", "workingTime": ["-", "09:00~18:00", "09:00~18:00", "09:00~18:00", "09:00~18:00", "09:00~18:00", "09:00~13:00", "09:00~13:00"]}, {"name": "\uac10\uacc4\ud558\ub298\uc57d\uad6d", "lat": "35.30155583579292", "lng": "128.59555945631257", "url": "/info/%EA%B0%90%EA%B3%84%ED%95%98%EB%8A%98%EC%95%BD%EA%B5%AD-%EA%B2%BD%EC%83%81%EB%82%A8%EB%8F%84-%EC%B0%BD%EC%9B%90%EC%8B%9C-%EB%B6%81%EB%A9%B4/", "workingTime": ["-", "09:00~19:00", "09:00~19:00", "09:00~19:00", "09:00~19:00", "09:00~19:00", "-", "-"]}]