[{"name": "\uc0ac\ub3d9\uc6b0\ub9ac\uc57d\uad6d", "lat": "35.815434173807944", "lng": "128.75727720836028", "url": "/info/%EC%82%AC%EB%8F%99%EC%9A%B0%EB%A6%AC%EC%95%BD%EA%B5%AD-%EA%B2%BD%EC%83%81%EB%B6%81%EB%8F%84-%EA%B2%BD%EC%82%B0%EC%8B%9C-%EC%82%AC%EB%8F%99/", "workingTime": ["-", "09:00~13:00", "09:00~13:00", "09:00~13:00", "09:00~13:00", "09:00~13:00", "09:00~13:00", "-"]}, {"name": "\uadf8\ub9b0\uc57d\uad6d", "lat": "35.8119798990993", "lng": "128.754568661637", "url": "/info/%EA%B7%B8%EB%A6%B0%EC%95%BD%EA%B5%AD-%EA%B2%BD%EC%83%81%EB%B6%81%EB%8F%84-%EA%B2%BD%EC%82%B0%EC%8B%9C-%EC%82%AC%EB%8F%99/", "workingTime": ["-", "09:00~19:00", "09:00~19:00", "09:00~19:00", "09:00~19:00", "09:00~19:00", "09:00~14:00", "-"]}, {"name": "\ud558\ub098\uc57d\uad6d", "lat": "35.8127383847071", "lng": "128.75521617563", "url": "/info/%ED%95%98%EB%82%98%EC%95%BD%EA%B5%AD-%EA%B2%BD%EC%83%81%EB%B6%81%EB%8F%84-%EA%B2%BD%EC%82%B0%EC%8B%9C-%EC%82%AC%EB%8F%99/", "workingTime": ["-", "09:00~19:00", "09:00~19:00", "09:00~19:00", "09:00~19:00", "09:00~19:00", "09:00~14:00", "-"]}, {"name": "\ubc1d\uc740\uc57d\uad6d", "lat": "35.811437294164996", "lng": "128.75478096888597", "url": "/info/%EB%B0%9D%EC%9D%80%EC%95%BD%EA%B5%AD-%EA%B2%BD%EC%83%81%EB%B6%81%EB%8F%84-%EA%B2%BD%EC%82%B0%EC%8B%9C-%EC%82%AC%EB%8F%99/", "workingTime": ["-", "09:00~20:00", "09:00~20:00", "09:00~20:00", "09:00~20:00", "09:00~20:00", "09:00~17:00", "09:00~13:00"]}, {"name": "\ubbf8\ub798\uc57d\uad6d", "lat": "35.8125076883", "lng": "128.7557780839", "url": "/info/%EB%AF%B8%EB%9E%98%EC%95%BD%EA%B5%AD-%EA%B2%BD%EC%83%81%EB%B6%81%EB%8F%84-%EA%B2%BD%EC%82%B0%EC%8B%9C-%EC%82%AC%EB%8F%99/", "workingTime": ["-", "09:00~19:00", "09:00~19:00", "09:00~19:00", "09:00~19:00", "09:00~19:00", "09:00~14:00", "09:00~13:00"]}, {"name": "\ud587\uc0b4\uc57d\uad6d", "lat": "35.811408597717445", "lng": "128.75920644521076", "url": "/info/%ED%96%87%EC%82%B4%EC%95%BD%EA%B5%AD-%EA%B2%BD%EC%83%81%EB%B6%81%EB%8F%84-%EA%B2%BD%EC%82%B0%EC%8B%9C-%EC%82%AC%EB%8F%99/", "workingTime": ["-", "09:00~19:00", "09:00~19:00", "09:00~19:00", "09:00~19:00", "09:00~19:00", "09:00~14:00", "09:00~13:00"]}, {"name": "\ud558\ub098\ub85c\uc57d\uad6d", "lat": "35.81758466145899", "lng": "128.7531734319282", "url": "/info/%ED%95%98%EB%82%98%EB%A1%9C%EC%95%BD%EA%B5%AD-%EA%B2%BD%EC%83%81%EB%B6%81%EB%8F%84-%EA%B2%BD%EC%82%B0%EC%8B%9C-%EC%82%AC%EB%8F%99/", "workingTime": ["-", "09:00~20:00", "09:00~20:00", "09:00~20:00", "09:00~20:00", "09:00~20:00", "09:00~18:00", "-"]}, {"name": "\ub3d9\ubc29\uc57d\uad6d", "lat": "35.81724550428354", "lng": "128.7529491303494", "url": "/info/%EB%8F%99%EB%B0%A9%EC%95%BD%EA%B5%AD-%EA%B2%BD%EC%83%81%EB%B6%81%EB%8F%84-%EA%B2%BD%EC%82%B0%EC%8B%9C-%EC%82%AC%EB%8F%99/", "workingTime": ["-", "09:00~19:00", "09:00~19:00", "09:00~19:00", "09:00~19:00", "09:00~19:00", "09:00~14:00", "09:00~13:00"]}, {"name": "\uac10\ucd08\ub2f9\uc57d\uad6d", "lat": "35.81752714462954", "lng": "128.75291548813334", "url": "/info/%EA%B0%90%EC%B4%88%EB%8B%B9%EC%95%BD%EA%B5%AD-%EA%B2%BD%EC%83%81%EB%B6%81%EB%8F%84-%EA%B2%BD%EC%82%B0%EC%8B%9C-%EC%82%AC%EB%8F%99/", "workingTime": ["1,2,3,4,5\uc9f8\uc8fc08:30~20:30", "08:30~20:30", "08:30~20:30", "08:30~20:30", "08:30~20:30", "08:30~20:30", "08:30~20:30", "08:30~20:30"]}, {"name": "\uacbd\ub300\uc57d\uad6d", "lat": "35.8151445058937", "lng": "128.764174944332", "url": "/info/%EA%B2%BD%EB%8C%80%EC%95%BD%EA%B5%AD-%EA%B2%BD%EC%83%81%EB%B6%81%EB%8F%84-%EA%B2%BD%EC%82%B0%EC%8B%9C-%EC%82%AC%EB%8F%99/", "workingTime": ["-", "09:00~17:30", "09:00~17:30", "09:00~17:30", "09:00~17:30", "09:00~17:30", "-", "-"]}]