[{"name": "\uc624\uac70\ub9ac\uc57d\uad6d", "lat": "35.824526991309334", "lng": "128.7369847681246", "url": "/info/%EC%98%A4%EA%B1%B0%EB%A6%AC%EC%95%BD%EA%B5%AD-%EA%B2%BD%EC%83%81%EB%B6%81%EB%8F%84-%EA%B2%BD%EC%82%B0%EC%8B%9C-%EC%A4%91%EB%B0%A9%EB%8F%99/", "workingTime": ["1,2,3,4,5\uc9f8\uc8fc09:30~12:30", "08:30~18:30", "08:30~18:30", "08:30~18:30", "08:30~18:30", "08:30~18:30", "08:30~12:30", "10:00~13:00"]}, {"name": "\uc7a5\uc57d\uad6d", "lat": "35.828189868511764", "lng": "128.7359720404196", "url": "/info/%EC%9E%A5%EC%95%BD%EA%B5%AD-%EA%B2%BD%EC%83%81%EB%B6%81%EB%8F%84-%EA%B2%BD%EC%82%B0%EC%8B%9C-%EC%A4%91%EB%B0%A9%EB%8F%99/", "workingTime": ["-", "09:00~19:00", "09:00~19:00", "09:00~19:00", "09:00~19:00", "09:00~19:00", "09:00~14:00", "09:00~14:00"]}, {"name": "\uc7a5\uc218\uc57d\uad6d", "lat": "35.823614674498735", "lng": "128.73769626386337", "url": "/info/%EC%9E%A5%EC%88%98%EC%95%BD%EA%B5%AD-%EA%B2%BD%EC%83%81%EB%B6%81%EB%8F%84-%EA%B2%BD%EC%82%B0%EC%8B%9C-%EC%A4%91%EB%B0%A9%EB%8F%99/", "workingTime": ["-", "09:00~18:30", "09:00~18:30", "09:00~18:30", "09:00~18:30", "09:00~18:30", "09:00~15:00", "-"]}, {"name": "\uc0c8\uacbd\ubd81\uc57d\uad6d", "lat": "35.82298601168393", "lng": "128.73565077959128", "url": "/info/%EC%83%88%EA%B2%BD%EB%B6%81%EC%95%BD%EA%B5%AD-%EA%B2%BD%EC%83%81%EB%B6%81%EB%8F%84-%EA%B2%BD%EC%82%B0%EC%8B%9C-%EC%A4%91%EB%B0%A9%EB%8F%99/", "workingTime": ["1\uc9f8\uc8fc09:00~19:00", "08:00~20:00", "08:00~20:00", "08:00~20:00", "08:00~20:00", "08:00~20:00", "08:00~20:00", "08:00~20:00"]}, {"name": "\uacbd\uc0b0\uc911\uc559\uc57d\uad6d", "lat": "35.823531664180706", "lng": "128.73583445757026", "url": "/info/%EA%B2%BD%EC%82%B0%EC%A4%91%EC%95%99%EC%95%BD%EA%B5%AD-%EA%B2%BD%EC%83%81%EB%B6%81%EB%8F%84-%EA%B2%BD%EC%82%B0%EC%8B%9C-%EC%A4%91%EB%B0%A9%EB%8F%99/", "workingTime": ["-", "07:40~19:00", "07:40~19:00", "07:40~19:00", "07:40~19:00", "07:40~19:00", "09:00~17:00", "09:00~17:00"]}, {"name": "\uc635\ud2f0\ub9c8\uc81c\uc77c\uc57d\uad6d", "lat": "35.82339089798538", "lng": "128.73559683656708", "url": "/info/%EC%98%B5%ED%8B%B0%EB%A7%88%EC%A0%9C%EC%9D%BC%EC%95%BD%EA%B5%AD-%EA%B2%BD%EC%83%81%EB%B6%81%EB%8F%84-%EA%B2%BD%EC%82%B0%EC%8B%9C-%EC%A4%91%EB%B0%A9%EB%8F%99/", "workingTime": ["2,4\uc9f8\uc8fc09:00~17:00", "08:00~19:00", "08:00~19:00", "08:00~19:00", "08:00~19:00", "08:00~19:00", "08:00~18:00", "-"]}, {"name": "\ud604\ub300\uc57d\uad6d", "lat": "35.822873193986936", "lng": "128.73547571778116", "url": "/info/%ED%98%84%EB%8C%80%EC%95%BD%EA%B5%AD-%EA%B2%BD%EC%83%81%EB%B6%81%EB%8F%84-%EA%B2%BD%EC%82%B0%EC%8B%9C-%EC%A4%91%EB%B0%A9%EB%8F%99/", "workingTime": ["-", "08:30~19:30", "08:30~19:30", "08:30~19:30", "08:30~19:30", "08:30~19:30", "08:30~15:00", "-"]}, {"name": "\ubbf8\uad11\uc57d\uad6d", "lat": "35.823257640330105", "lng": "128.7353114731254", "url": "/info/%EB%AF%B8%EA%B4%91%EC%95%BD%EA%B5%AD-%EA%B2%BD%EC%83%81%EB%B6%81%EB%8F%84-%EA%B2%BD%EC%82%B0%EC%8B%9C-%EC%A4%91%EB%B0%A9%EB%8F%99/", "workingTime": ["-", "09:00~19:00", "09:00~19:00", "09:00~19:00", "09:00~19:00", "09:00~19:00", "09:00~15:00", "-"]}, {"name": "\uc5f4\ub9b0\uc57d\uad6d", "lat": "35.82266932437442", "lng": "128.73514407174991", "url": "/info/%EC%97%B4%EB%A6%B0%EC%95%BD%EA%B5%AD-%EA%B2%BD%EC%83%81%EB%B6%81%EB%8F%84-%EA%B2%BD%EC%82%B0%EC%8B%9C-%EC%A4%91%EB%B0%A9%EB%8F%99/", "workingTime": ["-", "09:00~18:30", "09:00~18:30", "09:00~18:30", "09:00~18:30", "09:00~18:30", "09:00~15:00", "-"]}, {"name": "\ud070\uacbd\ubd81\uc57d\uad6d", "lat": "35.822154000289224", "lng": "128.7338579370437", "url": "/info/%ED%81%B0%EA%B2%BD%EB%B6%81%EC%95%BD%EA%B5%AD-%EA%B2%BD%EC%83%81%EB%B6%81%EB%8F%84-%EA%B2%BD%EC%82%B0%EC%8B%9C-%EC%A4%91%EB%B0%A9%EB%8F%99/", "workingTime": ["-", "10:00~19:00", "10:00~19:00", "10:00~19:00", "10:00~19:00", "10:00~19:00", "10:00~19:00", "10:00~19:00"]}, {"name": "\uac74\uac15\uc57d\uad6d", "lat": "35.82579704549336", "lng": "128.73745946026244", "url": "/info/%EA%B1%B4%EA%B0%95%EC%95%BD%EA%B5%AD-%EA%B2%BD%EC%83%81%EB%B6%81%EB%8F%84-%EA%B2%BD%EC%82%B0%EC%8B%9C-%EC%A4%91%EB%B0%A9%EB%8F%99/", "workingTime": ["-", "08:30~19:00", "08:30~19:00", "08:30~19:00", "08:30~19:00", "08:30~19:00", "08:30~13:00", "-"]}, {"name": "\ud55c\ube5b\uc57d\uad6d", "lat": "35.82483400454629", "lng": "128.7367266566393", "url": "/info/%ED%95%9C%EB%B9%9B%EC%95%BD%EA%B5%AD-%EA%B2%BD%EC%83%81%EB%B6%81%EB%8F%84-%EA%B2%BD%EC%82%B0%EC%8B%9C-%EC%A4%91%EB%B0%A9%EB%8F%99/", "workingTime": ["-", "09:00~18:30", "09:00~18:30", "09:00~18:30", "09:00~18:30", "09:00~18:30", "09:00~12:30", "-"]}, {"name": "\uacbd\uc0b0\uc81c\uc77c\uc57d\uad6d", "lat": "35.8258416768402", "lng": "128.737585108263", "url": "/info/%EA%B2%BD%EC%82%B0%EC%A0%9C%EC%9D%BC%EC%95%BD%EA%B5%AD-%EA%B2%BD%EC%83%81%EB%B6%81%EB%8F%84-%EA%B2%BD%EC%82%B0%EC%8B%9C-%EC%A4%91%EB%B0%A9%EB%8F%99/", "workingTime": ["-", "09:00~18:00", "09:00~18:00", "09:00~18:00", "09:00~18:00", "09:00~18:00", "09:00~13:00", "-"]}, {"name": "\uc6b0\ub9ac\uc57d\uad6d", "lat": "35.8259246652071", "lng": "128.73698314226254", "url": "/info/%EC%9A%B0%EB%A6%AC%EC%95%BD%EA%B5%AD-%EA%B2%BD%EC%83%81%EB%B6%81%EB%8F%84-%EA%B2%BD%EC%82%B0%EC%8B%9C-%EC%A4%91%EB%B0%A9%EB%8F%99/", "workingTime": ["-", "09:00~18:00", "09:00~18:00", "09:00~18:00", "09:00~18:00", "09:00~18:00", "09:00~13:00", "-"]}, {"name": "\uc0c8\uc0dd\uba85\uc57d\uad6d", "lat": "35.8257217375", "lng": "128.7371834058", "url": "/info/%EC%83%88%EC%83%9D%EB%AA%85%EC%95%BD%EA%B5%AD-%EA%B2%BD%EC%83%81%EB%B6%81%EB%8F%84-%EA%B2%BD%EC%82%B0%EC%8B%9C-%EC%A4%91%EB%B0%A9%EB%8F%99/", "workingTime": ["-", "09:00~18:30", "09:00~18:30", "09:00~18:30", "09:00~18:30", "09:00~18:30", "09:00~13:00", "-"]}, {"name": "\ud558\ub298\uc57d\uad6d", "lat": "35.82567324249556", "lng": "128.73651920349184", "url": "/info/%ED%95%98%EB%8A%98%EC%95%BD%EA%B5%AD-%EA%B2%BD%EC%83%81%EB%B6%81%EB%8F%84-%EA%B2%BD%EC%82%B0%EC%8B%9C-%EC%A4%91%EB%B0%A9%EB%8F%99/", "workingTime": ["-", "09:00~19:00", "09:00~19:00", "09:00~19:00", "09:00~19:00", "09:00~19:00", "09:00~13:00", "-"]}, {"name": "\ucc38\uc870\uc740\uc57d\uad6d", "lat": "35.82553826689568", "lng": "128.73715729303785", "url": "/info/%EC%B0%B8%EC%A1%B0%EC%9D%80%EC%95%BD%EA%B5%AD-%EA%B2%BD%EC%83%81%EB%B6%81%EB%8F%84-%EA%B2%BD%EC%82%B0%EC%8B%9C-%EC%A4%91%EB%B0%A9%EB%8F%99/", "workingTime": ["1,2,3,4,5\uc9f8\uc8fc09:00~13:00", "08:30~21:00", "08:30~19:00", "08:30~19:00", "08:30~19:00", "08:30~21:00", "08:30~17:00", "09:00~13:00"]}, {"name": "\uacbd\uc0b0\uc885\ud569\uc57d\uad6d", "lat": "35.82486426241106", "lng": "128.73687779727746", "url": "/info/%EA%B2%BD%EC%82%B0%EC%A2%85%ED%95%A9%EC%95%BD%EA%B5%AD-%EA%B2%BD%EC%83%81%EB%B6%81%EB%8F%84-%EA%B2%BD%EC%82%B0%EC%8B%9C-%EC%A4%91%EB%B0%A9%EB%8F%99/", "workingTime": ["-", "09:00~18:30", "09:00~18:30", "09:00~18:30", "09:00~18:30", "09:00~18:30", "09:00~15:00", "09:30~12:00"]}, {"name": "\uc628\ub204\ub9ac\uc601\uc81c\uc57d\uad6d", "lat": "35.82476091778507", "lng": "128.7373218132754", "url": "/info/%EC%98%A8%EB%88%84%EB%A6%AC%EC%98%81%EC%A0%9C%EC%95%BD%EA%B5%AD-%EA%B2%BD%EC%83%81%EB%B6%81%EB%8F%84-%EA%B2%BD%EC%82%B0%EC%8B%9C-%EC%A4%91%EB%B0%A9%EB%8F%99/", "workingTime": ["-", "09:00~19:00", "09:00~19:00", "09:00~19:00", "09:00~19:00", "09:00~19:00", "09:00~13:00", "-"]}, {"name": "\uc0c8\ubcc4\uc57d\uad6d", "lat": "35.8242485732", "lng": "128.7376071655", "url": "/info/%EC%83%88%EB%B3%84%EC%95%BD%EA%B5%AD-%EA%B2%BD%EC%83%81%EB%B6%81%EB%8F%84-%EA%B2%BD%EC%82%B0%EC%8B%9C-%EC%A4%91%EB%B0%A9%EB%8F%99/", "workingTime": ["-", "08:30~18:30", "08:30~18:30", "08:30~13:00", "08:30~18:30", "08:30~18:30", "08:30~13:00", "-"]}, {"name": "\ud50c\ub7ec\uc2a4\uc57d\uad6d", "lat": "35.8328253100051", "lng": "128.735644623423", "url": "/info/%ED%94%8C%EB%9F%AC%EC%8A%A4%EC%95%BD%EA%B5%AD-%EA%B2%BD%EC%83%81%EB%B6%81%EB%8F%84-%EA%B2%BD%EC%82%B0%EC%8B%9C-%EC%A4%91%EB%B0%A9%EB%8F%99/", "workingTime": ["1,2,3,4,5\uc9f8\uc8fc10:00~22:00", "10:00~22:00", "10:00~22:00", "10:00~22:00", "10:00~22:00", "10:00~22:00", "10:00~22:00", "10:00~22:00"]}, {"name": "\uacbd\ubd81\uc5f0\ud569\uc57d\uad6d", "lat": "35.8236522679725", "lng": "128.736019320528", "url": "/info/%EA%B2%BD%EB%B6%81%EC%97%B0%ED%95%A9%EC%95%BD%EA%B5%AD-%EA%B2%BD%EC%83%81%EB%B6%81%EB%8F%84-%EA%B2%BD%EC%82%B0%EC%8B%9C-%EC%A4%91%EB%B0%A9%EB%8F%99/", "workingTime": ["-", "08:30~18:30", "08:30~18:30", "08:30~18:30", "08:30~18:30", "08:30~18:30", "08:30~14:00", "-"]}, {"name": "\ud76c\ub9dd\uc57d\uad6d", "lat": "", "lng": "", "url": "/info/%ED%9D%AC%EB%A7%9D%EC%95%BD%EA%B5%AD-%EA%B2%BD%EC%83%81%EB%B6%81%EB%8F%84-%EA%B2%BD%EC%82%B0%EC%8B%9C-%EC%A4%91%EB%B0%A9%EB%8F%99/", "workingTime": ["-", "-", "-", "-", "-", "-", "-", "-"]}]