[{"name": "\ud2bc\ud2bc\uc57d\uad6d", "lat": "36.08900847920837", "lng": "129.38721072563638", "url": "/info/%ED%8A%BC%ED%8A%BC%EC%95%BD%EA%B5%AD-%EA%B2%BD%EC%83%81%EB%B6%81%EB%8F%84-%ED%8F%AC%ED%95%AD%EC%8B%9C-%EC%96%91%EB%8D%95%EB%8F%99/", "workingTime": ["-", "09:30~15:00", "09:30~15:00", "09:30~15:00", "09:30~15:00", "09:30~15:00", "08:30~15:00", "-"]}, {"name": "\ucc38\uae30\uc068\uc57d\uad6d", "lat": "36.081498354163415", "lng": "129.39657342077658", "url": "/info/%EC%B0%B8%EA%B8%B0%EC%81%A8%EC%95%BD%EA%B5%AD-%EA%B2%BD%EC%83%81%EB%B6%81%EB%8F%84-%ED%8F%AC%ED%95%AD%EC%8B%9C-%EC%96%91%EB%8D%95%EB%8F%99/", "workingTime": ["-", "09:00~19:00", "09:00~19:00", "09:00~19:00", "09:00~19:00", "09:00~19:00", "09:00~15:00", "-"]}, {"name": "\uc138\uc885\uc57d\uad6d", "lat": "36.08286925118661", "lng": "129.40172084783848", "url": "/info/%EC%84%B8%EC%A2%85%EC%95%BD%EA%B5%AD-%EA%B2%BD%EC%83%81%EB%B6%81%EB%8F%84-%ED%8F%AC%ED%95%AD%EC%8B%9C-%EC%96%91%EB%8D%95%EB%8F%99/", "workingTime": ["-", "08:30~19:30", "08:30~19:30", "08:30~19:30", "08:30~19:30", "08:30~19:30", "08:30~17:00", "-"]}, {"name": "\uc591\ub355\uac74\uac15\ud55c\uc57d\uad6d", "lat": "36.083133394763905", "lng": "129.39715641288353", "url": "/info/%EC%96%91%EB%8D%95%EA%B1%B4%EA%B0%95%ED%95%9C%EC%95%BD%EA%B5%AD-%EA%B2%BD%EC%83%81%EB%B6%81%EB%8F%84-%ED%8F%AC%ED%95%AD%EC%8B%9C-%EC%96%91%EB%8D%95%EB%8F%99/", "workingTime": ["-", "09:00~19:30", "09:00~19:30", "09:00~19:30", "09:00~19:30", "09:00~19:30", "09:00~14:00", "-"]}, {"name": "\uc591\ub355\ubbf8\ub798\uc57d\uad6d", "lat": "36.0896487687", "lng": "129.3874521087", "url": "/info/%EC%96%91%EB%8D%95%EB%AF%B8%EB%9E%98%EC%95%BD%EA%B5%AD-%EA%B2%BD%EC%83%81%EB%B6%81%EB%8F%84-%ED%8F%AC%ED%95%AD%EC%8B%9C-%EC%96%91%EB%8D%95%EB%8F%99/", "workingTime": ["-", "09:00~20:30", "09:00~20:30", "09:00~20:30", "09:00~20:30", "09:00~20:30", "09:00~17:00", "09:00~13:00"]}, {"name": "\uc815\uc131\uc57d\uad6d", "lat": "36.08151053307782", "lng": "129.3979456732863", "url": "/info/%EC%A0%95%EC%84%B1%EC%95%BD%EA%B5%AD-%EA%B2%BD%EC%83%81%EB%B6%81%EB%8F%84-%ED%8F%AC%ED%95%AD%EC%8B%9C-%EC%96%91%EB%8D%95%EB%8F%99/", "workingTime": ["-", "08:00~19:00", "08:00~19:00", "08:00~19:00", "08:00~19:00", "08:00~19:00", "08:00~14:00", "-"]}, {"name": "\ucc9c\uc0ac\uc628\ub204\ub9ac\uc57d\uad6d", "lat": "36.08992908545791", "lng": "129.38749167233772", "url": "/info/%EC%B2%9C%EC%82%AC%EC%98%A8%EB%88%84%EB%A6%AC%EC%95%BD%EA%B5%AD-%EA%B2%BD%EC%83%81%EB%B6%81%EB%8F%84-%ED%8F%AC%ED%95%AD%EC%8B%9C-%EC%96%91%EB%8D%95%EB%8F%99/", "workingTime": ["-", "09:00~14:30", "09:00~14:30", "09:00~14:30", "09:00~14:30", "09:00~14:30", "09:00~14:30", "09:00~13:00"]}, {"name": "\ud558\ub098\ub85c\uc57d\uad6d", "lat": "36.08216716535075", "lng": "129.3984368144512", "url": "/info/%ED%95%98%EB%82%98%EB%A1%9C%EC%95%BD%EA%B5%AD-%EA%B2%BD%EC%83%81%EB%B6%81%EB%8F%84-%ED%8F%AC%ED%95%AD%EC%8B%9C-%EC%96%91%EB%8D%95%EB%8F%99/", "workingTime": ["-", "10:00~22:00", "10:00~22:00", "10:00~22:00", "10:00~22:00", "10:00~22:00", "10:00~22:00", "10:00~22:00"]}, {"name": "\uc2f1\uc2f1\uc57d\uad6d", "lat": "36.085063180632", "lng": "129.397135328784", "url": "/info/%EC%8B%B1%EC%8B%B1%EC%95%BD%EA%B5%AD-%EA%B2%BD%EC%83%81%EB%B6%81%EB%8F%84-%ED%8F%AC%ED%95%AD%EC%8B%9C-%EC%96%91%EB%8D%95%EB%8F%99/", "workingTime": ["-", "09:00~19:30", "09:00~19:30", "09:00~19:30", "09:00~19:30", "09:00~19:30", "09:00~13:00", "-"]}, {"name": "\ub2e4\ub098\uc628\ub204\ub9ac\uc57d\uad6d", "lat": "36.08775041602992", "lng": "129.38903307077518", "url": "/info/%EB%8B%A4%EB%82%98%EC%98%A8%EB%88%84%EB%A6%AC%EC%95%BD%EA%B5%AD-%EA%B2%BD%EC%83%81%EB%B6%81%EB%8F%84-%ED%8F%AC%ED%95%AD%EC%8B%9C-%EC%96%91%EB%8D%95%EB%8F%99/", "workingTime": ["-", "09:00~18:00", "09:00~18:00", "09:00~18:00", "09:00~18:00", "09:00~18:00", "09:00~13:00", "-"]}]