[{"name": "\ub3d9\uc778\uc57d\uad6d", "lat": "35.22121058602611", "lng": "128.69673662919874", "url": "/info/%EB%8F%99%EC%9D%B8%EC%95%BD%EA%B5%AD-%EA%B2%BD%EC%83%81%EB%82%A8%EB%8F%84-%EC%B0%BD%EC%9B%90%EC%8B%9C-%EC%9E%90%EC%9D%80%EB%8F%99/", "workingTime": ["-", "10:00~18:00", "10:00~18:00", "10:00~18:00", "10:00~18:00", "10:00~18:00", "10:00~17:00", "-"]}, {"name": "\uac74\uac15\uc57d\uad6d", "lat": "35.1551466346721", "lng": "128.712719166266", "url": "/info/%EA%B1%B4%EA%B0%95%EC%95%BD%EA%B5%AD-%EA%B2%BD%EC%83%81%EB%82%A8%EB%8F%84-%EC%B0%BD%EC%9B%90%EC%8B%9C-%EC%9E%90%EC%9D%80%EB%8F%99/", "workingTime": ["-", "09:00~19:00", "09:00~19:00", "09:00~19:00", "09:00~19:00", "09:00~19:00", "09:00~14:00", "-"]}, {"name": "\ud070\ub098\ubb34\uc57d\uad6d", "lat": "35.14026576086863", "lng": "128.70781238277007", "url": "/info/%ED%81%B0%EB%82%98%EB%AC%B4%EC%95%BD%EA%B5%AD-%EA%B2%BD%EC%83%81%EB%82%A8%EB%8F%84-%EC%B0%BD%EC%9B%90%EC%8B%9C-%EC%9E%90%EC%9D%80%EB%8F%99/", "workingTime": ["-", "09:00~19:00", "09:00~19:00", "09:00~19:00", "09:00~19:00", "09:00~19:00", "09:00~14:00", "-"]}, {"name": "\uccad\uc194\uc57d\uad6d", "lat": "35.14713162011696", "lng": "128.70766179052038", "url": "/info/%EC%B2%AD%EC%86%94%EC%95%BD%EA%B5%AD-%EA%B2%BD%EC%83%81%EB%82%A8%EB%8F%84-%EC%B0%BD%EC%9B%90%EC%8B%9C-%EC%9E%90%EC%9D%80%EB%8F%99/", "workingTime": ["-", "09:00~21:00", "09:00~21:00", "09:00~21:00", "09:00~21:00", "09:00~21:00", "-", "09:00~21:00"]}, {"name": "\ud654\uc131\uc57d\uad6d", "lat": "35.14709915316471", "lng": "128.70766222414232", "url": "/info/%ED%99%94%EC%84%B1%EC%95%BD%EA%B5%AD-%EA%B2%BD%EC%83%81%EB%82%A8%EB%8F%84-%EC%B0%BD%EC%9B%90%EC%8B%9C-%EC%9E%90%EC%9D%80%EB%8F%99/", "workingTime": ["-", "09:00~22:00", "09:00~22:00", "09:00~22:00", "09:00~22:00", "09:00~22:00", "-", "-"]}, {"name": "\ub2e8\ube44\uc57d\uad6d", "lat": "35.1442187982107", "lng": "128.70689872473235", "url": "/info/%EB%8B%A8%EB%B9%84%EC%95%BD%EA%B5%AD-%EA%B2%BD%EC%83%81%EB%82%A8%EB%8F%84-%EC%B0%BD%EC%9B%90%EC%8B%9C-%EC%9E%90%EC%9D%80%EB%8F%99/", "workingTime": ["-", "08:30~18:00", "08:30~18:00", "08:30~18:00", "08:30~18:00", "08:30~18:00", "08:30~13:00", "-"]}]