[{"name": "\ud587\ube5b\uc57d\uad6d", "lat": "35.64369168456437", "lng": "128.74264366769603", "url": "/info/%ED%96%87%EB%B9%9B%EC%95%BD%EA%B5%AD-%EA%B2%BD%EC%83%81%EB%B6%81%EB%8F%84-%EC%B2%AD%EB%8F%84%EA%B5%B0-%EC%B2%AD%EB%8F%84%EC%9D%8D/", "workingTime": ["-", "08:30~18:30", "08:30~18:30", "08:30~18:30", "08:30~18:30", "08:30~18:30", "08:30~14:00", "08:30~13:00"]}, {"name": "\ud654\uc0b0\uc57d\uad6d", "lat": "35.642598294848945", "lng": "128.74471745903793", "url": "/info/%ED%99%94%EC%82%B0%EC%95%BD%EA%B5%AD-%EA%B2%BD%EC%83%81%EB%B6%81%EB%8F%84-%EC%B2%AD%EB%8F%84%EA%B5%B0-%EC%B2%AD%EB%8F%84%EC%9D%8D/", "workingTime": ["-", "08:30~19:00", "08:30~19:00", "08:30~19:00", "08:30~19:00", "08:30~19:00", "08:30~17:00", "09:00~18:00"]}, {"name": "\uccad\ub3c4\uc57d\uad6d", "lat": "35.647567014010946", "lng": "128.73642143976807", "url": "/info/%EC%B2%AD%EB%8F%84%EC%95%BD%EA%B5%AD-%EA%B2%BD%EC%83%81%EB%B6%81%EB%8F%84-%EC%B2%AD%EB%8F%84%EA%B5%B0-%EC%B2%AD%EB%8F%84%EC%9D%8D/", "workingTime": ["4\uc9f8\uc8fc09:00~18:00", "08:30~19:00", "08:30~19:00", "08:30~19:00", "08:30~19:00", "08:30~19:00", "08:30~13:30", "-"]}, {"name": "\uc601\ub0a8\uc57d\uad6d", "lat": "35.64490020051348", "lng": "128.74164100565107", "url": "/info/%EC%98%81%EB%82%A8%EC%95%BD%EA%B5%AD-%EA%B2%BD%EC%83%81%EB%B6%81%EB%8F%84-%EC%B2%AD%EB%8F%84%EA%B5%B0-%EC%B2%AD%EB%8F%84%EC%9D%8D/", "workingTime": ["-", "09:00~18:30", "09:00~18:30", "09:00~18:30", "09:00~18:30", "09:00~18:30", "09:00~13:30", "-"]}, {"name": "\uc18c\ub9dd\uc57d\uad6d", "lat": "35.64182466190751", "lng": "128.74591931680783", "url": "/info/%EC%86%8C%EB%A7%9D%EC%95%BD%EA%B5%AD-%EA%B2%BD%EC%83%81%EB%B6%81%EB%8F%84-%EC%B2%AD%EB%8F%84%EA%B5%B0-%EC%B2%AD%EB%8F%84%EC%9D%8D/", "workingTime": ["-", "08:30~19:30", "08:30~19:30", "08:30~19:30", "08:30~19:30", "08:30~19:30", "08:30~17:00", "-"]}, {"name": "\uc138\uc885\uc57d\uad6d", "lat": "35.64664666277462", "lng": "128.73850358855555", "url": "/info/%EC%84%B8%EC%A2%85%EC%95%BD%EA%B5%AD-%EA%B2%BD%EC%83%81%EB%B6%81%EB%8F%84-%EC%B2%AD%EB%8F%84%EA%B5%B0-%EC%B2%AD%EB%8F%84%EC%9D%8D/", "workingTime": ["-", "08:30~18:30", "08:30~18:30", "08:30~18:30", "08:30~18:30", "08:30~18:30", "09:30~16:00", "-"]}, {"name": "\uc6a9\uc554\uc57d\uad6d", "lat": "35.64211365951119", "lng": "128.7453780380029", "url": "/info/%EC%9A%A9%EC%95%94%EC%95%BD%EA%B5%AD-%EA%B2%BD%EC%83%81%EB%B6%81%EB%8F%84-%EC%B2%AD%EB%8F%84%EA%B5%B0-%EC%B2%AD%EB%8F%84%EC%9D%8D/", "workingTime": ["-", "08:30~19:00", "08:30~19:00", "08:30~19:00", "08:30~19:00", "08:30~19:00", "08:30~14:00", "-"]}, {"name": "\uc5f0\ud569\uc57d\uad6d", "lat": "35.64707503618732", "lng": "128.73849976502095", "url": "/info/%EC%97%B0%ED%95%A9%EC%95%BD%EA%B5%AD-%EA%B2%BD%EC%83%81%EB%B6%81%EB%8F%84-%EC%B2%AD%EB%8F%84%EA%B5%B0-%EC%B2%AD%EB%8F%84%EC%9D%8D/", "workingTime": ["-", "08:00~19:00", "08:00~19:00", "08:00~19:00", "08:00~19:00", "08:00~19:00", "08:00~12:30", "-"]}, {"name": "\uc7a5\uc218\uc57d\uad6d", "lat": "35.6417064513395", "lng": "128.74586817319243", "url": "/info/%EC%9E%A5%EC%88%98%EC%95%BD%EA%B5%AD-%EA%B2%BD%EC%83%81%EB%B6%81%EB%8F%84-%EC%B2%AD%EB%8F%84%EA%B5%B0-%EC%B2%AD%EB%8F%84%EC%9D%8D/", "workingTime": ["-", "08:30~19:30", "08:30~19:30", "08:30~19:30", "08:30~19:30", "08:30~19:30", "08:30~13:00", "-"]}]