[{"name": "\uc0bc\ubc31\uc885\ud569\uc57d\uad6d", "lat": "36.41992307453049", "lng": "128.15932904849947", "url": "/info/%EC%82%BC%EB%B0%B1%EC%A2%85%ED%95%A9%EC%95%BD%EA%B5%AD-%EA%B2%BD%EC%83%81%EB%B6%81%EB%8F%84-%EC%83%81%EC%A3%BC%EC%8B%9C-%EB%83%89%EB%A6%BC%EB%8F%99/", "workingTime": ["-", "08:30~19:00", "08:30~19:00", "08:30~19:00", "08:30~19:00", "08:30~19:00", "08:30~18:00", "-"]}, {"name": "\uc18c\ub9dd\uc57d\uad6d", "lat": "36.42007004052393", "lng": "128.16015630220681", "url": "/info/%EC%86%8C%EB%A7%9D%EC%95%BD%EA%B5%AD-%EA%B2%BD%EC%83%81%EB%B6%81%EB%8F%84-%EC%83%81%EC%A3%BC%EC%8B%9C-%EB%83%89%EB%A6%BC%EB%8F%99/", "workingTime": ["-", "08:30~18:00", "08:30~18:00", "08:30~18:00", "08:30~18:00", "08:30~18:00", "08:30~13:00", "-"]}, {"name": "\uc815\ubb38\uc57d\uad6d", "lat": "36.419978987700006", "lng": "128.15997069750003", "url": "/info/%EC%A0%95%EB%AC%B8%EC%95%BD%EA%B5%AD-%EA%B2%BD%EC%83%81%EB%B6%81%EB%8F%84-%EC%83%81%EC%A3%BC%EC%8B%9C-%EB%83%89%EB%A6%BC%EB%8F%99/", "workingTime": ["-", "08:30~18:00", "08:30~18:00", "08:30~18:00", "08:30~18:00", "08:30~18:00", "08:30~13:00", "-"]}, {"name": "\ub179\uc2ed\uc790\uc57d\uad6d", "lat": "36.422711654802995", "lng": "128.15871483030926", "url": "/info/%EB%85%B9%EC%8B%AD%EC%9E%90%EC%95%BD%EA%B5%AD-%EA%B2%BD%EC%83%81%EB%B6%81%EB%8F%84-%EC%83%81%EC%A3%BC%EC%8B%9C-%EB%83%89%EB%A6%BC%EB%8F%99/", "workingTime": ["-", "08:30~19:00", "08:30~19:00", "08:30~19:00", "08:30~19:00", "08:30~19:00", "08:30~12:00", "-"]}, {"name": "\ucd08\ub85d\uc57d\uad6d", "lat": "36.415861903468546", "lng": "128.15959431432628", "url": "/info/%EC%B4%88%EB%A1%9D%EC%95%BD%EA%B5%AD-%EA%B2%BD%EC%83%81%EB%B6%81%EB%8F%84-%EC%83%81%EC%A3%BC%EC%8B%9C-%EB%83%89%EB%A6%BC%EB%8F%99/", "workingTime": ["-", "08:30~18:00", "08:30~18:00", "08:30~18:00", "08:30~18:00", "08:30~18:00", "-", "-"]}]