[{"name": "\ubc14\ub2e4\uc57d\uad6d", "lat": "36.5398506891091", "lng": "129.408767121765", "url": "/info/%EB%B0%94%EB%8B%A4%EC%95%BD%EA%B5%AD-%EA%B2%BD%EC%83%81%EB%B6%81%EB%8F%84-%EC%98%81%EB%8D%95%EA%B5%B0-%EC%98%81%ED%95%B4%EB%A9%B4/", "workingTime": ["-", "08:30~18:00", "08:30~18:00", "08:30~18:00", "08:30~18:00", "08:30~18:00", "08:30~13:00", "-"]}, {"name": "\uc608\uc8fc\uc57d\uad6d", "lat": "36.538486752633496", "lng": "129.40526246796534", "url": "/info/%EC%98%88%EC%A3%BC%EC%95%BD%EA%B5%AD-%EA%B2%BD%EC%83%81%EB%B6%81%EB%8F%84-%EC%98%81%EB%8D%95%EA%B5%B0-%EC%98%81%ED%95%B4%EB%A9%B4/", "workingTime": ["-", "08:30~18:00", "08:30~18:00", "08:30~18:00", "08:30~18:00", "08:30~18:00", "08:30~13:00", "-"]}, {"name": "\uc601\ud574\uc57d\uad6d", "lat": "36.53876265574244", "lng": "129.40519497641247", "url": "/info/%EC%98%81%ED%95%B4%EC%95%BD%EA%B5%AD-%EA%B2%BD%EC%83%81%EB%B6%81%EB%8F%84-%EC%98%81%EB%8D%95%EA%B5%B0-%EC%98%81%ED%95%B4%EB%A9%B4/", "workingTime": ["-", "08:30~18:00", "08:30~18:00", "08:30~18:00", "08:30~18:00", "08:30~18:00", "08:30~13:00", "-"]}, {"name": "\uacbd\ubd81\uc57d\uad6d", "lat": "36.53975977965253", "lng": "129.40878528971126", "url": "/info/%EA%B2%BD%EB%B6%81%EC%95%BD%EA%B5%AD-%EA%B2%BD%EC%83%81%EB%B6%81%EB%8F%84-%EC%98%81%EB%8D%95%EA%B5%B0-%EC%98%81%ED%95%B4%EB%A9%B4/", "workingTime": ["-", "08:30~18:30", "08:30~18:30", "08:30~18:30", "08:30~18:30", "08:30~18:30", "08:30~13:30", "-"]}, {"name": "\ud604\ub300\uc57d\uad6d", "lat": "36.5233894482", "lng": "129.4031918623", "url": "/info/%ED%98%84%EB%8C%80%EC%95%BD%EA%B5%AD-%EA%B2%BD%EC%83%81%EB%B6%81%EB%8F%84-%EC%98%81%EB%8D%95%EA%B5%B0-%EC%98%81%ED%95%B4%EB%A9%B4/", "workingTime": ["-", "08:30~18:00", "08:30~18:00", "08:30~18:00", "08:30~18:00", "08:30~18:00", "-", "-"]}, {"name": "\ub300\uc2b9\uc57d\uad6d", "lat": "36.538614835936464", "lng": "129.40467362155988", "url": "/info/%EB%8C%80%EC%8A%B9%EC%95%BD%EA%B5%AD-%EA%B2%BD%EC%83%81%EB%B6%81%EB%8F%84-%EC%98%81%EB%8D%95%EA%B5%B0-%EC%98%81%ED%95%B4%EB%A9%B4/", "workingTime": ["-", "09:00~17:30", "09:00~17:30", "09:00~17:30", "09:00~17:30", "09:00~17:30", "09:00~12:30", "-"]}]