[{"name": "\ud568\uaed8\ud558\ub294\uc57d\uad6d", "lat": "36.10698451390129", "lng": "128.42070050719914", "url": "/info/%ED%95%A8%EA%BB%98%ED%95%98%EB%8A%94%EC%95%BD%EA%B5%AD-%EA%B2%BD%EC%83%81%EB%B6%81%EB%8F%84-%EA%B5%AC%EB%AF%B8%EC%8B%9C-%ED%99%A9%EC%83%81%EB%8F%99/", "workingTime": ["-", "09:00~19:30", "09:00~19:30", "09:00~19:30", "09:00~19:30", "09:00~19:30", "09:00~13:30", "-"]}, {"name": "\uba85\uc77c\uc57d\uad6d", "lat": "36.10860220466813", "lng": "128.4224320782493", "url": "/info/%EB%AA%85%EC%9D%BC%EC%95%BD%EA%B5%AD-%EA%B2%BD%EC%83%81%EB%B6%81%EB%8F%84-%EA%B5%AC%EB%AF%B8%EC%8B%9C-%ED%99%A9%EC%83%81%EB%8F%99/", "workingTime": ["-", "09:00~19:00", "09:00~19:00", "09:00~19:00", "09:00~19:00", "09:00~19:00", "09:00~13:00", "-"]}, {"name": "\uba85\uc778\ub2f9\uc57d\uad6d", "lat": "36.10630983215698", "lng": "128.41992142688443", "url": "/info/%EB%AA%85%EC%9D%B8%EB%8B%B9%EC%95%BD%EA%B5%AD-%EA%B2%BD%EC%83%81%EB%B6%81%EB%8F%84-%EA%B5%AC%EB%AF%B8%EC%8B%9C-%ED%99%A9%EC%83%81%EB%8F%99/", "workingTime": ["-", "09:00~19:30", "09:00~19:30", "09:00~19:30", "09:00~19:30", "09:00~19:30", "09:00~12:30", "-"]}, {"name": "\uc7a5\uc0dd\uc57d\uad6d", "lat": "36.10680477764753", "lng": "128.41952166911017", "url": "/info/%EC%9E%A5%EC%83%9D%EC%95%BD%EA%B5%AD-%EA%B2%BD%EC%83%81%EB%B6%81%EB%8F%84-%EA%B5%AC%EB%AF%B8%EC%8B%9C-%ED%99%A9%EC%83%81%EB%8F%99/", "workingTime": ["1,3,5\uc9f8\uc8fc09:00~21:00", "09:00~20:00", "09:00~20:00", "09:00~20:00", "09:00~20:00", "09:00~20:00", "09:00~18:00", "09:00~14:00"]}, {"name": "\uc2b9\ud604\uc57d\uad6d", "lat": "36.10769778412838", "lng": "128.41868486231192", "url": "/info/%EC%8A%B9%ED%98%84%EC%95%BD%EA%B5%AD-%EA%B2%BD%EC%83%81%EB%B6%81%EB%8F%84-%EA%B5%AC%EB%AF%B8%EC%8B%9C-%ED%99%A9%EC%83%81%EB%8F%99/", "workingTime": ["-", "09:00~21:00", "09:00~21:00", "09:00~21:00", "09:00~21:00", "09:00~21:00", "09:00~17:00", "-"]}, {"name": "\uadfc\ud654\ub2f9\uc57d\uad6d", "lat": "36.1179618026867", "lng": "128.4267192986038", "url": "/info/%EA%B7%BC%ED%99%94%EB%8B%B9%EC%95%BD%EA%B5%AD-%EA%B2%BD%EC%83%81%EB%B6%81%EB%8F%84-%EA%B5%AC%EB%AF%B8%EC%8B%9C-%ED%99%A9%EC%83%81%EB%8F%99/", "workingTime": ["-", "09:00~20:00", "09:00~20:00", "09:00~20:00", "09:00~20:00", "09:00~20:00", "09:00~17:00", "09:00~17:00"]}, {"name": "\uc885\uadfc\ub2f9\uc57d\uad6d", "lat": "36.11690787117098", "lng": "128.4253230777268", "url": "/info/%EC%A2%85%EA%B7%BC%EB%8B%B9%EC%95%BD%EA%B5%AD-%EA%B2%BD%EC%83%81%EB%B6%81%EB%8F%84-%EA%B5%AC%EB%AF%B8%EC%8B%9C-%ED%99%A9%EC%83%81%EB%8F%99/", "workingTime": ["-", "09:00~20:00", "09:00~20:00", "09:00~20:00", "09:00~20:00", "09:00~20:00", "09:00~14:00", "-"]}, {"name": "\uc6b0\uc815\uc57d\uad6d", "lat": "36.10731566079532", "lng": "128.41899337612233", "url": "/info/%EC%9A%B0%EC%A0%95%EC%95%BD%EA%B5%AD-%EA%B2%BD%EC%83%81%EB%B6%81%EB%8F%84-%EA%B5%AC%EB%AF%B8%EC%8B%9C-%ED%99%A9%EC%83%81%EB%8F%99/", "workingTime": ["2,4\uc9f8\uc8fc09:00~14:00", "09:00~20:00", "09:00~19:00", "09:00~19:00", "09:00~19:00", "09:00~19:00", "09:00~15:00", "09:00~14:00"]}]