[{"name": "\uc6b0\ub9ac\ub4e4\uc57d\uad6d", "lat": "35.4956892961", "lng": "128.7510421181", "url": "/info/%EC%9A%B0%EB%A6%AC%EB%93%A4%EC%95%BD%EA%B5%AD-%EA%B2%BD%EC%83%81%EB%82%A8%EB%8F%84-%EB%B0%80%EC%96%91%EC%8B%9C-%EB%82%B4%EC%9D%B4%EB%8F%99/", "workingTime": ["-", "09:00~20:00", "09:00~20:00", "09:00~20:00", "09:00~20:00", "09:00~20:00", "09:00~18:00", "-"]}, {"name": "\uc18c\ub9dd\uc57d\uad6d", "lat": "35.4976311343891", "lng": "128.74601318784", "url": "/info/%EC%86%8C%EB%A7%9D%EC%95%BD%EA%B5%AD-%EA%B2%BD%EC%83%81%EB%82%A8%EB%8F%84-%EB%B0%80%EC%96%91%EC%8B%9C-%EB%82%B4%EC%9D%B4%EB%8F%99/", "workingTime": ["-", "09:00~19:00", "09:00~19:00", "09:00~19:00", "09:00~19:00", "09:00~19:00", "09:00~16:00", "-"]}, {"name": "\ubc00\uc131\uba54\ub514\uce7c\uc57d\uad6d", "lat": "35.49564643517809", "lng": "128.75112767921735", "url": "/info/%EB%B0%80%EC%84%B1%EB%A9%94%EB%94%94%EC%B9%BC%EC%95%BD%EA%B5%AD-%EA%B2%BD%EC%83%81%EB%82%A8%EB%8F%84-%EB%B0%80%EC%96%91%EC%8B%9C-%EB%82%B4%EC%9D%B4%EB%8F%99/", "workingTime": ["1,2,3,4,5\uc9f8\uc8fc09:00~23:00", "09:00~23:00", "09:00~23:00", "09:00~23:00", "09:00~23:00", "09:00~23:00", "09:00~23:00", "09:00~23:00"]}, {"name": "\uc0db\ubcc4\uc57d\uad6d", "lat": "35.4925800889741", "lng": "128.74930254800097", "url": "/info/%EC%83%9B%EB%B3%84%EC%95%BD%EA%B5%AD-%EA%B2%BD%EC%83%81%EB%82%A8%EB%8F%84-%EB%B0%80%EC%96%91%EC%8B%9C-%EB%82%B4%EC%9D%B4%EB%8F%99/", "workingTime": ["-", "09:00~18:30", "09:00~18:30", "09:00~18:30", "09:00~18:30", "09:00~18:30", "09:00~13:30", "-"]}, {"name": "\uc0bc\uc131\uc57d\uad6d", "lat": "35.498473714486025", "lng": "128.74421293766903", "url": "/info/%EC%82%BC%EC%84%B1%EC%95%BD%EA%B5%AD-%EA%B2%BD%EC%83%81%EB%82%A8%EB%8F%84-%EB%B0%80%EC%96%91%EC%8B%9C-%EB%82%B4%EC%9D%B4%EB%8F%99/", "workingTime": ["-", "09:00~18:00", "09:00~18:00", "09:00~18:00", "09:00~18:00", "09:00~18:00", "09:00~13:30", "-"]}, {"name": "\ub2e8\uace8\uc57d\uad6d", "lat": "35.498051558223516", "lng": "128.74384948697138", "url": "/info/%EB%8B%A8%EA%B3%A8%EC%95%BD%EA%B5%AD-%EA%B2%BD%EC%83%81%EB%82%A8%EB%8F%84-%EB%B0%80%EC%96%91%EC%8B%9C-%EB%82%B4%EC%9D%B4%EB%8F%99/", "workingTime": ["-", "08:30~19:30", "08:30~19:30", "08:30~19:30", "08:30~19:30", "08:30~19:30", "08:30~16:00", "-"]}, {"name": "\ubc00\uc591\uc81c\uc77c\uc57d\uad6d", "lat": "35.49636103449093", "lng": "128.7488290734979", "url": "/info/%EB%B0%80%EC%96%91%EC%A0%9C%EC%9D%BC%EC%95%BD%EA%B5%AD-%EA%B2%BD%EC%83%81%EB%82%A8%EB%8F%84-%EB%B0%80%EC%96%91%EC%8B%9C-%EB%82%B4%EC%9D%B4%EB%8F%99/", "workingTime": ["1,2,3,4,5\uc9f8\uc8fc08:30~16:00", "08:30~19:30", "08:30~19:30", "08:30~19:30", "08:30~19:30", "08:30~19:30", "08:30~16:00", "08:30~16:00"]}, {"name": "\uc218\uc131\uc57d\uad6d", "lat": "35.49899081010839", "lng": "128.74395793339056", "url": "/info/%EC%88%98%EC%84%B1%EC%95%BD%EA%B5%AD-%EA%B2%BD%EC%83%81%EB%82%A8%EB%8F%84-%EB%B0%80%EC%96%91%EC%8B%9C-%EB%82%B4%EC%9D%B4%EB%8F%99/", "workingTime": ["-", "09:00~19:00", "09:00~19:00", "09:00~19:00", "09:00~19:00", "09:00~19:00", "09:00~15:00", "-"]}, {"name": "\uc870\uc740\uc57d\uad6d", "lat": "35.49665184340846", "lng": "128.74791413502248", "url": "/info/%EC%A1%B0%EC%9D%80%EC%95%BD%EA%B5%AD-%EA%B2%BD%EC%83%81%EB%82%A8%EB%8F%84-%EB%B0%80%EC%96%91%EC%8B%9C-%EB%82%B4%EC%9D%B4%EB%8F%99/", "workingTime": ["-", "09:00~18:30", "09:00~18:30", "09:00~18:30", "09:00~18:30", "09:00~18:30", "09:00~13:00", "-"]}, {"name": "\uc8fc\ucc28\uc7a5\uc57d\uad6d", "lat": "35.498908053368495", "lng": "128.74409009004341", "url": "/info/%EC%A3%BC%EC%B0%A8%EC%9E%A5%EC%95%BD%EA%B5%AD-%EA%B2%BD%EC%83%81%EB%82%A8%EB%8F%84-%EB%B0%80%EC%96%91%EC%8B%9C-%EB%82%B4%EC%9D%B4%EB%8F%99/", "workingTime": ["-", "08:30~18:00", "08:30~18:00", "08:30~18:00", "08:30~18:00", "08:30~18:00", "08:30~13:00", "-"]}, {"name": "\ud478\ub978\uc57d\uad6d", "lat": "35.501614495229326", "lng": "128.74972310816995", "url": "/info/%ED%91%B8%EB%A5%B8%EC%95%BD%EA%B5%AD-%EA%B2%BD%EC%83%81%EB%82%A8%EB%8F%84-%EB%B0%80%EC%96%91%EC%8B%9C-%EB%82%B4%EC%9D%B4%EB%8F%99/", "workingTime": ["-", "09:00~18:00", "09:00~18:00", "09:00~18:00", "09:00~18:00", "09:00~18:00", "09:00~12:30", "-"]}, {"name": "\ud589\ubcf5\uc57d\uad6d", "lat": "35.49626185878609", "lng": "128.74870791452275", "url": "/info/%ED%96%89%EB%B3%B5%EC%95%BD%EA%B5%AD-%EA%B2%BD%EC%83%81%EB%82%A8%EB%8F%84-%EB%B0%80%EC%96%91%EC%8B%9C-%EB%82%B4%EC%9D%B4%EB%8F%99/", "workingTime": ["1,2,3,4,5\uc9f8\uc8fc09:00~16:00", "09:00~18:30", "09:00~18:30", "09:00~18:30", "09:00~18:30", "09:00~18:30", "09:00~12:30", "09:00~16:00"]}, {"name": "\uac74\uac15\uc57d\uad6d", "lat": "35.4992618167349", "lng": "128.74590770606787", "url": "/info/%EA%B1%B4%EA%B0%95%EC%95%BD%EA%B5%AD-%EA%B2%BD%EC%83%81%EB%82%A8%EB%8F%84-%EB%B0%80%EC%96%91%EC%8B%9C-%EB%82%B4%EC%9D%B4%EB%8F%99/", "workingTime": ["-", "09:00~12:00", "09:00~12:00", "09:00~12:00", "09:00~12:00", "09:00~12:00", "08:30~12:30", "-"]}]