[{"name": "\uc2dc\ubbfc\uc628\ub204\ub9ac\uc57d\uad6d", "lat": "35.1521799594946", "lng": "128.116812329881", "url": "/info/%EC%8B%9C%EB%AF%BC%EC%98%A8%EB%88%84%EB%A6%AC%EC%95%BD%EA%B5%AD-%EA%B2%BD%EC%83%81%EB%82%A8%EB%8F%84-%EC%A7%84%EC%A3%BC%EC%8B%9C-%EA%B0%80%EC%A2%8C%EB%8F%99/", "workingTime": ["-", "09:00~19:30", "09:00~19:30", "09:00~19:30", "09:00~19:30", "09:00~19:30", "09:00~14:00", "-"]}, {"name": "\uc740\ud558\uc218\uc57d\uad6d", "lat": "35.1519188449752", "lng": "128.111717292923", "url": "/info/%EC%9D%80%ED%95%98%EC%88%98%EC%95%BD%EA%B5%AD-%EA%B2%BD%EC%83%81%EB%82%A8%EB%8F%84-%EC%A7%84%EC%A3%BC%EC%8B%9C-%EA%B0%80%EC%A2%8C%EB%8F%99/", "workingTime": ["-", "09:30~19:00", "09:30~19:00", "09:30~19:00", "09:30~19:00", "09:30~19:00", "09:30~13:00", "-"]}, {"name": "\ud574\ub9d1\uc740\uc57d\uad6d", "lat": "35.1505519986", "lng": "128.1029628155", "url": "/info/%ED%95%B4%EB%A7%91%EC%9D%80%EC%95%BD%EA%B5%AD-%EA%B2%BD%EC%83%81%EB%82%A8%EB%8F%84-%EC%A7%84%EC%A3%BC%EC%8B%9C-%EA%B0%80%EC%A2%8C%EB%8F%99/", "workingTime": ["-", "09:00~19:00", "09:00~19:00", "09:00~19:00", "09:00~19:00", "09:00~19:00", "09:00~13:00", "-"]}, {"name": "\ud6a8\uc131\uc57d\uad6d", "lat": "35.16312194513437", "lng": "128.106942556049", "url": "/info/%ED%9A%A8%EC%84%B1%EC%95%BD%EA%B5%AD-%EA%B2%BD%EC%83%81%EB%82%A8%EB%8F%84-%EC%A7%84%EC%A3%BC%EC%8B%9C-%EA%B0%80%EC%A2%8C%EB%8F%99/", "workingTime": ["-", "09:00~19:00", "09:00~19:00", "09:00~19:00", "09:00~19:00", "09:00~19:00", "09:00~13:30", "-"]}, {"name": "\uc815\ubbfc\uc57d\uad6d", "lat": "35.163225011482574", "lng": "128.10947268439173", "url": "/info/%EC%A0%95%EB%AF%BC%EC%95%BD%EA%B5%AD-%EA%B2%BD%EC%83%81%EB%82%A8%EB%8F%84-%EC%A7%84%EC%A3%BC%EC%8B%9C-%EA%B0%80%EC%A2%8C%EB%8F%99/", "workingTime": ["-", "08:30~18:30", "08:30~18:30", "08:30~18:30", "08:30~18:30", "08:30~18:30", "08:30~12:30", "-"]}, {"name": "\ud55c\ubcc4\uc57d\uad6d", "lat": "35.15634462092231", "lng": "128.1076849211467", "url": "/info/%ED%95%9C%EB%B3%84%EC%95%BD%EA%B5%AD-%EA%B2%BD%EC%83%81%EB%82%A8%EB%8F%84-%EC%A7%84%EC%A3%BC%EC%8B%9C-%EA%B0%80%EC%A2%8C%EB%8F%99/", "workingTime": ["-", "09:00~19:00", "09:00~19:00", "09:00~19:00", "09:00~19:00", "09:00~19:00", "09:00~13:00", "-"]}]