[{"name": "\ubbf8\uc18c\uc57d\uad6d", "lat": "35.83490977025632", "lng": "128.7200899572853", "url": "/info/%EB%AF%B8%EC%86%8C%EC%95%BD%EA%B5%AD-%EA%B2%BD%EC%83%81%EB%B6%81%EB%8F%84-%EA%B2%BD%EC%82%B0%EC%8B%9C-%EC%A4%91%EC%82%B0%EB%8F%99/", "workingTime": ["1,2,3,4,5\uc9f8\uc8fc10:00~22:00", "10:00~22:00", "10:00~22:00", "10:00~22:00", "10:00~22:00", "10:00~22:00", "10:00~22:00", "10:00~22:00"]}, {"name": "\ud39c\ud0c0\uc57d\uad6d", "lat": "35.8300941117", "lng": "128.7198879498", "url": "/info/%ED%8E%9C%ED%83%80%EC%95%BD%EA%B5%AD-%EA%B2%BD%EC%83%81%EB%B6%81%EB%8F%84-%EA%B2%BD%EC%82%B0%EC%8B%9C-%EC%A4%91%EC%82%B0%EB%8F%99/", "workingTime": ["-", "09:00~19:00", "09:00~19:00", "09:00~20:00", "09:00~19:00", "09:00~19:00", "09:00~15:00", "-"]}, {"name": "\uc911\uc0b0\uc0c8\ubd04\uc57d\uad6d", "lat": "35.82746206652828", "lng": "128.71868035109526", "url": "/info/%EC%A4%91%EC%82%B0%EC%83%88%EB%B4%84%EC%95%BD%EA%B5%AD-%EA%B2%BD%EC%83%81%EB%B6%81%EB%8F%84-%EA%B2%BD%EC%82%B0%EC%8B%9C-%EC%A4%91%EC%82%B0%EB%8F%99/", "workingTime": ["-", "09:00~19:20", "09:00~19:20", "09:00~19:20", "09:00~19:20", "09:00~21:00", "09:00~15:00", "09:00~15:00"]}, {"name": "365\uc57d\uad6d", "lat": "35.83534073760295", "lng": "128.72402052304852", "url": "/info/365%EC%95%BD%EA%B5%AD-%EA%B2%BD%EC%83%81%EB%B6%81%EB%8F%84-%EA%B2%BD%EC%82%B0%EC%8B%9C-%EC%A4%91%EC%82%B0%EB%8F%99/", "workingTime": ["1,2,3,4,5\uc9f8\uc8fc09:00~14:00", "09:00~21:00", "09:00~21:00", "09:00~21:00", "09:00~21:00", "09:00~21:00", "09:00~17:00", "09:00~17:00"]}, {"name": "\ub4e0\ub4e0\uc57d\uad6d", "lat": "35.827154590898", "lng": "128.71796266614", "url": "/info/%EB%93%A0%EB%93%A0%EC%95%BD%EA%B5%AD-%EA%B2%BD%EC%83%81%EB%B6%81%EB%8F%84-%EA%B2%BD%EC%82%B0%EC%8B%9C-%EC%A4%91%EC%82%B0%EB%8F%99/", "workingTime": ["-", "09:00~19:00", "09:00~19:00", "09:00~19:00", "09:00~19:00", "09:00~19:00", "09:00~13:00", "-"]}, {"name": "\uad11\uc7a5\uc57d\uad6d", "lat": "35.82872968636045", "lng": "128.719769976711", "url": "/info/%EA%B4%91%EC%9E%A5%EC%95%BD%EA%B5%AD-%EA%B2%BD%EC%83%81%EB%B6%81%EB%8F%84-%EA%B2%BD%EC%82%B0%EC%8B%9C-%EC%A4%91%EC%82%B0%EB%8F%99/", "workingTime": ["-", "09:00~18:00", "09:00~18:00", "09:00~18:00", "09:00~18:00", "09:00~18:00", "-", "-"]}]