[{"name": "\uc11c\uc9c4\uc57d\uad6d", "lat": "36.01757806640936", "lng": "129.36174343980008", "url": "/info/%EC%84%9C%EC%A7%84%EC%95%BD%EA%B5%AD-%EA%B2%BD%EC%83%81%EB%B6%81%EB%8F%84-%ED%8F%AC%ED%95%AD%EC%8B%9C-%EB%8C%80%EB%8F%84%EB%8F%99/", "workingTime": ["-", "09:00~19:00", "09:00~19:00", "09:00~19:00", "09:00~19:00", "09:00~19:00", "09:00~14:00", "-"]}, {"name": "\uc6b0\uc544\uc628\ub204\ub9ac\uc57d\uad6d", "lat": "36.0186397779261", "lng": "129.361603662537", "url": "/info/%EC%9A%B0%EC%95%84%EC%98%A8%EB%88%84%EB%A6%AC%EC%95%BD%EA%B5%AD-%EA%B2%BD%EC%83%81%EB%B6%81%EB%8F%84-%ED%8F%AC%ED%95%AD%EC%8B%9C-%EB%8C%80%EB%8F%84%EB%8F%99/", "workingTime": ["-", "08:30~20:00", "08:30~20:00", "08:30~20:00", "08:30~20:00", "08:30~20:00", "09:00~15:00", "-"]}, {"name": "\ud0a4\ub2e4\ub9ac\uc57d\uad6d", "lat": "36.01773444668332", "lng": "129.3627884948441", "url": "/info/%ED%82%A4%EB%8B%A4%EB%A6%AC%EC%95%BD%EA%B5%AD-%EA%B2%BD%EC%83%81%EB%B6%81%EB%8F%84-%ED%8F%AC%ED%95%AD%EC%8B%9C-%EB%8C%80%EB%8F%84%EB%8F%99/", "workingTime": ["-", "09:00~19:00", "09:00~19:00", "09:00~19:00", "09:00~19:00", "09:00~19:00", "09:00~13:00", "-"]}, {"name": "\uc11c\ub3c5\uc57d\uad6d", "lat": "36.01931065335022", "lng": "129.3615801205679", "url": "/info/%EC%84%9C%EB%8F%85%EC%95%BD%EA%B5%AD-%EA%B2%BD%EC%83%81%EB%B6%81%EB%8F%84-%ED%8F%AC%ED%95%AD%EC%8B%9C-%EB%8C%80%EB%8F%84%EB%8F%99/", "workingTime": ["-", "09:00~18:30", "09:00~18:30", "09:00~13:00", "09:00~18:30", "09:00~18:30", "09:00~13:00", "-"]}, {"name": "\ub300\uad6c\uc57d\uad6d", "lat": "36.0208493601556", "lng": "129.36289688816765", "url": "/info/%EB%8C%80%EA%B5%AC%EC%95%BD%EA%B5%AD-%EA%B2%BD%EC%83%81%EB%B6%81%EB%8F%84-%ED%8F%AC%ED%95%AD%EC%8B%9C-%EB%8C%80%EB%8F%84%EB%8F%99/", "workingTime": ["-", "09:00~13:00", "09:00~13:00", "09:00~13:00", "09:00~13:00", "09:00~13:00", "09:00~13:00", "-"]}, {"name": "\uc774\ud654\uc57d\uad6d", "lat": "36.01777891901883", "lng": "129.3627076452131", "url": "/info/%EC%9D%B4%ED%99%94%EC%95%BD%EA%B5%AD-%EA%B2%BD%EC%83%81%EB%B6%81%EB%8F%84-%ED%8F%AC%ED%95%AD%EC%8B%9C-%EB%8C%80%EB%8F%84%EB%8F%99/", "workingTime": ["-", "09:00~18:00", "09:00~18:00", "09:00~18:00", "09:00~18:00", "09:00~18:00", "09:00~13:00", "-"]}, {"name": "\uc815\ubb38\uc57d\uad6d", "lat": "36.0173544585516", "lng": "129.36206818980437", "url": "/info/%EC%A0%95%EB%AC%B8%EC%95%BD%EA%B5%AD-%EA%B2%BD%EC%83%81%EB%B6%81%EB%8F%84-%ED%8F%AC%ED%95%AD%EC%8B%9C-%EB%8C%80%EB%8F%84%EB%8F%99/", "workingTime": ["-", "09:00~18:00", "09:00~18:00", "09:00~18:00", "09:00~18:00", "09:00~18:00", "09:00~13:00", "-"]}, {"name": "\ucc38\uc0ac\ub791\uc57d\uad6d", "lat": "36.01745003915642", "lng": "129.3622054167798", "url": "/info/%EC%B0%B8%EC%82%AC%EB%9E%91%EC%95%BD%EA%B5%AD-%EA%B2%BD%EC%83%81%EB%B6%81%EB%8F%84-%ED%8F%AC%ED%95%AD%EC%8B%9C-%EB%8C%80%EB%8F%84%EB%8F%99/", "workingTime": ["-", "09:00~18:00", "09:00~18:00", "09:00~18:00", "09:00~18:00", "09:00~18:00", "09:00~13:00", "-"]}]