[{"name": "\ud3b8\ud55c\uc628\ub204\ub9ac\uc57d\uad6d", "lat": "35.1913047991", "lng": "126.8373476659", "url": "/info/%ED%8E%B8%ED%95%9C%EC%98%A8%EB%88%84%EB%A6%AC%EC%95%BD%EA%B5%AD-%EA%B4%91%EC%A3%BC%EA%B4%91%EC%97%AD%EC%8B%9C-%EA%B4%91%EC%82%B0%EA%B5%AC-%EC%8B%A0%EC%B0%BD%EB%8F%99/", "workingTime": ["1,2,3,4,5\uc9f8\uc8fc09:00~21:00", "08:30~21:00", "08:30~21:00", "08:30~21:00", "08:30~21:00", "08:30~21:00", "08:30~21:00", "09:00~21:00"]}, {"name": "\ud76c\ub9dd\uc57d\uad6d", "lat": "35.19801548094796", "lng": "126.8371821109672", "url": "/info/%ED%9D%AC%EB%A7%9D%EC%95%BD%EA%B5%AD-%EA%B4%91%EC%A3%BC%EA%B4%91%EC%97%AD%EC%8B%9C-%EA%B4%91%EC%82%B0%EA%B5%AC-%EC%8B%A0%EC%B0%BD%EB%8F%99/", "workingTime": ["-", "08:30~19:00", "08:30~19:00", "08:30~19:00", "08:30~19:00", "08:30~19:00", "08:30~13:00", "08:30~13:00"]}, {"name": "\ubbfc\uc8fc\uc57d\uad6d", "lat": "35.19734190548994", "lng": "126.83764904719612", "url": "/info/%EB%AF%BC%EC%A3%BC%EC%95%BD%EA%B5%AD-%EA%B4%91%EC%A3%BC%EA%B4%91%EC%97%AD%EC%8B%9C-%EA%B4%91%EC%82%B0%EA%B5%AC-%EC%8B%A0%EC%B0%BD%EB%8F%99/", "workingTime": ["-", "09:00~18:30", "09:00~18:30", "09:00~18:30", "09:00~18:30", "09:00~18:30", "09:09~14:00", "-"]}, {"name": "\uc2e0\ucc3d\ub300\ud615\uc57d\uad6d", "lat": "35.191460974846166", "lng": "126.83725239790044", "url": "/info/%EC%8B%A0%EC%B0%BD%EB%8C%80%ED%98%95%EC%95%BD%EA%B5%AD-%EA%B4%91%EC%A3%BC%EA%B4%91%EC%97%AD%EC%8B%9C-%EA%B4%91%EC%82%B0%EA%B5%AC-%EC%8B%A0%EC%B0%BD%EB%8F%99/", "workingTime": ["1,2,3,4,5\uc9f8\uc8fc09:00~21:00", "09:00~22:30", "09:00~22:30", "09:00~22:30", "09:00~22:30", "09:00~22:30", "09:00~22:30", "09:00~21:00"]}, {"name": "\uc2e0\ucc3d\uc6b0\ub9ac\ub4e4\uc57d\uad6d", "lat": "35.196203145172404", "lng": "126.83805102359709", "url": "/info/%EC%8B%A0%EC%B0%BD%EC%9A%B0%EB%A6%AC%EB%93%A4%EC%95%BD%EA%B5%AD-%EA%B4%91%EC%A3%BC%EA%B4%91%EC%97%AD%EC%8B%9C-%EA%B4%91%EC%82%B0%EA%B5%AC-%EC%8B%A0%EC%B0%BD%EB%8F%99/", "workingTime": ["-", "09:00~20:00", "09:00~20:00", "09:30~20:00", "09:00~20:00", "09:00~20:00", "09:00~19:00", "-"]}, {"name": "\uc990\uac70\uc6b4\uc57d\uad6d", "lat": "35.19089154440492", "lng": "126.83741604439967", "url": "/info/%EC%A6%90%EA%B1%B0%EC%9A%B4%EC%95%BD%EA%B5%AD-%EA%B4%91%EC%A3%BC%EA%B4%91%EC%97%AD%EC%8B%9C-%EA%B4%91%EC%82%B0%EA%B5%AC-%EC%8B%A0%EC%B0%BD%EB%8F%99/", "workingTime": ["-", "08:30~19:00", "08:30~19:00", "08:30~19:00", "08:30~19:00", "08:30~19:00", "08:30~16:00", "-"]}, {"name": "\uac74\uac15\uc6b0\ub9ac\uc57d\uad6d", "lat": "35.1894190951", "lng": "126.8372943296", "url": "/info/%EA%B1%B4%EA%B0%95%EC%9A%B0%EB%A6%AC%EC%95%BD%EA%B5%AD-%EA%B4%91%EC%A3%BC%EA%B4%91%EC%97%AD%EC%8B%9C-%EA%B4%91%EC%82%B0%EA%B5%AC-%EC%8B%A0%EC%B0%BD%EB%8F%99/", "workingTime": ["-", "09:00~19:00", "09:00~19:00", "09:00~19:00", "09:00~19:00", "09:00~19:00", "09:00~14:00", "-"]}, {"name": "\uac74\uac15\ud55c\uc57d\uad6d", "lat": "35.1914698677", "lng": "126.8367675958", "url": "/info/%EA%B1%B4%EA%B0%95%ED%95%9C%EC%95%BD%EA%B5%AD-%EA%B4%91%EC%A3%BC%EA%B4%91%EC%97%AD%EC%8B%9C-%EA%B4%91%EC%82%B0%EA%B5%AC-%EC%8B%A0%EC%B0%BD%EB%8F%99/", "workingTime": ["1,2,3,4,5\uc9f8\uc8fc10:00~20:00", "09:30~22:00", "09:30~22:00", "09:30~22:00", "09:30~22:00", "09:30~22:00", "09:30~22:00", "10:00~20:00"]}, {"name": "\uad7f\ubaa8\ub2dd\uc57d\uad6d", "lat": "35.19618582225887", "lng": "126.83857373076218", "url": "/info/%EA%B5%BF%EB%AA%A8%EB%8B%9D%EC%95%BD%EA%B5%AD-%EA%B4%91%EC%A3%BC%EA%B4%91%EC%97%AD%EC%8B%9C-%EA%B4%91%EC%82%B0%EA%B5%AC-%EC%8B%A0%EC%B0%BD%EB%8F%99/", "workingTime": ["-", "08:30~19:00", "08:30~19:00", "08:30~19:00", "08:30~19:00", "08:30~19:00", "08:30~13:30", "-"]}]