[{"name": "\ucd5c\uc57d\uad6d", "lat": "35.14133865049027", "lng": "126.79486510023608", "url": "/info/%EC%B5%9C%EC%95%BD%EA%B5%AD-%EA%B4%91%EC%A3%BC%EA%B4%91%EC%97%AD%EC%8B%9C-%EA%B4%91%EC%82%B0%EA%B5%AC-%EC%86%A1%EC%A0%95%EB%8F%99/", "workingTime": ["-", "09:00~18:30", "09:00~18:30", "09:00~18:30", "09:00~18:30", "09:00~18:30", "09:30~13:30", "-"]}, {"name": "\ucd08\ub85d\uc57d\uad6d", "lat": "35.140923707081804", "lng": "126.79467741147761", "url": "/info/%EC%B4%88%EB%A1%9D%EC%95%BD%EA%B5%AD-%EA%B4%91%EC%A3%BC%EA%B4%91%EC%97%AD%EC%8B%9C-%EA%B4%91%EC%82%B0%EA%B5%AC-%EC%86%A1%EC%A0%95%EB%8F%99/", "workingTime": ["-", "08:00~18:00", "08:00~18:00", "08:00~18:00", "08:00~18:00", "08:00~18:00", "08:00~13:00", "-"]}, {"name": "\ud0d1\ub9e4\uc77c\uc57d\uad6d", "lat": "35.137145280129914", "lng": "126.79260656438609", "url": "/info/%ED%83%91%EB%A7%A4%EC%9D%BC%EC%95%BD%EA%B5%AD-%EA%B4%91%EC%A3%BC%EA%B4%91%EC%97%AD%EC%8B%9C-%EA%B4%91%EC%82%B0%EA%B5%AC-%EC%86%A1%EC%A0%95%EB%8F%99/", "workingTime": ["-", "09:00~19:00", "09:00~19:00", "09:00~19:00", "09:00~19:00", "09:00~19:00", "09:00~16:00", "-"]}, {"name": "\ud0d1\ubbf8\ub798\uc57d\uad6d", "lat": "35.1408301424", "lng": "126.7954166323", "url": "/info/%ED%83%91%EB%AF%B8%EB%9E%98%EC%95%BD%EA%B5%AD-%EA%B4%91%EC%A3%BC%EA%B4%91%EC%97%AD%EC%8B%9C-%EA%B4%91%EC%82%B0%EA%B5%AC-%EC%86%A1%EC%A0%95%EB%8F%99/", "workingTime": ["1,2,3,4,5\uc9f8\uc8fc12:00~20:00", "08:00~20:00", "08:00~20:00", "08:00~20:00", "08:00~20:00", "08:00~20:00", "08:00~20:00", "12:00~20:00"]}, {"name": "\ud55c\ube5b\uc57d\uad6d", "lat": "35.14129802437275", "lng": "126.79492825178275", "url": "/info/%ED%95%9C%EB%B9%9B%EC%95%BD%EA%B5%AD-%EA%B4%91%EC%A3%BC%EA%B4%91%EC%97%AD%EC%8B%9C-%EA%B4%91%EC%82%B0%EA%B5%AC-%EC%86%A1%EC%A0%95%EB%8F%99/", "workingTime": ["-", "09:00~18:00", "09:00~18:00", "09:00~18:00", "09:00~18:00", "09:00~18:00", "09:00~13:00", "-"]}, {"name": "\ud61c\ub9bc\uc57d\uad6d", "lat": "35.13935726921267", "lng": "126.80079705544323", "url": "/info/%ED%98%9C%EB%A6%BC%EC%95%BD%EA%B5%AD-%EA%B4%91%EC%A3%BC%EA%B4%91%EC%97%AD%EC%8B%9C-%EA%B4%91%EC%82%B0%EA%B5%AC-%EC%86%A1%EC%A0%95%EB%8F%99/", "workingTime": ["-", "09:00~19:00", "09:00~19:00", "09:00~19:00", "09:00~19:00", "09:00~19:00", "09:00~14:00", "-"]}, {"name": "\uc18c\ub9dd\uc57d\uad6d", "lat": "35.1401630272", "lng": "126.7953524632", "url": "/info/%EC%86%8C%EB%A7%9D%EC%95%BD%EA%B5%AD-%EA%B4%91%EC%A3%BC%EA%B4%91%EC%97%AD%EC%8B%9C-%EA%B4%91%EC%82%B0%EA%B5%AC-%EC%86%A1%EC%A0%95%EB%8F%99/", "workingTime": ["1,2,3,4,5\uc9f8\uc8fc09:00~12:00", "09:00~18:30", "09:00~18:30", "09:00~18:30", "09:00~18:30", "09:00~18:30", "09:00~18:30", "-"]}, {"name": "\uc1a1\uc815\ubc31\uc81c\uc57d\uad6d", "lat": "35.13947791694223", "lng": "126.79638894199968", "url": "/info/%EC%86%A1%EC%A0%95%EB%B0%B1%EC%A0%9C%EC%95%BD%EA%B5%AD-%EA%B4%91%EC%A3%BC%EA%B4%91%EC%97%AD%EC%8B%9C-%EA%B4%91%EC%82%B0%EA%B5%AC-%EC%86%A1%EC%A0%95%EB%8F%99/", "workingTime": ["-", "08:30~19:00", "08:30~19:00", "08:30~19:00", "08:30~19:00", "08:30~19:00", "08:30~19:00", "-"]}, {"name": "\uc6b0\ub9ac\uc77c\uce35\uc57d\uad6d", "lat": "35.1414207871", "lng": "126.7950332867", "url": "/info/%EC%9A%B0%EB%A6%AC%EC%9D%BC%EC%B8%B5%EC%95%BD%EA%B5%AD-%EA%B4%91%EC%A3%BC%EA%B4%91%EC%97%AD%EC%8B%9C-%EA%B4%91%EC%82%B0%EA%B5%AC-%EC%86%A1%EC%A0%95%EB%8F%99/", "workingTime": ["-", "08:30~18:50", "08:30~18:50", "08:30~18:50", "08:30~18:50", "08:30~18:50", "08:30~14:30", "-"]}, {"name": "\uc720\uba85\uc885\ub85c\uc57d\uad6d", "lat": "35.13760816775497", "lng": "126.79193976389487", "url": "/info/%EC%9C%A0%EB%AA%85%EC%A2%85%EB%A1%9C%EC%95%BD%EA%B5%AD-%EA%B4%91%EC%A3%BC%EA%B4%91%EC%97%AD%EC%8B%9C-%EA%B4%91%EC%82%B0%EA%B5%AC-%EC%86%A1%EC%A0%95%EB%8F%99/", "workingTime": ["1,2,3,4,5\uc9f8\uc8fc09:00~21:00", "09:00~21:00", "09:00~21:00", "09:00~21:00", "09:00~21:00", "09:00~21:00", "09:00~21:00", "09:00~21:00"]}, {"name": "\uc740\uc131\uc57d\uad6d", "lat": "35.141568684936", "lng": "126.79508889441118", "url": "/info/%EC%9D%80%EC%84%B1%EC%95%BD%EA%B5%AD-%EA%B4%91%EC%A3%BC%EA%B4%91%EC%97%AD%EC%8B%9C-%EA%B4%91%EC%82%B0%EA%B5%AC-%EC%86%A1%EC%A0%95%EB%8F%99/", "workingTime": ["-", "09:00~18:00", "09:00~18:00", "09:00~18:00", "09:00~18:00", "09:00~18:00", "09:00~13:00", "-"]}, {"name": "\uad11\uc0b0\uc885\ub85c\uc57d\uad6d", "lat": "35.1409955249", "lng": "126.795139695", "url": "/info/%EA%B4%91%EC%82%B0%EC%A2%85%EB%A1%9C%EC%95%BD%EA%B5%AD-%EA%B4%91%EC%A3%BC%EA%B4%91%EC%97%AD%EC%8B%9C-%EA%B4%91%EC%82%B0%EA%B5%AC-%EC%86%A1%EC%A0%95%EB%8F%99/", "workingTime": ["-", "08:30~19:00", "08:30~19:00", "08:30~19:00", "08:30~19:00", "08:30~19:00", "08:30~13:00", "-"]}, {"name": "\uad11\uc7a5\uc57d\uad6d", "lat": "35.1343493687564", "lng": "126.79704358791625", "url": "/info/%EA%B4%91%EC%9E%A5%EC%95%BD%EA%B5%AD-%EA%B4%91%EC%A3%BC%EA%B4%91%EC%97%AD%EC%8B%9C-%EA%B4%91%EC%82%B0%EA%B5%AC-%EC%86%A1%EC%A0%95%EB%8F%99/", "workingTime": ["-", "09:00~18:00", "09:00~18:00", "09:00~18:00", "09:00~18:00", "09:00~18:00", "09:00~13:10", "-"]}, {"name": "\uae40\uba85\ubbfc\uc57d\uad6d", "lat": "35.1401630272", "lng": "126.7953524632", "url": "/info/%EA%B9%80%EB%AA%85%EB%AF%BC%EC%95%BD%EA%B5%AD-%EA%B4%91%EC%A3%BC%EA%B4%91%EC%97%AD%EC%8B%9C-%EA%B4%91%EC%82%B0%EA%B5%AC-%EC%86%A1%EC%A0%95%EB%8F%99/", "workingTime": ["-", "08:30~19:00", "08:30~19:00", "08:30~19:00", "08:30~19:00", "08:30~19:00", "08:30~14:00", "-"]}, {"name": "\ub2e4\ub098\uc740\uc57d\uad6d", "lat": "35.13788732715774", "lng": "126.79927763515104", "url": "/info/%EB%8B%A4%EB%82%98%EC%9D%80%EC%95%BD%EA%B5%AD-%EA%B4%91%EC%A3%BC%EA%B4%91%EC%97%AD%EC%8B%9C-%EA%B4%91%EC%82%B0%EA%B5%AC-%EC%86%A1%EC%A0%95%EB%8F%99/", "workingTime": ["-", "08:30~18:30", "08:30~18:30", "08:30~18:30", "08:30~18:30", "08:30~18:30", "08:30~14:00", "-"]}, {"name": "\ub9e4\uc77c\uac74\uac15\uc57d\uad6d", "lat": "35.13734284584865", "lng": "126.79869851761899", "url": "/info/%EB%A7%A4%EC%9D%BC%EA%B1%B4%EA%B0%95%EC%95%BD%EA%B5%AD-%EA%B4%91%EC%A3%BC%EA%B4%91%EC%97%AD%EC%8B%9C-%EA%B4%91%EC%82%B0%EA%B5%AC-%EC%86%A1%EC%A0%95%EB%8F%99/", "workingTime": ["-", "08:30~19:00", "08:30~19:00", "08:30~19:00", "08:30~19:00", "08:30~19:00", "08:30~13:30", "-"]}]