[{"name": "\ud638\ub0a8\uc57d\uad6d", "lat": "35.14217371418508", "lng": "126.92045211592736", "url": "/info/%ED%98%B8%EB%82%A8%EC%95%BD%EA%B5%AD-%EA%B4%91%EC%A3%BC%EA%B4%91%EC%97%AD%EC%8B%9C-%EB%8F%99%EA%B5%AC-%EB%82%A8%EB%8F%99/", "workingTime": ["-", "08:30~18:30", "08:30~18:30", "08:30~18:30", "08:30~18:30", "08:30~18:30", "08:30~13:00", "-"]}, {"name": "\ud504\ub80c\uc988\uc57d\uad6d", "lat": "35.142792717672", "lng": "126.920756449928", "url": "/info/%ED%94%84%EB%A0%8C%EC%A6%88%EC%95%BD%EA%B5%AD-%EA%B4%91%EC%A3%BC%EA%B4%91%EC%97%AD%EC%8B%9C-%EB%8F%99%EA%B5%AC-%EB%82%A8%EB%8F%99/", "workingTime": ["-", "09:00~18:00", "09:00~18:00", "09:00~18:00", "09:00~18:00", "09:00~17:00", "-", "-"]}, {"name": "\uc0d8\ubb3c\uc57d\uad6d", "lat": "35.1430991804802", "lng": "126.92103224507", "url": "/info/%EC%83%98%EB%AC%BC%EC%95%BD%EA%B5%AD-%EA%B4%91%EC%A3%BC%EA%B4%91%EC%97%AD%EC%8B%9C-%EB%8F%99%EA%B5%AC-%EB%82%A8%EB%8F%99/", "workingTime": ["-", "08:30~19:00", "08:30~19:00", "08:30~19:00", "08:30~19:00", "08:30~19:00", "08:30~15:30", "-"]}, {"name": "\uc138\uc77c\uc57d\uad6d", "lat": "35.148073355472924", "lng": "126.9132844248478", "url": "/info/%EC%84%B8%EC%9D%BC%EC%95%BD%EA%B5%AD-%EA%B4%91%EC%A3%BC%EA%B4%91%EC%97%AD%EC%8B%9C-%EB%8F%99%EA%B5%AC-%EB%82%A8%EB%8F%99/", "workingTime": ["-", "09:00~20:00", "09:00~20:00", "09:00~20:00", "09:00~20:00", "09:00~20:00", "09:00~18:00", "-"]}, {"name": "\ud2bc\ud2bc\ud55c \uc57d\uad6d", "lat": "35.1436780073693", "lng": "126.920713782713", "url": "/info/%ED%8A%BC%ED%8A%BC%ED%95%9C+%EC%95%BD%EA%B5%AD-%EA%B4%91%EC%A3%BC%EA%B4%91%EC%97%AD%EC%8B%9C-%EB%8F%99%EA%B5%AC-%EB%82%A8%EB%8F%99/", "workingTime": ["-", "09:00~18:00", "09:00~18:00", "09:00~13:00", "09:00~18:00", "09:00~18:00", "09:00~13:00", "-"]}, {"name": "\ud558\ub098\ub85c\ub204\uac00\uc57d\uad6d", "lat": "35.14280503950098", "lng": "126.92099137884772", "url": "/info/%ED%95%98%EB%82%98%EB%A1%9C%EB%88%84%EA%B0%80%EC%95%BD%EA%B5%AD-%EA%B4%91%EC%A3%BC%EA%B4%91%EC%97%AD%EC%8B%9C-%EB%8F%99%EA%B5%AC-%EB%82%A8%EB%8F%99/", "workingTime": ["-", "08:00~18:00", "07:30~18:00", "08:00~18:00", "07:30~18:00", "08:00~18:00", "-", "-"]}, {"name": "\uad11\uc8fc\ud3c9\ud654\uc57d\uad6d", "lat": "35.144080609363904", "lng": "126.92145742060683", "url": "/info/%EA%B4%91%EC%A3%BC%ED%8F%89%ED%99%94%EC%95%BD%EA%B5%AD-%EA%B4%91%EC%A3%BC%EA%B4%91%EC%97%AD%EC%8B%9C-%EB%8F%99%EA%B5%AC-%EB%82%A8%EB%8F%99/", "workingTime": ["-", "08:00~18:00", "08:00~18:00", "08:00~18:00", "08:00~18:00", "08:00~18:00", "07:40~13:00", "-"]}, {"name": "\ub274\uc695\uc57d\uad6d", "lat": "35.14269139335078", "lng": "126.92090645977882", "url": "/info/%EB%89%B4%EC%9A%95%EC%95%BD%EA%B5%AD-%EA%B4%91%EC%A3%BC%EA%B4%91%EC%97%AD%EC%8B%9C-%EB%8F%99%EA%B5%AC-%EB%82%A8%EB%8F%99/", "workingTime": ["-", "08:00~18:30", "08:00~18:30", "08:00~18:30", "08:00~18:30", "08:30~18:00", "-", "-"]}, {"name": "\ub2ec\uc131\uc57d\uad6d", "lat": "35.14285590031061", "lng": "126.9212654059422", "url": "/info/%EB%8B%AC%EC%84%B1%EC%95%BD%EA%B5%AD-%EA%B4%91%EC%A3%BC%EA%B4%91%EC%97%AD%EC%8B%9C-%EB%8F%99%EA%B5%AC-%EB%82%A8%EB%8F%99/", "workingTime": ["-", "08:00~18:30", "08:00~18:30", "08:00~18:30", "08:00~18:30", "08:00~18:30", "-", "-"]}, {"name": "\ub85c\ub380\uc57d\uad6d", "lat": "35.142862806695945", "lng": "126.9211142253851", "url": "/info/%EB%A1%9C%EB%8E%80%EC%95%BD%EA%B5%AD-%EA%B4%91%EC%A3%BC%EA%B4%91%EC%97%AD%EC%8B%9C-%EB%8F%99%EA%B5%AC-%EB%82%A8%EB%8F%99/", "workingTime": ["-", "08:00~18:00", "08:00~18:00", "08:00~18:00", "08:00~18:00", "08:00~18:00", "-", "-"]}, {"name": "\ubb34\ub4f1\uc0b0\uc57d\uad6d", "lat": "35.142858333333336", "lng": "126.920172222222220", "url": "/info/%EB%AC%B4%EB%93%B1%EC%82%B0%EC%95%BD%EA%B5%AD-%EA%B4%91%EC%A3%BC%EA%B4%91%EC%97%AD%EC%8B%9C-%EB%8F%99%EA%B5%AC-%EB%82%A8%EB%8F%99/", "workingTime": ["-", "08:30~18:00", "08:30~18:00", "08:30~18:00", "08:30~18:00", "08:30~18:00", "08:30~13:30", "-"]}]