[{"name": "\ubd80\uac15\ud55c\uc57d\uad6d", "lat": "35.15552237321757", "lng": "126.91702256842401", "url": "/info/%EB%B6%80%EA%B0%95%ED%95%9C%EC%95%BD%EA%B5%AD-%EA%B4%91%EC%A3%BC%EA%B4%91%EC%97%AD%EC%8B%9C-%EB%8F%99%EA%B5%AC-%EA%B3%84%EB%A6%BC%EB%8F%99/", "workingTime": ["-", "09:00~18:00", "09:00~18:00", "09:00~18:00", "09:00~18:00", "09:00~18:00", "09:00~12:00", "-"]}, {"name": "\uc88b\uc740\uc628\ub204\ub9ac\uc57d\uad6d", "lat": "35.157840959175", "lng": "126.91662716874", "url": "/info/%EC%A2%8B%EC%9D%80%EC%98%A8%EB%88%84%EB%A6%AC%EC%95%BD%EA%B5%AD-%EA%B4%91%EC%A3%BC%EA%B4%91%EC%97%AD%EC%8B%9C-%EB%8F%99%EA%B5%AC-%EA%B3%84%EB%A6%BC%EB%8F%99/", "workingTime": ["1,2,3,4,5\uc9f8\uc8fc09:00~13:00", "09:00~20:00", "09:00~20:00", "09:00~20:00", "09:00~20:00", "09:00~20:00", "09:00~20:00", "09:00~13:00"]}, {"name": "\ubc1d\uc740\uc57d\uad6d", "lat": "35.160142536103976", "lng": "126.9249697891322", "url": "/info/%EB%B0%9D%EC%9D%80%EC%95%BD%EA%B5%AD-%EA%B4%91%EC%A3%BC%EA%B4%91%EC%97%AD%EC%8B%9C-%EB%8F%99%EA%B5%AC-%EA%B3%84%EB%A6%BC%EB%8F%99/", "workingTime": ["-", "09:00~18:30", "09:00~18:30", "09:00~18:30", "09:00~18:30", "09:00~18:30", "09:00~13:00", "-"]}, {"name": "\uc2a4\uc704\uc2a4\uc57d\uad6d", "lat": "35.16385866721461", "lng": "126.92049000450953", "url": "/info/%EC%8A%A4%EC%9C%84%EC%8A%A4%EC%95%BD%EA%B5%AD-%EA%B4%91%EC%A3%BC%EA%B4%91%EC%97%AD%EC%8B%9C-%EB%8F%99%EA%B5%AC-%EA%B3%84%EB%A6%BC%EB%8F%99/", "workingTime": ["-", "09:30~20:00", "09:30~20:30", "09:30~20:00", "09:30~20:00", "09:30~20:30", "09:30~18:00", "-"]}, {"name": "\uc2e0\uc138\uacc4\uc628\ub204\ub9ac\uc57d\uad6d", "lat": "35.1587774708", "lng": "126.9272583498", "url": "/info/%EC%8B%A0%EC%84%B8%EA%B3%84%EC%98%A8%EB%88%84%EB%A6%AC%EC%95%BD%EA%B5%AD-%EA%B4%91%EC%A3%BC%EA%B4%91%EC%97%AD%EC%8B%9C-%EB%8F%99%EA%B5%AC-%EA%B3%84%EB%A6%BC%EB%8F%99/", "workingTime": ["-", "08:00~18:30", "08:00~18:30", "08:00~18:30", "08:00~18:30", "08:00~18:30", "08:00~13:00", "-"]}, {"name": "\uc6d4\uc0b0\uc57d\uad6d", "lat": "35.155001755386145", "lng": "126.91991392637501", "url": "/info/%EC%9B%94%EC%82%B0%EC%95%BD%EA%B5%AD-%EA%B4%91%EC%A3%BC%EA%B4%91%EC%97%AD%EC%8B%9C-%EB%8F%99%EA%B5%AC-%EA%B3%84%EB%A6%BC%EB%8F%99/", "workingTime": ["-", "08:00~18:00", "08:00~18:00", "08:00~18:00", "08:00~18:00", "08:00~18:00", "08:00~12:00", "-"]}, {"name": "\uc720\ub9ac\uc57d\uad6d", "lat": "35.16189948499842", "lng": "126.92858311013482", "url": "/info/%EC%9C%A0%EB%A6%AC%EC%95%BD%EA%B5%AD-%EA%B4%91%EC%A3%BC%EA%B4%91%EC%97%AD%EC%8B%9C-%EB%8F%99%EA%B5%AC-%EA%B3%84%EB%A6%BC%EB%8F%99/", "workingTime": ["-", "09:00~18:00", "09:00~18:00", "09:00~18:00", "09:00~18:00", "09:00~18:00", "09:00~13:00", "-"]}, {"name": "\uc73c\ub738\uc57d\uad6d", "lat": "35.161055555555556", "lng": "126.929872222222215", "url": "/info/%EC%9C%BC%EB%9C%B8%EC%95%BD%EA%B5%AD-%EA%B4%91%EC%A3%BC%EA%B4%91%EC%97%AD%EC%8B%9C-%EB%8F%99%EA%B5%AC-%EA%B3%84%EB%A6%BC%EB%8F%99/", "workingTime": ["-", "09:00~18:00", "09:00~18:00", "09:00~18:00", "09:00~18:00", "09:00~18:00", "09:00~13:00", "-"]}, {"name": "\uccb4\uc9c8\uac74\uac15\uc57d\uad6d", "lat": "35.16146629858951", "lng": "126.9165632267398", "url": "/info/%EC%B2%B4%EC%A7%88%EA%B1%B4%EA%B0%95%EC%95%BD%EA%B5%AD-%EA%B4%91%EC%A3%BC%EA%B4%91%EC%97%AD%EC%8B%9C-%EB%8F%99%EA%B5%AC-%EA%B3%84%EB%A6%BC%EB%8F%99/", "workingTime": ["1,3,5\uc9f8\uc8fc10:00~22:00", "10:00~22:00", "10:00~22:00", "10:00~22:00", "10:00~22:00", "10:00~22:00", "10:00~22:00", "10:00~22:00"]}, {"name": "\ud558\ub298\uc57d\uad6d", "lat": "35.1597006299143", "lng": "126.926936708619", "url": "/info/%ED%95%98%EB%8A%98%EC%95%BD%EA%B5%AD-%EA%B4%91%EC%A3%BC%EA%B4%91%EC%97%AD%EC%8B%9C-%EB%8F%99%EA%B5%AC-%EA%B3%84%EB%A6%BC%EB%8F%99/", "workingTime": ["-", "09:00~21:00", "09:00~21:00", "09:00~21:00", "09:00~21:00", "09:00~21:00", "09:00~21:00", "-"]}, {"name": "\uacc4\ub9bc\uc57d\uad6d", "lat": "35.1546917298", "lng": "126.9202906581", "url": "/info/%EA%B3%84%EB%A6%BC%EC%95%BD%EA%B5%AD-%EA%B4%91%EC%A3%BC%EA%B4%91%EC%97%AD%EC%8B%9C-%EB%8F%99%EA%B5%AC-%EA%B3%84%EB%A6%BC%EB%8F%99/", "workingTime": ["-", "09:00~18:30", "09:00~18:30", "09:00~18:30", "09:00~18:30", "09:00~18:30", "09:00~13:00", "-"]}, {"name": "\uacc4\ub9bc\uc628\ub204\ub9ac\uc57d\uad6d", "lat": "35.1607762866852", "lng": "126.920318857572", "url": "/info/%EA%B3%84%EB%A6%BC%EC%98%A8%EB%88%84%EB%A6%AC%EC%95%BD%EA%B5%AD-%EA%B4%91%EC%A3%BC%EA%B4%91%EC%97%AD%EC%8B%9C-%EB%8F%99%EA%B5%AC-%EA%B3%84%EB%A6%BC%EB%8F%99/", "workingTime": ["-", "09:00~18:30", "09:00~18:30", "09:00~18:30", "09:00~18:30", "09:00~18:30", "09:00~14:00", "-"]}, {"name": "\uad11\uba85\ub2f9\uc57d\uad6d", "lat": "35.15626294129508", "lng": "126.92087040257181", "url": "/info/%EA%B4%91%EB%AA%85%EB%8B%B9%EC%95%BD%EA%B5%AD-%EA%B4%91%EC%A3%BC%EA%B4%91%EC%97%AD%EC%8B%9C-%EB%8F%99%EA%B5%AC-%EA%B3%84%EB%A6%BC%EB%8F%99/", "workingTime": ["-", "09:00~17:00", "09:00~17:00", "09:00~17:00", "09:00~17:00", "09:00~17:00", "-", "-"]}, {"name": "\uad11\uc8fc\uc57d\uad6d", "lat": "35.16485042029617", "lng": "126.91814254915952", "url": "/info/%EA%B4%91%EC%A3%BC%EC%95%BD%EA%B5%AD-%EA%B4%91%EC%A3%BC%EA%B4%91%EC%97%AD%EC%8B%9C-%EB%8F%99%EA%B5%AC-%EA%B3%84%EB%A6%BC%EB%8F%99/", "workingTime": ["-", "09:00~18:00", "09:00~18:00", "09:00~18:00", "09:00~18:00", "09:00~18:00", "09:00~14:00", "-"]}, {"name": "\ubbf8\ud654\uc57d\uad6d", "lat": "35.149297478987115", "lng": "126.91177878848675", "url": "/info/%EB%AF%B8%ED%99%94%EC%95%BD%EA%B5%AD-%EA%B4%91%EC%A3%BC%EA%B4%91%EC%97%AD%EC%8B%9C-%EB%8F%99%EA%B5%AC-%EA%B3%84%EB%A6%BC%EB%8F%99/", "workingTime": ["-", "09:00~17:00", "09:00~17:00", "09:00~17:00", "09:00~17:00", "09:00~17:00", "-", "-"]}]