[{"name": "\uc628\ub204\ub9ac\uc6b0\ub9ac\uc57d\uad6d", "lat": "35.133321632245284", "lng": "126.85958728675942", "url": "/info/%EC%98%A8%EB%88%84%EB%A6%AC%EC%9A%B0%EB%A6%AC%EC%95%BD%EA%B5%AD-%EA%B4%91%EC%A3%BC%EA%B4%91%EC%97%AD%EC%8B%9C-%EC%84%9C%EA%B5%AC-%EA%B8%88%ED%98%B8%EB%8F%99/", "workingTime": ["1,2,3,4,5\uc9f8\uc8fc14:00~21:00", "09:00~22:00", "09:00~22:00", "09:00~22:00", "09:00~22:00", "09:00~22:00", "09:00~21:00", "09:00~21:00"]}, {"name": "\uc885\uc6d0\uc885\ub85c\uc57d\uad6d", "lat": "35.12912811235671", "lng": "126.85499783203254", "url": "/info/%EC%A2%85%EC%9B%90%EC%A2%85%EB%A1%9C%EC%95%BD%EA%B5%AD-%EA%B4%91%EC%A3%BC%EA%B4%91%EC%97%AD%EC%8B%9C-%EC%84%9C%EA%B5%AC-%EA%B8%88%ED%98%B8%EB%8F%99/", "workingTime": ["1,2,3,4,5\uc9f8\uc8fc09:00~23:00", "08:00~24:00", "08:00~24:00", "08:00~24:00", "08:00~24:00", "08:00~24:00", "08:00~24:00", "09:00~24:00"]}, {"name": "\ucc38\uc0ac\ub791\uc57d\uad6d", "lat": "35.13576495337826", "lng": "126.86208041002645", "url": "/info/%EC%B0%B8%EC%82%AC%EB%9E%91%EC%95%BD%EA%B5%AD-%EA%B4%91%EC%A3%BC%EA%B4%91%EC%97%AD%EC%8B%9C-%EC%84%9C%EA%B5%AC-%EA%B8%88%ED%98%B8%EB%8F%99/", "workingTime": ["-", "08:30~18:00", "08:30~18:00", "08:30~18:00", "08:30~18:00", "08:30~18:00", "08:30~13:00", "-"]}, {"name": "\ud143\ubc2d\uc57d\uad6d", "lat": "35.130551203464925", "lng": "126.85491916782646", "url": "/info/%ED%85%83%EB%B0%AD%EC%95%BD%EA%B5%AD-%EA%B4%91%EC%A3%BC%EA%B4%91%EC%97%AD%EC%8B%9C-%EC%84%9C%EA%B5%AC-%EA%B8%88%ED%98%B8%EB%8F%99/", "workingTime": ["-", "09:00~18:30", "09:00~18:30", "09:00~18:30", "09:00~18:30", "09:00~18:30", "09:00~13:00", "09:00~13:00"]}, {"name": "\ud3c9\ud654\uc57d\uad6d", "lat": "35.1310224174948", "lng": "126.85924709668443", "url": "/info/%ED%8F%89%ED%99%94%EC%95%BD%EA%B5%AD-%EA%B4%91%EC%A3%BC%EA%B4%91%EC%97%AD%EC%8B%9C-%EC%84%9C%EA%B5%AC-%EA%B8%88%ED%98%B8%EB%8F%99/", "workingTime": ["-", "08:30~18:00", "08:30~18:00", "08:30~18:00", "08:30~18:00", "08:30~18:00", "08:30~13:00", "-"]}, {"name": "\ud55c\uc0d8\uc57d\uad6d", "lat": "35.14044305161584", "lng": "126.85894980886728", "url": "/info/%ED%95%9C%EC%83%98%EC%95%BD%EA%B5%AD-%EA%B4%91%EC%A3%BC%EA%B4%91%EC%97%AD%EC%8B%9C-%EC%84%9C%EA%B5%AC-%EA%B8%88%ED%98%B8%EB%8F%99/", "workingTime": ["-", "09:00~21:00", "09:00~21:00", "09:00~21:00", "09:00~21:00", "09:00~21:00", "09:00~18:00", "-"]}, {"name": "\ub300\uac74\uc57d\uad6d", "lat": "35.13344152277779", "lng": "126.85959531005174", "url": "/info/%EB%8C%80%EA%B1%B4%EC%95%BD%EA%B5%AD-%EA%B4%91%EC%A3%BC%EA%B4%91%EC%97%AD%EC%8B%9C-%EC%84%9C%EA%B5%AC-%EA%B8%88%ED%98%B8%EB%8F%99/", "workingTime": ["-", "08:30~22:00", "08:30~22:00", "08:30~22:00", "08:30~22:00", "08:30~22:00", "08:30~22:00", "08:30~13:00"]}, {"name": "\ub300\ud638\uc57d\uad6d", "lat": "35.135612243310725", "lng": "126.8593444528135", "url": "/info/%EB%8C%80%ED%98%B8%EC%95%BD%EA%B5%AD-%EA%B4%91%EC%A3%BC%EA%B4%91%EC%97%AD%EC%8B%9C-%EC%84%9C%EA%B5%AC-%EA%B8%88%ED%98%B8%EB%8F%99/", "workingTime": ["-", "09:00~18:30", "09:00~18:30", "09:00~18:30", "09:00~18:30", "09:00~18:30", "09:00~12:30", "-"]}, {"name": "\ub9c8\uc7ac\uc6b0\ub9ac\uc57d\uad6d", "lat": "35.130934158832176", "lng": "126.85477077539453", "url": "/info/%EB%A7%88%EC%9E%AC%EC%9A%B0%EB%A6%AC%EC%95%BD%EA%B5%AD-%EA%B4%91%EC%A3%BC%EA%B4%91%EC%97%AD%EC%8B%9C-%EC%84%9C%EA%B5%AC-%EA%B8%88%ED%98%B8%EB%8F%99/", "workingTime": ["-", "09:00~20:00", "09:00~20:00", "09:00~20:00", "09:00~20:00", "09:00~20:00", "09:00~16:00", "-"]}, {"name": "\ubbf8\uc9c0\uc6d0\uc57d\uad6d", "lat": "35.132258175369614", "lng": "126.85545304990188", "url": "/info/%EB%AF%B8%EC%A7%80%EC%9B%90%EC%95%BD%EA%B5%AD-%EA%B4%91%EC%A3%BC%EA%B4%91%EC%97%AD%EC%8B%9C-%EC%84%9C%EA%B5%AC-%EA%B8%88%ED%98%B8%EB%8F%99/", "workingTime": ["-", "08:30~20:00", "08:30~20:00", "08:30~20:00", "08:30~20:00", "08:30~20:00", "08:30~16:00", "09:00~18:00"]}, {"name": "\ubc1d\uc740\uc57d\uad6d", "lat": "35.12465446729843", "lng": "126.85413860285323", "url": "/info/%EB%B0%9D%EC%9D%80%EC%95%BD%EA%B5%AD-%EA%B4%91%EC%A3%BC%EA%B4%91%EC%97%AD%EC%8B%9C-%EC%84%9C%EA%B5%AC-%EA%B8%88%ED%98%B8%EB%8F%99/", "workingTime": ["1,2,3,4,5\uc9f8\uc8fc10:00~22:00", "08:00~22:00", "08:00~22:00", "08:00~22:00", "08:00~22:00", "08:00~22:00", "08:00~22:00", "10:00~22:00"]}, {"name": "\uc0c8\ubd04\uc57d\uad6d", "lat": "35.13189406120295", "lng": "126.8585858044423", "url": "/info/%EC%83%88%EB%B4%84%EC%95%BD%EA%B5%AD-%EA%B4%91%EC%A3%BC%EA%B4%91%EC%97%AD%EC%8B%9C-%EC%84%9C%EA%B5%AC-%EA%B8%88%ED%98%B8%EB%8F%99/", "workingTime": ["-", "08:30~19:00", "08:30~19:00", "08:30~19:00", "08:30~19:00", "08:30~19:00", "08:30~16:00", "09:00~13:00"]}, {"name": "\uadf8\ub9b0\uc57d\uad6d", "lat": "35.137477802091674", "lng": "126.85918842572843", "url": "/info/%EA%B7%B8%EB%A6%B0%EC%95%BD%EA%B5%AD-%EA%B4%91%EC%A3%BC%EA%B4%91%EC%97%AD%EC%8B%9C-%EC%84%9C%EA%B5%AC-%EA%B8%88%ED%98%B8%EB%8F%99/", "workingTime": ["-", "09:00~20:00", "09:00~20:00", "09:00~20:00", "09:00~20:00", "09:00~20:00", "09:00~20:00", "-"]}, {"name": "\uae08\ud638\ub77c\uc778\uc57d\uad6d", "lat": "35.1392750715048", "lng": "126.85910107494097", "url": "/info/%EA%B8%88%ED%98%B8%EB%9D%BC%EC%9D%B8%EC%95%BD%EA%B5%AD-%EA%B4%91%EC%A3%BC%EA%B4%91%EC%97%AD%EC%8B%9C-%EC%84%9C%EA%B5%AC-%EA%B8%88%ED%98%B8%EB%8F%99/", "workingTime": ["-", "09:00~18:00", "09:00~18:00", "09:00~18:00", "09:00~18:00", "09:00~18:00", "09:00~12:30", "-"]}, {"name": "\uae08\ud638\uc218\uc57d\uad6d", "lat": "35.1319020761869", "lng": "126.858254642293", "url": "/info/%EA%B8%88%ED%98%B8%EC%88%98%EC%95%BD%EA%B5%AD-%EA%B4%91%EC%A3%BC%EA%B4%91%EC%97%AD%EC%8B%9C-%EC%84%9C%EA%B5%AC-%EA%B8%88%ED%98%B8%EB%8F%99/", "workingTime": ["1,2,3,4,5\uc9f8\uc8fc10:00~20:00", "09:00~21:00", "09:00~21:00", "09:00~21:00", "09:00~21:00", "09:00~21:00", "09:00~21:00", "10:00~20:00"]}, {"name": "\uae08\ud638\uc2a4\ud0c0\uc57d\uad6d", "lat": "35.13245231162966", "lng": "126.85652976495044", "url": "/info/%EA%B8%88%ED%98%B8%EC%8A%A4%ED%83%80%EC%95%BD%EA%B5%AD-%EA%B4%91%EC%A3%BC%EA%B4%91%EC%97%AD%EC%8B%9C-%EC%84%9C%EA%B5%AC-%EA%B8%88%ED%98%B8%EB%8F%99/", "workingTime": ["1,2,3,4,5\uc9f8\uc8fc09:00~25:00", "09:00~25:00", "09:00~25:00", "09:00~25:00", "09:00~25:00", "09:00~25:00", "09:00~25:00", "09:00~25:00"]}, {"name": "\uae08\ud638\uc57d\uad6d", "lat": "35.13204265954164", "lng": "126.85916632562041", "url": "/info/%EA%B8%88%ED%98%B8%EC%95%BD%EA%B5%AD-%EA%B4%91%EC%A3%BC%EA%B4%91%EC%97%AD%EC%8B%9C-%EC%84%9C%EA%B5%AC-%EA%B8%88%ED%98%B8%EB%8F%99/", "workingTime": ["-", "08:30~18:30", "08:30~18:30", "08:30~18:30", "08:30~18:30", "08:30~18:30", "08:30~13:30", "-"]}, {"name": "\uae08\ud638\uc81c\uc77c\uc57d\uad6d", "lat": "35.13086031238362", "lng": "126.85936587326188", "url": "/info/%EA%B8%88%ED%98%B8%EC%A0%9C%EC%9D%BC%EC%95%BD%EA%B5%AD-%EA%B4%91%EC%A3%BC%EA%B4%91%EC%97%AD%EC%8B%9C-%EC%84%9C%EA%B5%AC-%EA%B8%88%ED%98%B8%EB%8F%99/", "workingTime": ["1,2,3,4,5\uc9f8\uc8fc09:00~17:00", "08:00~21:00", "08:00~21:00", "08:00~21:00", "08:00~21:00", "08:00~21:00", "09:00~17:00", "09:00~17:00"]}, {"name": "\uae08\ud638\ud504\ub77c\uc790\uc57d\uad6d", "lat": "35.13176027867512", "lng": "126.8581837378288", "url": "/info/%EA%B8%88%ED%98%B8%ED%94%84%EB%9D%BC%EC%9E%90%EC%95%BD%EA%B5%AD-%EA%B4%91%EC%A3%BC%EA%B4%91%EC%97%AD%EC%8B%9C-%EC%84%9C%EA%B5%AC-%EA%B8%88%ED%98%B8%EB%8F%99/", "workingTime": ["1,2,3,4,5\uc9f8\uc8fc17:00~22:00", "09:00~22:00", "09:00~22:00", "09:00~22:00", "09:00~22:00", "09:00~22:00", "09:00~22:00", "09:00~22:00"]}]