[{"name": "\ubc31\uc138\uc57d\uad6d", "lat": "35.206382926", "lng": "126.8487036938", "url": "/info/%EB%B0%B1%EC%84%B8%EC%95%BD%EA%B5%AD-%EA%B4%91%EC%A3%BC%EA%B4%91%EC%97%AD%EC%8B%9C-%EA%B4%91%EC%82%B0%EA%B5%AC-%EC%82%B0%EC%9B%94%EB%8F%99/", "workingTime": ["-", "09:00~17:30", "09:00~17:30", "09:00~17:30", "09:00~17:30", "09:00~17:30", "-", "-"]}, {"name": "\uc57d\uc190\uc57d\uad6d", "lat": "35.2064088596", "lng": "126.8492615291", "url": "/info/%EC%95%BD%EC%86%90%EC%95%BD%EA%B5%AD-%EA%B4%91%EC%A3%BC%EA%B4%91%EC%97%AD%EC%8B%9C-%EA%B4%91%EC%82%B0%EA%B5%AC-%EC%82%B0%EC%9B%94%EB%8F%99/", "workingTime": ["-", "08:30~18:00", "08:30~18:00", "08:30~18:00", "08:30~18:00", "08:30~18:00", "09:00~11:00", "-"]}, {"name": "\uc740\ud61c\uc57d\uad6d", "lat": "35.20638506166898", "lng": "126.84898594116515", "url": "/info/%EC%9D%80%ED%98%9C%EC%95%BD%EA%B5%AD-%EA%B4%91%EC%A3%BC%EA%B4%91%EC%97%AD%EC%8B%9C-%EA%B4%91%EC%82%B0%EA%B5%AC-%EC%82%B0%EC%9B%94%EB%8F%99/", "workingTime": ["-", "09:00~18:00", "09:00~18:00", "09:00~18:00", "09:00~18:00", "09:00~18:00", "-", "-"]}, {"name": "\uc81c\uc77c\uc885\ub85c\uc57d\uad6d", "lat": "35.2063680936997", "lng": "126.848519444126", "url": "/info/%EC%A0%9C%EC%9D%BC%EC%A2%85%EB%A1%9C%EC%95%BD%EA%B5%AD-%EA%B4%91%EC%A3%BC%EA%B4%91%EC%97%AD%EC%8B%9C-%EA%B4%91%EC%82%B0%EA%B5%AC-%EC%82%B0%EC%9B%94%EB%8F%99/", "workingTime": ["-", "08:00~19:00", "08:00~19:00", "08:00~19:00", "08:00~19:00", "08:00~19:00", "-", "-"]}, {"name": "\ucca8\ub2e8\uc628\ub204\ub9ac\uc57d\uad6d", "lat": "35.20889899412652", "lng": "126.85013679621542", "url": "/info/%EC%B2%A8%EB%8B%A8%EC%98%A8%EB%88%84%EB%A6%AC%EC%95%BD%EA%B5%AD-%EA%B4%91%EC%A3%BC%EA%B4%91%EC%97%AD%EC%8B%9C-%EA%B4%91%EC%82%B0%EA%B5%AC-%EC%82%B0%EC%9B%94%EB%8F%99/", "workingTime": ["-", "08:40~18:30", "08:40~18:30", "08:40~18:30", "08:40~18:30", "08:40~18:30", "10:00~13:00", "-"]}, {"name": "\ub354\uc870\uc740\ubcf4\uc740\uc57d\uad6d", "lat": "35.2063699207", "lng": "126.8498414482", "url": "/info/%EB%8D%94%EC%A1%B0%EC%9D%80%EB%B3%B4%EC%9D%80%EC%95%BD%EA%B5%AD-%EA%B4%91%EC%A3%BC%EA%B4%91%EC%97%AD%EC%8B%9C-%EA%B4%91%EC%82%B0%EA%B5%AC-%EC%82%B0%EC%9B%94%EB%8F%99/", "workingTime": ["-", "08:30~17:30", "08:30~17:30", "08:30~17:30", "08:30~17:30", "08:30~17:30", "-", "-"]}]