[{"name": "\ud558\ub0a8\uc560\ud50c\uc57d\uad6d", "lat": "35.1763899086", "lng": "126.8015542523", "url": "/info/%ED%95%98%EB%82%A8%EC%95%A0%ED%94%8C%EC%95%BD%EA%B5%AD-%EA%B4%91%EC%A3%BC%EA%B4%91%EC%97%AD%EC%8B%9C-%EA%B4%91%EC%82%B0%EA%B5%AC-%EC%82%B0%EC%A0%95%EB%8F%99/", "workingTime": ["1,2,3,4,5\uc9f8\uc8fc09:00~21:00", "09:00~21:00", "09:00~21:00", "13:00~21:00", "09:00~21:00", "09:00~21:00", "08:30~21:00", "-"]}, {"name": "\ud558\ub0a8\uc885\ub85c\uc57d\uad6d", "lat": "35.17573800328841", "lng": "126.79842717235212", "url": "/info/%ED%95%98%EB%82%A8%EC%A2%85%EB%A1%9C%EC%95%BD%EA%B5%AD-%EA%B4%91%EC%A3%BC%EA%B4%91%EC%97%AD%EC%8B%9C-%EA%B4%91%EC%82%B0%EA%B5%AC-%EC%82%B0%EC%A0%95%EB%8F%99/", "workingTime": ["1,2,3,4,5\uc9f8\uc8fc17:00~21:00", "09:00~21:00", "09:00~21:00", "09:00~21:00", "09:00~21:00", "09:00~21:00", "09:00~21:00", "17:00~21:00"]}, {"name": "\ud55c\ub9c8\uc74c\uc57d\uad6d", "lat": "35.1669001674", "lng": "126.8013929012", "url": "/info/%ED%95%9C%EB%A7%88%EC%9D%8C%EC%95%BD%EA%B5%AD-%EA%B4%91%EC%A3%BC%EA%B4%91%EC%97%AD%EC%8B%9C-%EA%B4%91%EC%82%B0%EA%B5%AC-%EC%82%B0%EC%A0%95%EB%8F%99/", "workingTime": ["-", "08:30~18:00", "08:30~18:00", "08:30~18:00", "08:30~18:00", "08:30~18:00", "08:30~13:30", "-"]}, {"name": "\uc218\ud55c\uc57d\uad6d", "lat": "35.1721507572441", "lng": "126.805733746976", "url": "/info/%EC%88%98%ED%95%9C%EC%95%BD%EA%B5%AD-%EA%B4%91%EC%A3%BC%EA%B4%91%EC%97%AD%EC%8B%9C-%EA%B4%91%EC%82%B0%EA%B5%AC-%EC%82%B0%EC%A0%95%EB%8F%99/", "workingTime": ["1,2,3,4,5\uc9f8\uc8fc12:00~21:00", "10:00~21:00", "10:00~21:00", "10:00~21:00", "10:00~21:00", "10:00~21:00", "11:00~21:00", "12:00~21:00"]}, {"name": "\uc5f0\uc6b0\uc57d\uad6d", "lat": "35.17596822693405", "lng": "126.7994695000435", "url": "/info/%EC%97%B0%EC%9A%B0%EC%95%BD%EA%B5%AD-%EA%B4%91%EC%A3%BC%EA%B4%91%EC%97%AD%EC%8B%9C-%EA%B4%91%EC%82%B0%EA%B5%AC-%EC%82%B0%EC%A0%95%EB%8F%99/", "workingTime": ["-", "08:30~20:00", "08:30~20:00", "08:30~20:00", "08:30~20:00", "08:30~20:00", "09:00~19:00", "-"]}, {"name": "\uc885\ub85c\ub2f9\uc628\ub204\ub9ac\uc57d\uad6d", "lat": "35.166259611501594", "lng": "126.8015197138673", "url": "/info/%EC%A2%85%EB%A1%9C%EB%8B%B9%EC%98%A8%EB%88%84%EB%A6%AC%EC%95%BD%EA%B5%AD-%EA%B4%91%EC%A3%BC%EA%B4%91%EC%97%AD%EC%8B%9C-%EA%B4%91%EC%82%B0%EA%B5%AC-%EC%82%B0%EC%A0%95%EB%8F%99/", "workingTime": ["-", "09:00~18:30", "09:00~18:30", "09:00~18:30", "09:00~18:30", "09:00~18:30", "09:00~15:30", "-"]}]