[{"name": "\uc77c\uace1\ubca0\uc2a4\ud2b8\uc57d\uad6d", "lat": "35.20483688033758", "lng": "126.89751385029437", "url": "/info/%EC%9D%BC%EA%B3%A1%EB%B2%A0%EC%8A%A4%ED%8A%B8%EC%95%BD%EA%B5%AD-%EA%B4%91%EC%A3%BC%EA%B4%91%EC%97%AD%EC%8B%9C-%EB%B6%81%EA%B5%AC-%EC%9D%BC%EA%B3%A1%EB%8F%99/", "workingTime": ["1,3\uc9f8\uc8fc12:00~21:00", "08:30~22:00", "08:30~22:00", "08:30~22:00", "08:30~22:00", "08:30~22:00", "08:30~21:00", "10:00~21:00"]}, {"name": "\uc77c\uace1\uc5f4\ub9b0\uc57d\uad6d", "lat": "35.20290469040656", "lng": "126.89788086330773", "url": "/info/%EC%9D%BC%EA%B3%A1%EC%97%B4%EB%A6%B0%EC%95%BD%EA%B5%AD-%EA%B4%91%EC%A3%BC%EA%B4%91%EC%97%AD%EC%8B%9C-%EB%B6%81%EA%B5%AC-%EC%9D%BC%EA%B3%A1%EB%8F%99/", "workingTime": ["-", "08:40~19:00", "08:40~19:00", "08:40~19:00", "08:40~19:00", "08:40~19:00", "08:40~13:30", "08:40~13:30"]}, {"name": "\uc77c\uace1\uc628\ub204\ub9ac\uc57d\uad6d", "lat": "35.20397737922", "lng": "126.898511074464", "url": "/info/%EC%9D%BC%EA%B3%A1%EC%98%A8%EB%88%84%EB%A6%AC%EC%95%BD%EA%B5%AD-%EA%B4%91%EC%A3%BC%EA%B4%91%EC%97%AD%EC%8B%9C-%EB%B6%81%EA%B5%AC-%EC%9D%BC%EA%B3%A1%EB%8F%99/", "workingTime": ["1,2,3,4,5\uc9f8\uc8fc10:00~16:00", "09:00~20:00", "09:00~20:00", "09:00~20:00", "09:00~20:00", "09:00~20:00", "09:00~18:00", "09:00~20:00"]}, {"name": "\uc77c\uace1\uc6b0\ub9ac\uc57d\uad6d", "lat": "35.20305794767219", "lng": "126.89778074541483", "url": "/info/%EC%9D%BC%EA%B3%A1%EC%9A%B0%EB%A6%AC%EC%95%BD%EA%B5%AD-%EA%B4%91%EC%A3%BC%EA%B4%91%EC%97%AD%EC%8B%9C-%EB%B6%81%EA%B5%AC-%EC%9D%BC%EA%B3%A1%EB%8F%99/", "workingTime": ["-", "09:00~19:00", "09:00~19:00", "09:00~19:00", "09:00~19:00", "09:00~19:00", "09:00~15:00", "-"]}, {"name": "\uc77c\uace1\ud589\ubcf5\uc57d\uad6d", "lat": "35.2032071101", "lng": "126.897366549", "url": "/info/%EC%9D%BC%EA%B3%A1%ED%96%89%EB%B3%B5%EC%95%BD%EA%B5%AD-%EA%B4%91%EC%A3%BC%EA%B4%91%EC%97%AD%EC%8B%9C-%EB%B6%81%EA%B5%AC-%EC%9D%BC%EA%B3%A1%EB%8F%99/", "workingTime": ["-", "09:00~19:00", "09:00~19:00", "09:00~19:00", "09:00~19:00", "09:00~19:00", "09:00~14:00", "-"]}, {"name": "\ud558\ub098\ub85c21\uc138\uae30\uc57d\uad6d", "lat": "35.20532517268267", "lng": "126.89712335217067", "url": "/info/%ED%95%98%EB%82%98%EB%A1%9C21%EC%84%B8%EA%B8%B0%EC%95%BD%EA%B5%AD-%EA%B4%91%EC%A3%BC%EA%B4%91%EC%97%AD%EC%8B%9C-%EB%B6%81%EA%B5%AC-%EC%9D%BC%EA%B3%A1%EB%8F%99/", "workingTime": ["-", "08:30~18:00", "08:30~18:00", "08:30~18:00", "08:30~18:00", "08:30~18:00", "08:30~13:00", "-"]}, {"name": "\uba54\ub514\ud31c\uc77c\uace1\ud070\uc0ac\ub791\uc57d\uad6d", "lat": "35.205002672529225", "lng": "126.89746973001605", "url": "/info/%EB%A9%94%EB%94%94%ED%8C%9C%EC%9D%BC%EA%B3%A1%ED%81%B0%EC%82%AC%EB%9E%91%EC%95%BD%EA%B5%AD-%EA%B4%91%EC%A3%BC%EA%B4%91%EC%97%AD%EC%8B%9C-%EB%B6%81%EA%B5%AC-%EC%9D%BC%EA%B3%A1%EB%8F%99/", "workingTime": ["-", "09:00~20:00", "09:00~20:00", "09:00~20:00", "09:00~20:00", "09:00~20:00", "09:00~20:00", "-"]}, {"name": "\ubc1d\uc740\ubbf8\ub798\uc57d\uad6d", "lat": "35.2075541315", "lng": "126.896073975", "url": "/info/%EB%B0%9D%EC%9D%80%EB%AF%B8%EB%9E%98%EC%95%BD%EA%B5%AD-%EA%B4%91%EC%A3%BC%EA%B4%91%EC%97%AD%EC%8B%9C-%EB%B6%81%EA%B5%AC-%EC%9D%BC%EA%B3%A1%EB%8F%99/", "workingTime": ["-", "09:00~19:00", "09:00~19:00", "09:00~19:00", "09:00~19:00", "09:00~19:00", "09:00~14:00", "-"]}, {"name": "\ube5b\uace0\uc744\uc885\ub85c\uc57d\uad6d", "lat": "35.203491666666665", "lng": "126.898708333333332", "url": "/info/%EB%B9%9B%EA%B3%A0%EC%9D%84%EC%A2%85%EB%A1%9C%EC%95%BD%EA%B5%AD-%EA%B4%91%EC%A3%BC%EA%B4%91%EC%97%AD%EC%8B%9C-%EB%B6%81%EA%B5%AC-%EC%9D%BC%EA%B3%A1%EB%8F%99/", "workingTime": ["1,2,3,4,5\uc9f8\uc8fc10:00~21:00", "09:00~22:00", "09:00~22:00", "09:00~22:00", "09:00~22:00", "09:00~22:00", "09:00~22:00", "10:00~21:00"]}, {"name": "\ub179\uc6d0\uc57d\uad6d", "lat": "35.20335551354096", "lng": "126.89807798205149", "url": "/info/%EB%85%B9%EC%9B%90%EC%95%BD%EA%B5%AD-%EA%B4%91%EC%A3%BC%EA%B4%91%EC%97%AD%EC%8B%9C-%EB%B6%81%EA%B5%AC-%EC%9D%BC%EA%B3%A1%EB%8F%99/", "workingTime": ["-", "09:00~19:00", "09:00~19:00", "09:00~19:00", "09:00~19:00", "09:00~19:00", "09:00~13:00", "-"]}]