[{"name": "\ud589\ubcf5\ud55c\uc57d\uad6d", "lat": "35.13124746436534", "lng": "126.92332857987307", "url": "/info/%ED%96%89%EB%B3%B5%ED%95%9C%EC%95%BD%EA%B5%AD-%EA%B4%91%EC%A3%BC%EA%B4%91%EC%97%AD%EC%8B%9C-%EB%82%A8%EA%B5%AC-%EB%B0%A9%EB%A6%BC%EB%8F%99/", "workingTime": ["-", "08:30~19:00", "08:30~19:00", "08:30~19:00", "08:30~19:00", "08:30~19:00", "08:30~15:00", "-"]}, {"name": "\ud589\ubcf5\ud55c\uc57d\uad6d", "lat": "35.1337902094394", "lng": "126.90320208666722", "url": "/info/%ED%96%89%EB%B3%B5%ED%95%9C%EC%95%BD%EA%B5%AD-%EA%B4%91%EC%A3%BC%EA%B4%91%EC%97%AD%EC%8B%9C-%EB%82%A8%EA%B5%AC-%EB%B0%A9%EB%A6%BC%EB%8F%99/", "workingTime": ["-", "09:00~19:00", "09:00~19:00", "09:00~19:00", "09:00~19:00", "09:00~19:00", "09:00~13:00", "-"]}, {"name": "\uad11\uc8fc\uc885\ub85c\uc628\ub204\ub9ac\uc57d\uad6d", "lat": "35.13038966843848", "lng": "126.91830214235452", "url": "/info/%EA%B4%91%EC%A3%BC%EC%A2%85%EB%A1%9C%EC%98%A8%EB%88%84%EB%A6%AC%EC%95%BD%EA%B5%AD-%EA%B4%91%EC%A3%BC%EA%B4%91%EC%97%AD%EC%8B%9C-%EB%82%A8%EA%B5%AC-%EB%B0%A9%EB%A6%BC%EB%8F%99/", "workingTime": ["-", "09:30~20:00", "09:30~20:00", "09:30~20:00", "09:30~20:00", "09:30~20:00", "09:30~14:00", "-"]}, {"name": "\ub098\uc57d\uad6d", "lat": "35.135179541296104", "lng": "126.91834344189206", "url": "/info/%EB%82%98%EC%95%BD%EA%B5%AD-%EA%B4%91%EC%A3%BC%EA%B4%91%EC%97%AD%EC%8B%9C-%EB%82%A8%EA%B5%AC-%EB%B0%A9%EB%A6%BC%EB%8F%99/", "workingTime": ["-", "09:00~22:00", "09:00~22:00", "09:00~22:00", "09:00~22:00", "09:00~22:00", "09:00~21:00", "-"]}, {"name": "\ub3d9\uc758\ub2f9\ud55c\uc57d\uad6d", "lat": "35.1299025283", "lng": "126.9176772278", "url": "/info/%EB%8F%99%EC%9D%98%EB%8B%B9%ED%95%9C%EC%95%BD%EA%B5%AD-%EA%B4%91%EC%A3%BC%EA%B4%91%EC%97%AD%EC%8B%9C-%EB%82%A8%EA%B5%AC-%EB%B0%A9%EB%A6%BC%EB%8F%99/", "workingTime": ["-", "09:00~19:00", "09:00~19:00", "09:00~19:00", "09:00~19:00", "09:00~19:00", "09:00~19:00", "-"]}, {"name": "\ubc29\ub9bc\uac74\uac15\uc57d\uad6d", "lat": "35.13566347047865", "lng": "126.91838021473532", "url": "/info/%EB%B0%A9%EB%A6%BC%EA%B1%B4%EA%B0%95%EC%95%BD%EA%B5%AD-%EA%B4%91%EC%A3%BC%EA%B4%91%EC%97%AD%EC%8B%9C-%EB%82%A8%EA%B5%AC-%EB%B0%A9%EB%A6%BC%EB%8F%99/", "workingTime": ["-", "09:00~19:00", "09:00~19:00", "09:00~19:00", "09:00~19:00", "09:00~19:00", "09:00~13:00", "-"]}, {"name": "\uc0d8\ubb3c\uc57d\uad6d", "lat": "35.1347588711", "lng": "126.9173782813", "url": "/info/%EC%83%98%EB%AC%BC%EC%95%BD%EA%B5%AD-%EA%B4%91%EC%A3%BC%EA%B4%91%EC%97%AD%EC%8B%9C-%EB%82%A8%EA%B5%AC-%EB%B0%A9%EB%A6%BC%EB%8F%99/", "workingTime": ["-", "08:30~18:30", "08:30~18:30", "08:30~18:30", "08:30~18:30", "08:30~18:30", "08:30~13:00", "-"]}]