[{"name": "\uc544\ube60\uc57d\uad6d", "lat": "35.10213703343784", "lng": "126.87559695217055", "url": "/info/%EC%95%84%EB%B9%A0%EC%95%BD%EA%B5%AD-%EA%B4%91%EC%A3%BC%EA%B4%91%EC%97%AD%EC%8B%9C-%EB%82%A8%EA%B5%AC-%EC%9E%84%EC%95%94%EB%8F%99/", "workingTime": ["-", "08:30~20:00", "08:30~20:00", "08:30~20:00", "08:30~20:00", "08:30~20:00", "08:30~14:00", "08:30~14:00"]}, {"name": "\ud2bc\ud2bc\uc57d\uad6d", "lat": "35.10191949344655", "lng": "126.87442152056599", "url": "/info/%ED%8A%BC%ED%8A%BC%EC%95%BD%EA%B5%AD-%EA%B4%91%EC%A3%BC%EA%B4%91%EC%97%AD%EC%8B%9C-%EB%82%A8%EA%B5%AC-%EC%9E%84%EC%95%94%EB%8F%99/", "workingTime": ["-", "09:00~20:00", "09:00~20:00", "09:00~20:00", "09:00~20:00", "09:00~20:00", "09:00~13:00", "-"]}, {"name": "\ud6a8\ucc9c\uc57d\uad6d", "lat": "35.10161267859446", "lng": "126.87408418011393", "url": "/info/%ED%9A%A8%EC%B2%9C%EC%95%BD%EA%B5%AD-%EA%B4%91%EC%A3%BC%EA%B4%91%EC%97%AD%EC%8B%9C-%EB%82%A8%EA%B5%AC-%EC%9E%84%EC%95%94%EB%8F%99/", "workingTime": ["-", "08:30~18:00", "08:30~18:00", "08:30~18:00", "08:30~18:00", "08:30~18:00", "09:00~13:00", "-"]}, {"name": "\ub2e4\ub098\uc544\uc57d\uad6d", "lat": "35.1023528002095", "lng": "126.874527355209", "url": "/info/%EB%8B%A4%EB%82%98%EC%95%84%EC%95%BD%EA%B5%AD-%EA%B4%91%EC%A3%BC%EA%B4%91%EC%97%AD%EC%8B%9C-%EB%82%A8%EA%B5%AC-%EC%9E%84%EC%95%94%EB%8F%99/", "workingTime": ["-", "08:30~19:00", "08:30~19:00", "08:30~19:00", "08:30~19:00", "08:30~19:00", "08:30~13:00", "-"]}, {"name": "\ub2e4\uc628\uc57d\uad6d", "lat": "35.10180663806064", "lng": "126.87337754815431", "url": "/info/%EB%8B%A4%EC%98%A8%EC%95%BD%EA%B5%AD-%EA%B4%91%EC%A3%BC%EA%B4%91%EC%97%AD%EC%8B%9C-%EB%82%A8%EA%B5%AC-%EC%9E%84%EC%95%94%EB%8F%99/", "workingTime": ["-", "09:00~21:00", "09:00~21:00", "09:00~21:00", "09:00~21:00", "09:00~21:00", "09:00~21:00", "-"]}]