[{"name": "\uc774\uac74\uc57d\uad6d", "lat": "35.17146723227396", "lng": "126.90007174471266", "url": "/info/%EC%9D%B4%EA%B1%B4%EC%95%BD%EA%B5%AD-%EA%B4%91%EC%A3%BC%EA%B4%91%EC%97%AD%EC%8B%9C-%EB%B6%81%EA%B5%AC-%EC%8B%A0%EC%95%88%EB%8F%99/", "workingTime": ["-", "09:00~19:00", "09:00~19:00", "09:00~19:00", "09:00~19:00", "09:00~19:00", "09:00~13:00", "-"]}, {"name": "\uba85\uc9c0\uc57d\uad6d", "lat": "35.167688888888890", "lng": "126.895155555555561", "url": "/info/%EB%AA%85%EC%A7%80%EC%95%BD%EA%B5%AD-%EA%B4%91%EC%A3%BC%EA%B4%91%EC%97%AD%EC%8B%9C-%EB%B6%81%EA%B5%AC-%EC%8B%A0%EC%95%88%EB%8F%99/", "workingTime": ["-", "09:00~19:00", "09:00~19:00", "09:00~19:00", "09:00~19:00", "09:00~19:00", "09:00~18:00", "-"]}, {"name": "\uc0bc\uc131\ub2f9\uc57d\uad6d", "lat": "35.1700321891206", "lng": "126.89997251136506", "url": "/info/%EC%82%BC%EC%84%B1%EB%8B%B9%EC%95%BD%EA%B5%AD-%EA%B4%91%EC%A3%BC%EA%B4%91%EC%97%AD%EC%8B%9C-%EB%B6%81%EA%B5%AC-%EC%8B%A0%EC%95%88%EB%8F%99/", "workingTime": ["-", "08:00~17:00", "08:00~17:00", "08:00~17:00", "08:00~17:00", "08:00~17:00", "08:00~12:30", "-"]}, {"name": "\uc0c8\uc0dd\uba85\uc57d\uad6d", "lat": "35.168966666666670", "lng": "126.903936111111108", "url": "/info/%EC%83%88%EC%83%9D%EB%AA%85%EC%95%BD%EA%B5%AD-%EA%B4%91%EC%A3%BC%EA%B4%91%EC%97%AD%EC%8B%9C-%EB%B6%81%EA%B5%AC-%EC%8B%A0%EC%95%88%EB%8F%99/", "workingTime": ["-", "09:00~18:00", "09:00~18:00", "09:00~18:00", "09:00~18:00", "09:00~18:00", "09:00~13:00", "-"]}, {"name": "\uac10\ub9c8\uc57d\uad6d", "lat": "35.16928805820676", "lng": "126.9026649761723", "url": "/info/%EA%B0%90%EB%A7%88%EC%95%BD%EA%B5%AD-%EA%B4%91%EC%A3%BC%EA%B4%91%EC%97%AD%EC%8B%9C-%EB%B6%81%EA%B5%AC-%EC%8B%A0%EC%95%88%EB%8F%99/", "workingTime": ["-", "08:00~19:30", "08:00~19:30", "08:00~19:30", "08:00~19:30", "08:00~19:30", "08:00~16:00", "-"]}]