[{"name": "\ud558\ub098\ub85c\uc6b4\uc554\uc57d\uad6d", "lat": "35.17508748061607", "lng": "126.8810571449819", "url": "/info/%ED%95%98%EB%82%98%EB%A1%9C%EC%9A%B4%EC%95%94%EC%95%BD%EA%B5%AD-%EA%B4%91%EC%A3%BC%EA%B4%91%EC%97%AD%EC%8B%9C-%EB%B6%81%EA%B5%AC-%EC%9A%B4%EC%95%94%EB%8F%99/", "workingTime": ["-", "08:30~18:30", "08:30~18:30", "08:30~18:30", "08:30~18:30", "08:30~18:30", "08:30~13:20", "09:00~12:00"]}, {"name": "\ud558\ub098\ub85c\uc57d\uad6d", "lat": "35.17490856774428", "lng": "126.88129342665441", "url": "/info/%ED%95%98%EB%82%98%EB%A1%9C%EC%95%BD%EA%B5%AD-%EA%B4%91%EC%A3%BC%EA%B4%91%EC%97%AD%EC%8B%9C-%EB%B6%81%EA%B5%AC-%EC%9A%B4%EC%95%94%EB%8F%99/", "workingTime": ["-", "08:00~19:00", "08:00~19:00", "08:00~19:00", "08:00~19:00", "08:00~19:00", "08:00~16:00", "-"]}, {"name": "\ud55c\uaca8\ub808\uc57d\uad6d", "lat": "35.179676473217874", "lng": "126.8745452184553", "url": "/info/%ED%95%9C%EA%B2%A8%EB%A0%88%EC%95%BD%EA%B5%AD-%EA%B4%91%EC%A3%BC%EA%B4%91%EC%97%AD%EC%8B%9C-%EB%B6%81%EA%B5%AC-%EC%9A%B4%EC%95%94%EB%8F%99/", "workingTime": ["-", "09:00~20:30", "09:00~19:00", "09:00~19:00", "09:00~19:00", "09:00~20:30", "09:00~15:00", "-"]}, {"name": "\ud734\ud2bc\uc57d\uad6d", "lat": "35.17849866886114", "lng": "126.87742605921039", "url": "/info/%ED%9C%B4%ED%8A%BC%EC%95%BD%EA%B5%AD-%EA%B4%91%EC%A3%BC%EA%B4%91%EC%97%AD%EC%8B%9C-%EB%B6%81%EA%B5%AC-%EC%9A%B4%EC%95%94%EB%8F%99/", "workingTime": ["-", "08:30~19:00", "08:30~19:00", "08:30~19:00", "08:30~19:00", "08:30~19:00", "08:30~13:00", "-"]}, {"name": "\uc6b0\ub9ac\uc6b4\uc554\uc57d\uad6d", "lat": "35.1845512921", "lng": "126.8696745667", "url": "/info/%EC%9A%B0%EB%A6%AC%EC%9A%B4%EC%95%94%EC%95%BD%EA%B5%AD-%EA%B4%91%EC%A3%BC%EA%B4%91%EC%97%AD%EC%8B%9C-%EB%B6%81%EA%B5%AC-%EC%9A%B4%EC%95%94%EB%8F%99/", "workingTime": ["-", "08:30~18:00", "08:30~18:00", "08:30~18:00", "08:30~18:00", "08:30~18:00", "08:30~13:30", "-"]}, {"name": "\uc6b4\uc554\uc57d\uad6d", "lat": "35.17857297048921", "lng": "126.87603830104945", "url": "/info/%EC%9A%B4%EC%95%94%EC%95%BD%EA%B5%AD-%EA%B4%91%EC%A3%BC%EA%B4%91%EC%97%AD%EC%8B%9C-%EB%B6%81%EA%B5%AC-%EC%9A%B4%EC%95%94%EB%8F%99/", "workingTime": ["1,2,3,4,5\uc9f8\uc8fc13:00~22:00", "09:00~22:00", "09:00~22:00", "09:00~22:00", "09:00~22:00", "09:00~22:00", "09:00~22:00", "09:00~22:00"]}, {"name": "\uc6b4\uc554\uc6b0\ub9ac\ub4e4\uc57d\uad6d", "lat": "35.174725929080935", "lng": "126.88163756860274", "url": "/info/%EC%9A%B4%EC%95%94%EC%9A%B0%EB%A6%AC%EB%93%A4%EC%95%BD%EA%B5%AD-%EA%B4%91%EC%A3%BC%EA%B4%91%EC%97%AD%EC%8B%9C-%EB%B6%81%EA%B5%AC-%EC%9A%B4%EC%95%94%EB%8F%99/", "workingTime": ["-", "09:00~19:00", "09:00~19:00", "09:00~19:00", "09:00~19:00", "09:00~19:00", "09:00~15:00", "-"]}, {"name": "\uc6b4\uc554\uc885\ub85c\uc57d\uad6d", "lat": "35.175272222222219", "lng": "126.880600000000001", "url": "/info/%EC%9A%B4%EC%95%94%EC%A2%85%EB%A1%9C%EC%95%BD%EA%B5%AD-%EA%B4%91%EC%A3%BC%EA%B4%91%EC%97%AD%EC%8B%9C-%EB%B6%81%EA%B5%AC-%EC%9A%B4%EC%95%94%EB%8F%99/", "workingTime": ["-", "09:00~18:30", "09:00~18:30", "09:00~18:30", "09:00~18:30", "09:00~18:30", "09:00~13:00", "-"]}, {"name": "\uc6b4\uc554\ud504\ub77c\uc790\uc57d\uad6d", "lat": "35.17928263804203", "lng": "126.87503354650653", "url": "/info/%EC%9A%B4%EC%95%94%ED%94%84%EB%9D%BC%EC%9E%90%EC%95%BD%EA%B5%AD-%EA%B4%91%EC%A3%BC%EA%B4%91%EC%97%AD%EC%8B%9C-%EB%B6%81%EA%B5%AC-%EC%9A%B4%EC%95%94%EB%8F%99/", "workingTime": ["-", "09:00~22:00", "09:00~22:00", "09:00~22:00", "09:00~22:00", "09:00~22:00", "09:00~22:00", "09:00~22:00"]}, {"name": "\uc790\ubaa8\uc57d\uad6d", "lat": "35.18048873471806", "lng": "126.87380897294551", "url": "/info/%EC%9E%90%EB%AA%A8%EC%95%BD%EA%B5%AD-%EA%B4%91%EC%A3%BC%EA%B4%91%EC%97%AD%EC%8B%9C-%EB%B6%81%EA%B5%AC-%EC%9A%B4%EC%95%94%EB%8F%99/", "workingTime": ["-", "09:00~20:00", "09:00~20:00", "09:00~20:00", "09:00~20:00", "09:00~20:00", "09:00~16:00", "-"]}, {"name": "\ucc38\uc0ac\ub791\uc57d\uad6d", "lat": "35.181993700064346", "lng": "126.87352257356767", "url": "/info/%EC%B0%B8%EC%82%AC%EB%9E%91%EC%95%BD%EA%B5%AD-%EA%B4%91%EC%A3%BC%EA%B4%91%EC%97%AD%EC%8B%9C-%EB%B6%81%EA%B5%AC-%EC%9A%B4%EC%95%94%EB%8F%99/", "workingTime": ["1,2,3,4,5\uc9f8\uc8fc14:00~22:00", "09:00~22:00", "09:00~22:00", "09:00~22:00", "09:00~22:00", "09:00~22:00", "09:00~22:00", "09:00~22:00"]}, {"name": "\ud070\ub098\ubb34\uc57d\uad6d", "lat": "35.17559331647317", "lng": "126.87624213657804", "url": "/info/%ED%81%B0%EB%82%98%EB%AC%B4%EC%95%BD%EA%B5%AD-%EA%B4%91%EC%A3%BC%EA%B4%91%EC%97%AD%EC%8B%9C-%EB%B6%81%EA%B5%AC-%EC%9A%B4%EC%95%94%EB%8F%99/", "workingTime": ["-", "09:00~18:00", "09:00~18:00", "09:00~18:00", "09:00~18:00", "09:00~18:00", "09:00~13:30", "-"]}, {"name": "\ud2bc\ud2bc\uc628\ub204\ub9ac\uc57d\uad6d", "lat": "35.175244678174536", "lng": "126.88096634941843", "url": "/info/%ED%8A%BC%ED%8A%BC%EC%98%A8%EB%88%84%EB%A6%AC%EC%95%BD%EA%B5%AD-%EA%B4%91%EC%A3%BC%EA%B4%91%EC%97%AD%EC%8B%9C-%EB%B6%81%EA%B5%AC-%EC%9A%B4%EC%95%94%EB%8F%99/", "workingTime": ["-", "09:00~18:00", "09:00~18:00", "09:00~18:00", "09:00~18:00", "09:00~18:00", "09:00~13:00", "-"]}, {"name": "\ubbf8\ub798\ud55c\uc57d\uad6d", "lat": "35.17736079243599", "lng": "126.87358275376005", "url": "/info/%EB%AF%B8%EB%9E%98%ED%95%9C%EC%95%BD%EA%B5%AD-%EA%B4%91%EC%A3%BC%EA%B4%91%EC%97%AD%EC%8B%9C-%EB%B6%81%EA%B5%AC-%EC%9A%B4%EC%95%94%EB%8F%99/", "workingTime": ["-", "09:30~19:30", "09:30~19:30", "09:30~19:30", "09:30~19:30", "09:30~19:30", "09:30~17:00", "-"]}, {"name": "\ubcf4\ubcf4\uc57d\uad6d", "lat": "35.183066159377", "lng": "126.871219900937", "url": "/info/%EB%B3%B4%EB%B3%B4%EC%95%BD%EA%B5%AD-%EA%B4%91%EC%A3%BC%EA%B4%91%EC%97%AD%EC%8B%9C-%EB%B6%81%EA%B5%AC-%EC%9A%B4%EC%95%94%EB%8F%99/", "workingTime": ["-", "09:00~19:00", "09:00~19:00", "09:00~19:00", "09:00~19:00", "09:00~19:00", "09:00~13:00", "-"]}, {"name": "\uc0c8\uc544\uce68\uc57d\uad6d", "lat": "35.18480315246488", "lng": "126.87096249193354", "url": "/info/%EC%83%88%EC%95%84%EC%B9%A8%EC%95%BD%EA%B5%AD-%EA%B4%91%EC%A3%BC%EA%B4%91%EC%97%AD%EC%8B%9C-%EB%B6%81%EA%B5%AC-%EC%9A%B4%EC%95%94%EB%8F%99/", "workingTime": ["-", "08:30~20:00", "08:30~20:00", "08:30~20:00", "08:30~20:00", "08:30~20:00", "08:30~15:00", "-"]}, {"name": "\uc11c\ud604\uc57d\uad6d", "lat": "35.17790158135445", "lng": "126.87702462711921", "url": "/info/%EC%84%9C%ED%98%84%EC%95%BD%EA%B5%AD-%EA%B4%91%EC%A3%BC%EA%B4%91%EC%97%AD%EC%8B%9C-%EB%B6%81%EA%B5%AC-%EC%9A%B4%EC%95%94%EB%8F%99/", "workingTime": ["-", "09:00~18:30", "09:00~18:30", "09:00~18:30", "09:00~18:30", "09:00~18:30", "09:00~13:00", "-"]}, {"name": "\uac74\uac15\uc628\ub204\ub9ac\uc57d\uad6d", "lat": "35.172879599784345", "lng": "126.88888042345631", "url": "/info/%EA%B1%B4%EA%B0%95%EC%98%A8%EB%88%84%EB%A6%AC%EC%95%BD%EA%B5%AD-%EA%B4%91%EC%A3%BC%EA%B4%91%EC%97%AD%EC%8B%9C-%EB%B6%81%EA%B5%AC-%EC%9A%B4%EC%95%94%EB%8F%99/", "workingTime": ["-", "09:00~20:00", "09:00~20:00", "09:00~20:00", "09:00~20:00", "09:00~20:00", "09:00~13:00", "-"]}, {"name": "\uad6d\uc81c\uc57d\uad6d", "lat": "35.169482715104344", "lng": "126.88998411665213", "url": "/info/%EA%B5%AD%EC%A0%9C%EC%95%BD%EA%B5%AD-%EA%B4%91%EC%A3%BC%EA%B4%91%EC%97%AD%EC%8B%9C-%EB%B6%81%EA%B5%AC-%EC%9A%B4%EC%95%94%EB%8F%99/", "workingTime": ["-", "09:00~18:00", "09:00~18:00", "09:00~18:00", "09:00~18:00", "09:00~18:00", "09:00~14:30", "-"]}, {"name": "\ub3d9\ud654\ub2f9\uc57d\uad6d", "lat": "35.18287306397499", "lng": "126.87146900008122", "url": "/info/%EB%8F%99%ED%99%94%EB%8B%B9%EC%95%BD%EA%B5%AD-%EA%B4%91%EC%A3%BC%EA%B4%91%EC%97%AD%EC%8B%9C-%EB%B6%81%EA%B5%AC-%EC%9A%B4%EC%95%94%EB%8F%99/", "workingTime": ["-", "08:40~21:00", "08:40~21:00", "08:40~21:00", "08:40~21:00", "08:40~21:00", "08:40~21:00", "-"]}]