[{"name": "\uacbd\ub300\uc57d\uad6d", "lat": "35.86713736993055", "lng": "128.60587835798404", "url": "/info/%EA%B2%BD%EB%8C%80%EC%95%BD%EA%B5%AD-%EB%8C%80%EA%B5%AC%EA%B4%91%EC%97%AD%EC%8B%9C-%EC%A4%91%EA%B5%AC-%EB%8F%99%EC%9D%B8%EB%8F%992%EA%B0%80/", "workingTime": ["-", "09:00~18:30", "09:00~18:30", "09:00~18:30", "09:00~18:30", "09:00~18:30", "-", "-"]}, {"name": "\ub300\ud559\ub2f9\uc57d\uad6d", "lat": "35.867048433988344", "lng": "128.60588169269883", "url": "/info/%EB%8C%80%ED%95%99%EB%8B%B9%EC%95%BD%EA%B5%AD-%EB%8C%80%EA%B5%AC%EA%B4%91%EC%97%AD%EC%8B%9C-%EC%A4%91%EA%B5%AC-%EB%8F%99%EC%9D%B8%EB%8F%992%EA%B0%80/", "workingTime": ["-", "08:30~18:30", "08:30~18:30", "08:30~18:30", "08:30~18:30", "08:30~18:30", "-", "-"]}, {"name": "\uc815\ubb38\uc57d\uad6d", "lat": "35.86709168021438", "lng": "128.6056124333743", "url": "/info/%EC%A0%95%EB%AC%B8%EC%95%BD%EA%B5%AD-%EB%8C%80%EA%B5%AC%EA%B4%91%EC%97%AD%EC%8B%9C-%EC%A4%91%EA%B5%AC-%EB%8F%99%EC%9D%B8%EB%8F%992%EA%B0%80/", "workingTime": ["-", "08:30~18:30", "08:30~18:30", "08:30~18:30", "08:30~18:30", "08:30~18:30", "-", "-"]}, {"name": "\uacbd\ubd81\uc81c\uc77c\uc57d\uad6d", "lat": "35.8670527777", "lng": "128.605734942", "url": "/info/%EA%B2%BD%EB%B6%81%EC%A0%9C%EC%9D%BC%EC%95%BD%EA%B5%AD-%EB%8C%80%EA%B5%AC%EA%B4%91%EC%97%AD%EC%8B%9C-%EC%A4%91%EA%B5%AC-%EB%8F%99%EC%9D%B8%EB%8F%992%EA%B0%80/", "workingTime": ["-", "08:30~18:20", "08:30~18:20", "08:30~18:20", "08:30~18:20", "08:30~18:20", "-", "-"]}, {"name": "\ud558\uc740\uc57d\uad6d", "lat": "35.8671460635", "lng": "128.6054976902", "url": "/info/%ED%95%98%EC%9D%80%EC%95%BD%EA%B5%AD-%EB%8C%80%EA%B5%AC%EA%B4%91%EC%97%AD%EC%8B%9C-%EC%A4%91%EA%B5%AC-%EB%8F%99%EC%9D%B8%EB%8F%992%EA%B0%80/", "workingTime": ["-", "09:00~18:00", "09:00~18:00", "09:00~18:00", "09:00~18:00", "09:00~18:00", "-", "-"]}, {"name": "\uba54\ub514\uce7c\uc57d\uad6d", "lat": "35.867030373958805", "lng": "128.60612863438914", "url": "/info/%EB%A9%94%EB%94%94%EC%B9%BC%EC%95%BD%EA%B5%AD-%EB%8C%80%EA%B5%AC%EA%B4%91%EC%97%AD%EC%8B%9C-%EC%A4%91%EA%B5%AC-%EB%8F%99%EC%9D%B8%EB%8F%992%EA%B0%80/", "workingTime": ["-", "09:00~18:30", "09:00~18:30", "09:00~18:30", "09:00~18:30", "09:00~18:30", "-", "-"]}, {"name": "\ub300\uad6c\uc6b0\ub9ac\uc548\uc57d\uad6d", "lat": "35.86935550844101", "lng": "128.6011890205842", "url": "/info/%EB%8C%80%EA%B5%AC%EC%9A%B0%EB%A6%AC%EC%95%88%EC%95%BD%EA%B5%AD-%EB%8C%80%EA%B5%AC%EA%B4%91%EC%97%AD%EC%8B%9C-%EC%A4%91%EA%B5%AC-%EB%8F%99%EC%9D%B8%EB%8F%992%EA%B0%80/", "workingTime": ["-", "09:00~18:30", "09:00~18:30", "09:00~18:30", "09:00~18:30", "09:00~18:30", "09:00~13:30", "-"]}]