[{"name": "\uc694\uc149\uc57d\uad6d", "lat": "35.8578043218354", "lng": "128.466739452711", "url": "/info/%EC%9A%94%EC%85%89%EC%95%BD%EA%B5%AD-%EB%8C%80%EA%B5%AC%EA%B4%91%EC%97%AD%EC%8B%9C-%EB%8B%AC%EC%84%B1%EA%B5%B0-%EB%8B%A4%EC%82%AC%EC%9D%8D/", "workingTime": ["-", "09:00~18:00", "09:00~18:00", "09:00~13:00", "09:00~18:00", "09:00~18:00", "09:00~13:00", "-"]}, {"name": "\ub098\uc740\uc57d\uad6d", "lat": "35.8650517105795", "lng": "128.456156975404", "url": "/info/%EB%82%98%EC%9D%80%EC%95%BD%EA%B5%AD-%EB%8C%80%EA%B5%AC%EA%B4%91%EC%97%AD%EC%8B%9C-%EB%8B%AC%EC%84%B1%EA%B5%B0-%EB%8B%A4%EC%82%AC%EC%9D%8D/", "workingTime": ["-", "09:00~18:00", "09:00~18:00", "09:00~18:00", "09:00~18:00", "09:00~18:00", "-", "-"]}, {"name": "\ub3d9\ud654\uc57d\uad6d", "lat": "35.8682094024", "lng": "128.4931635138", "url": "/info/%EB%8F%99%ED%99%94%EC%95%BD%EA%B5%AD-%EB%8C%80%EA%B5%AC%EA%B4%91%EC%97%AD%EC%8B%9C-%EB%8B%AC%EC%84%B1%EA%B5%B0-%EB%8B%A4%EC%82%AC%EC%9D%8D/", "workingTime": ["-", "09:00~18:30", "09:00~18:30", "09:00~18:30", "09:00~18:30", "09:00~18:30", "09:00~13:00", "-"]}, {"name": "\uc0bc\uc131\uc635\ud2f0\ub9c8\uc57d\uad6d", "lat": "35.8596930837", "lng": "128.4637607201", "url": "/info/%EC%82%BC%EC%84%B1%EC%98%B5%ED%8B%B0%EB%A7%88%EC%95%BD%EA%B5%AD-%EB%8C%80%EA%B5%AC%EA%B4%91%EC%97%AD%EC%8B%9C-%EB%8B%AC%EC%84%B1%EA%B5%B0-%EB%8B%A4%EC%82%AC%EC%9D%8D/", "workingTime": ["-", "09:00~19:00", "09:00~19:00", "09:00~19:00", "09:00~19:00", "09:00~19:00", "09:00~17:00", "-"]}, {"name": "\uc218\uc628\ub204\ub9ac\uc57d\uad6d", "lat": "35.87522093271906", "lng": "128.49738966507832", "url": "/info/%EC%88%98%EC%98%A8%EB%88%84%EB%A6%AC%EC%95%BD%EA%B5%AD-%EB%8C%80%EA%B5%AC%EA%B4%91%EC%97%AD%EC%8B%9C-%EB%8B%AC%EC%84%B1%EA%B5%B0-%EB%8B%A4%EC%82%AC%EC%9D%8D/", "workingTime": ["-", "09:00~20:30", "09:00~20:30", "09:00~20:30", "09:00~20:30", "09:00~20:30", "09:00~20:30", "-"]}, {"name": "\uc740\ud589\uc57d\uad6d", "lat": "35.87166954946098", "lng": "128.49724087865673", "url": "/info/%EC%9D%80%ED%96%89%EC%95%BD%EA%B5%AD-%EB%8C%80%EA%B5%AC%EA%B4%91%EC%97%AD%EC%8B%9C-%EB%8B%AC%EC%84%B1%EA%B5%B0-%EB%8B%A4%EC%82%AC%EC%9D%8D/", "workingTime": ["-", "09:00~18:30", "09:00~18:30", "09:00~18:30", "09:00~18:30", "09:00~18:30", "09:00~13:00", "-"]}, {"name": "\uae40\ud558\ub098\uc57d\uad6d", "lat": "35.8603608604887", "lng": "128.463951674535", "url": "/info/%EA%B9%80%ED%95%98%EB%82%98%EC%95%BD%EA%B5%AD-%EB%8C%80%EA%B5%AC%EA%B4%91%EC%97%AD%EC%8B%9C-%EB%8B%AC%EC%84%B1%EA%B5%B0-%EB%8B%A4%EC%82%AC%EC%9D%8D/", "workingTime": ["-", "09:00~19:00", "09:00~19:00", "09:00~19:00", "09:00~19:00", "09:00~19:00", "-", "-"]}, {"name": "\ub2e4\uc815\uc57d\uad6d", "lat": "35.8583614916", "lng": "128.4650646387", "url": "/info/%EB%8B%A4%EC%A0%95%EC%95%BD%EA%B5%AD-%EB%8C%80%EA%B5%AC%EA%B4%91%EC%97%AD%EC%8B%9C-%EB%8B%AC%EC%84%B1%EA%B5%B0-%EB%8B%A4%EC%82%AC%EC%9D%8D/", "workingTime": ["-", "08:00~20:00", "08:00~20:00", "08:00~20:00", "08:00~20:00", "08:00~20:00", "08:00~18:00", "-"]}, {"name": "\uc2dc\uc628\uc758\ub3d9\uc0b0\uc57d\uad6d", "lat": "35.86561219281718", "lng": "128.45745440896374", "url": "/info/%EC%8B%9C%EC%98%A8%EC%9D%98%EB%8F%99%EC%82%B0%EC%95%BD%EA%B5%AD-%EB%8C%80%EA%B5%AC%EA%B4%91%EC%97%AD%EC%8B%9C-%EB%8B%AC%EC%84%B1%EA%B5%B0-%EB%8B%A4%EC%82%AC%EC%9D%8D/", "workingTime": ["-", "09:00~19:00", "09:00~19:00", "09:00~19:00", "09:00~19:00", "09:00~19:00", "09:00~13:00", "-"]}, {"name": "\uc138\ucc9c\ud604\uc57d\uad6d", "lat": "35.87488776065224", "lng": "128.4786778419924", "url": "/info/%EC%84%B8%EC%B2%9C%ED%98%84%EC%95%BD%EA%B5%AD-%EB%8C%80%EA%B5%AC%EA%B4%91%EC%97%AD%EC%8B%9C-%EB%8B%AC%EC%84%B1%EA%B5%B0-%EB%8B%A4%EC%82%AC%EC%9D%8D/", "workingTime": ["-", "09:00~19:30", "09:00~19:30", "09:00~19:30", "09:00~19:30", "09:00~19:30", "09:00~14:00", "-"]}, {"name": "\uc624\uba54\uac00\uc57d\uad6d", "lat": "35.85712113953727", "lng": "128.46504796908036", "url": "/info/%EC%98%A4%EB%A9%94%EA%B0%80%EC%95%BD%EA%B5%AD-%EB%8C%80%EA%B5%AC%EA%B4%91%EC%97%AD%EC%8B%9C-%EB%8B%AC%EC%84%B1%EA%B5%B0-%EB%8B%A4%EC%82%AC%EC%9D%8D/", "workingTime": ["1,2,3,4,5\uc9f8\uc8fc09:00~16:30", "09:00~20:30", "09:00~20:30", "09:00~20:00", "09:00~20:00", "09:00~20:30", "09:00~16:30", "-"]}, {"name": "\uc720\ubbfc\uc57d\uad6d", "lat": "35.85818580444097", "lng": "128.46410052871602", "url": "/info/%EC%9C%A0%EB%AF%BC%EC%95%BD%EA%B5%AD-%EB%8C%80%EA%B5%AC%EA%B4%91%EC%97%AD%EC%8B%9C-%EB%8B%AC%EC%84%B1%EA%B5%B0-%EB%8B%A4%EC%82%AC%EC%9D%8D/", "workingTime": ["-", "08:30~19:30", "08:30~19:30", "08:30~19:30", "08:30~19:30", "08:30~19:30", "08:30~14:00", "-"]}, {"name": "\uc8fd\uace1\ud0d1\uc57d\uad6d", "lat": "35.85195743570001", "lng": "128.59024389270021", "url": "/info/%EC%A3%BD%EA%B3%A1%ED%83%91%EC%95%BD%EA%B5%AD-%EB%8C%80%EA%B5%AC%EA%B4%91%EC%97%AD%EC%8B%9C-%EB%8B%AC%EC%84%B1%EA%B5%B0-%EB%8B%A4%EC%82%AC%EC%9D%8D/", "workingTime": ["1,2,3,4,5\uc9f8\uc8fc09:00~12:00", "09:00~19:00", "09:00~19:00", "09:00~19:00", "09:00~19:00", "09:00~19:00", "09:00~14:00", "09:00~12:00"]}, {"name": "\uc8fd\uace1\uc6b0\ub9ac\uc57d\uad6d", "lat": "35.858554370408044", "lng": "128.46380400440125", "url": "/info/%EC%A3%BD%EA%B3%A1%EC%9A%B0%EB%A6%AC%EC%95%BD%EA%B5%AD-%EB%8C%80%EA%B5%AC%EA%B4%91%EC%97%AD%EC%8B%9C-%EB%8B%AC%EC%84%B1%EA%B5%B0-%EB%8B%A4%EC%82%AC%EC%9D%8D/", "workingTime": ["-", "09:00~19:00", "09:00~19:00", "09:00~19:00", "09:00~19:00", "09:00~19:00", "09:00~14:00", "-"]}, {"name": "\ud589\uc6b4\uc57d\uad6d", "lat": "35.858083510980265", "lng": "128.46534905111258", "url": "/info/%ED%96%89%EC%9A%B4%EC%95%BD%EA%B5%AD-%EB%8C%80%EA%B5%AC%EA%B4%91%EC%97%AD%EC%8B%9C-%EB%8B%AC%EC%84%B1%EA%B5%B0-%EB%8B%A4%EC%82%AC%EC%9D%8D/", "workingTime": ["-", "09:00~20:00", "09:00~19:30", "09:00~19:30", "09:00~20:00", "09:00~19:30", "09:00~14:30", "-"]}, {"name": "\ud55c\ube5b\uc57d\uad6d", "lat": "35.874332285094795", "lng": "128.4975977792298", "url": "/info/%ED%95%9C%EB%B9%9B%EC%95%BD%EA%B5%AD-%EB%8C%80%EA%B5%AC%EA%B4%91%EC%97%AD%EC%8B%9C-%EB%8B%AC%EC%84%B1%EA%B5%B0-%EB%8B%A4%EC%82%AC%EC%9D%8D/", "workingTime": ["-", "09:00~18:00", "09:00~18:00", "09:00~18:00", "09:00~18:00", "09:00~18:00", "09:00~12:30", "-"]}, {"name": "\ud478\ub978\uc57d\uad6d", "lat": "35.87387454832317", "lng": "128.49703435785773", "url": "/info/%ED%91%B8%EB%A5%B8%EC%95%BD%EA%B5%AD-%EB%8C%80%EA%B5%AC%EA%B4%91%EC%97%AD%EC%8B%9C-%EB%8B%AC%EC%84%B1%EA%B5%B0-%EB%8B%A4%EC%82%AC%EC%9D%8D/", "workingTime": ["-", "09:00~19:00", "09:00~19:00", "09:00~19:00", "09:00~19:00", "09:00~19:00", "09:00~14:00", "-"]}, {"name": "\ud2bc\ud2bc\uc57d\uad6d", "lat": "35.85771886707887", "lng": "128.46569215426774", "url": "/info/%ED%8A%BC%ED%8A%BC%EC%95%BD%EA%B5%AD-%EB%8C%80%EA%B5%AC%EA%B4%91%EC%97%AD%EC%8B%9C-%EB%8B%AC%EC%84%B1%EA%B5%B0-%EB%8B%A4%EC%82%AC%EC%9D%8D/", "workingTime": ["-", "08:30~20:00", "08:30~20:00", "08:30~20:00", "08:30~20:00", "08:30~20:00", "08:30~17:30", "-"]}, {"name": "\ub3c4\ub2f4\uc57d\uad6d", "lat": "35.873174334", "lng": "128.4773129193", "url": "/info/%EB%8F%84%EB%8B%B4%EC%95%BD%EA%B5%AD-%EB%8C%80%EA%B5%AC%EA%B4%91%EC%97%AD%EC%8B%9C-%EB%8B%AC%EC%84%B1%EA%B5%B0-%EB%8B%A4%EC%82%AC%EC%9D%8D/", "workingTime": ["-", "09:00~19:00", "09:00~19:00", "09:00~19:00", "09:00~19:00", "09:00~19:00", "09:00~14:00", "09:00~13:00"]}, {"name": "\ub2e4\ub098\uc57d\uad6d", "lat": "35.875447425804076", "lng": "128.4972024309222", "url": "/info/%EB%8B%A4%EB%82%98%EC%95%BD%EA%B5%AD-%EB%8C%80%EA%B5%AC%EA%B4%91%EC%97%AD%EC%8B%9C-%EB%8B%AC%EC%84%B1%EA%B5%B0-%EB%8B%A4%EC%82%AC%EC%9D%8D/", "workingTime": ["-", "09:00~19:20", "09:00~19:20", "09:00~19:20", "09:00~19:20", "09:00~19:20", "09:00~16:00", "-"]}, {"name": "\ub274\ud55c\uc194\uc57d\uad6d", "lat": "35.85703749265555", "lng": "128.46658734471023", "url": "/info/%EB%89%B4%ED%95%9C%EC%86%94%EC%95%BD%EA%B5%AD-%EB%8C%80%EA%B5%AC%EA%B4%91%EC%97%AD%EC%8B%9C-%EB%8B%AC%EC%84%B1%EA%B5%B0-%EB%8B%A4%EC%82%AC%EC%9D%8D/", "workingTime": ["-", "09:00~19:00", "09:00~19:00", "09:00~19:00", "09:00~19:00", "09:00~19:00", "09:00~15:00", "-"]}, {"name": "\ubbf8\uc18c\uc57d\uad6d", "lat": "35.8588668078307", "lng": "128.46437157920286", "url": "/info/%EB%AF%B8%EC%86%8C%EC%95%BD%EA%B5%AD-%EB%8C%80%EA%B5%AC%EA%B4%91%EC%97%AD%EC%8B%9C-%EB%8B%AC%EC%84%B1%EA%B5%B0-%EB%8B%A4%EC%82%AC%EC%9D%8D/", "workingTime": ["-", "09:00~19:00", "09:00~19:00", "09:00~19:00", "09:00~19:00", "09:00~19:00", "09:00~16:00", "09:00~13:00"]}, {"name": "\uc815\ub2e4\uc6b4\uc57d\uad6d", "lat": "35.8579562264", "lng": "128.4643044219", "url": "/info/%EC%A0%95%EB%8B%A4%EC%9A%B4%EC%95%BD%EA%B5%AD-%EB%8C%80%EA%B5%AC%EA%B4%91%EC%97%AD%EC%8B%9C-%EB%8B%AC%EC%84%B1%EA%B5%B0-%EB%8B%A4%EC%82%AC%EC%9D%8D/", "workingTime": ["-", "09:00~18:00", "09:00~18:00", "09:00~18:00", "09:00~18:00", "09:00~18:00", "09:00~13:00", "-"]}, {"name": "\uad11\uc7a5\uc57d\uad6d", "lat": "35.8585436271778", "lng": "128.46490858189847", "url": "/info/%EA%B4%91%EC%9E%A5%EC%95%BD%EA%B5%AD-%EB%8C%80%EA%B5%AC%EA%B4%91%EC%97%AD%EC%8B%9C-%EB%8B%AC%EC%84%B1%EA%B5%B0-%EB%8B%A4%EC%82%AC%EC%9D%8D/", "workingTime": ["-", "09:00~18:30", "09:00~18:30", "09:00~18:30", "09:00~20:30", "09:00~18:30", "09:00~14:00", "-"]}, {"name": "\uc138\ucc9c\ud478\ub978\uc57d\uad6d", "lat": "35.8751403542", "lng": "128.4786559632", "url": "/info/%EC%84%B8%EC%B2%9C%ED%91%B8%EB%A5%B8%EC%95%BD%EA%B5%AD-%EB%8C%80%EA%B5%AC%EA%B4%91%EC%97%AD%EC%8B%9C-%EB%8B%AC%EC%84%B1%EA%B5%B0-%EB%8B%A4%EC%82%AC%EC%9D%8D/", "workingTime": ["-", "09:00~18:30", "09:00~18:30", "09:00~18:30", "09:00~18:30", "09:00~18:30", "09:00~13:00", "-"]}, {"name": "\uc628\ub204\ub9ac\uc131\uc8fc\uc57d\uad6d", "lat": "35.86209295330638", "lng": "128.45873620742123", "url": "/info/%EC%98%A8%EB%88%84%EB%A6%AC%EC%84%B1%EC%A3%BC%EC%95%BD%EA%B5%AD-%EB%8C%80%EA%B5%AC%EA%B4%91%EC%97%AD%EC%8B%9C-%EB%8B%AC%EC%84%B1%EA%B5%B0-%EB%8B%A4%EC%82%AC%EC%9D%8D/", "workingTime": ["-", "09:00~18:00", "09:00~18:00", "09:00~18:00", "09:00~18:00", "09:00~18:00", "09:00~13:00", "-"]}, {"name": "\ub300\uc2e4\uc5ed\ub3d9\uc0b0\uc57d\uad6d", "lat": "35.85735921703544", "lng": "128.46621689129915", "url": "/info/%EB%8C%80%EC%8B%A4%EC%97%AD%EB%8F%99%EC%82%B0%EC%95%BD%EA%B5%AD-%EB%8C%80%EA%B5%AC%EA%B4%91%EC%97%AD%EC%8B%9C-%EB%8B%AC%EC%84%B1%EA%B5%B0-%EB%8B%A4%EC%82%AC%EC%9D%8D/", "workingTime": ["1,2,3,4,5\uc9f8\uc8fc14:00~20:30", "09:00~20:30", "09:00~20:30", "09:00~20:30", "09:00~20:30", "09:00~20:30", "09:00~20:30", "09:00~20:30"]}, {"name": "\ud55c\uc0ac\ub791\uc57d\uad6d", "lat": "35.85819754881144", "lng": "128.46516074500767", "url": "/info/%ED%95%9C%EC%82%AC%EB%9E%91%EC%95%BD%EA%B5%AD-%EB%8C%80%EA%B5%AC%EA%B4%91%EC%97%AD%EC%8B%9C-%EB%8B%AC%EC%84%B1%EA%B5%B0-%EB%8B%A4%EC%82%AC%EC%9D%8D/", "workingTime": ["1,2,3,4,5\uc9f8\uc8fc09:00~13:00", "09:00~19:30", "09:00~19:30", "09:00~19:30", "09:00~19:30", "09:00~19:30", "09:00~14:00", "09:00~13:00"]}, {"name": "\ub2e4\uc0ac\uc9c4\uc57d\uad6d", "lat": "35.8687256809379", "lng": "128.456437439486", "url": "/info/%EB%8B%A4%EC%82%AC%EC%A7%84%EC%95%BD%EA%B5%AD-%EB%8C%80%EA%B5%AC%EA%B4%91%EC%97%AD%EC%8B%9C-%EB%8B%AC%EC%84%B1%EA%B5%B0-%EB%8B%A4%EC%82%AC%EC%9D%8D/", "workingTime": ["-", "09:00~19:00", "09:00~19:00", "09:00~19:00", "09:00~19:00", "09:00~19:00", "09:00~13:00", "-"]}, {"name": "\ubc29\uc8fc\uc57d\uad6d", "lat": "35.8660867992334", "lng": "128.457612060004", "url": "/info/%EB%B0%A9%EC%A3%BC%EC%95%BD%EA%B5%AD-%EB%8C%80%EA%B5%AC%EA%B4%91%EC%97%AD%EC%8B%9C-%EB%8B%AC%EC%84%B1%EA%B5%B0-%EB%8B%A4%EC%82%AC%EC%9D%8D/", "workingTime": ["-", "09:00~13:00", "09:00~13:00", "09:00~13:00", "09:00~13:00", "09:00~13:00", "-", "-"]}]