[{"name": "\ub3d9\ubc29\uc57d\uad6d", "lat": "35.8973933574", "lng": "128.6382132201", "url": "/info/%EB%8F%99%EB%B0%A9%EC%95%BD%EA%B5%AD-%EB%8C%80%EA%B5%AC%EA%B4%91%EC%97%AD%EC%8B%9C-%EB%8F%99%EA%B5%AC-%EC%A7%80%EC%A0%80%EB%8F%99/", "workingTime": ["-", "09:00~20:00", "09:00~20:00", "09:00~20:00", "09:00~20:00", "09:00~20:00", "09:00~16:00", "-"]}, {"name": "\uc2e0\uad6c\uc57d\uad6d", "lat": "35.89628038145484", "lng": "128.63795329362853", "url": "/info/%EC%8B%A0%EA%B5%AC%EC%95%BD%EA%B5%AD-%EB%8C%80%EA%B5%AC%EA%B4%91%EC%97%AD%EC%8B%9C-%EB%8F%99%EA%B5%AC-%EC%A7%80%EC%A0%80%EB%8F%99/", "workingTime": ["-", "09:00~20:00", "09:00~20:00", "09:00~20:00", "09:00~20:00", "09:00~20:00", "09:00~20:00", "-"]}, {"name": "\ubcf4\uad11\uc57d\uad6d", "lat": "35.896837852172624", "lng": "128.63808651173346", "url": "/info/%EB%B3%B4%EA%B4%91%EC%95%BD%EA%B5%AD-%EB%8C%80%EA%B5%AC%EA%B4%91%EC%97%AD%EC%8B%9C-%EB%8F%99%EA%B5%AC-%EC%A7%80%EC%A0%80%EB%8F%99/", "workingTime": ["-", "09:00~19:00", "09:00~19:00", "09:00~19:00", "09:00~19:00", "09:00~19:00", "09:00~14:00", "-"]}, {"name": "\ubc31\ub9cc\uc57d\uad6d", "lat": "35.894547310561215", "lng": "128.63768053601393", "url": "/info/%EB%B0%B1%EB%A7%8C%EC%95%BD%EA%B5%AD-%EB%8C%80%EA%B5%AC%EA%B4%91%EC%97%AD%EC%8B%9C-%EB%8F%99%EA%B5%AC-%EC%A7%80%EC%A0%80%EB%8F%99/", "workingTime": ["-", "09:00~20:00", "09:00~20:00", "09:00~20:00", "09:00~20:00", "09:00~20:00", "09:00~20:00", "09:00~20:00"]}, {"name": "\ub298\ud478\ub978\uc57d\uad6d", "lat": "35.89746480650458", "lng": "128.63773181431205", "url": "/info/%EB%8A%98%ED%91%B8%EB%A5%B8%EC%95%BD%EA%B5%AD-%EB%8C%80%EA%B5%AC%EA%B4%91%EC%97%AD%EC%8B%9C-%EB%8F%99%EA%B5%AC-%EC%A7%80%EC%A0%80%EB%8F%99/", "workingTime": ["-", "09:00~18:30", "09:00~18:30", "09:00~18:30", "09:00~18:30", "09:00~18:30", "09:00~13:00", "-"]}, {"name": "\ud654\uc0b0\ub2f9\ud55c\uc57d\uad6d", "lat": "35.89879477410069", "lng": "128.63652309725524", "url": "/info/%ED%99%94%EC%82%B0%EB%8B%B9%ED%95%9C%EC%95%BD%EA%B5%AD-%EB%8C%80%EA%B5%AC%EA%B4%91%EC%97%AD%EC%8B%9C-%EB%8F%99%EA%B5%AC-%EC%A7%80%EC%A0%80%EB%8F%99/", "workingTime": ["-", "09:00~17:30", "09:00~17:30", "09:00~17:30", "09:00~17:30", "09:00~17:30", "09:00~15:00", "-"]}]