[{"name": "\ud638\ub450\uc57d\uad6d", "lat": "35.8630804032639", "lng": "128.604835136662", "url": "/info/%ED%98%B8%EB%91%90%EC%95%BD%EA%B5%AD-%EB%8C%80%EA%B5%AC%EA%B4%91%EC%97%AD%EC%8B%9C-%EC%A4%91%EA%B5%AC-%EC%82%BC%EB%8D%95%EB%8F%992%EA%B0%80/", "workingTime": ["-", "09:00~19:00", "09:00~19:00", "09:00~19:00", "09:00~19:00", "09:00~19:00", "-", "-"]}, {"name": "\uc0d8\ubb3c\uc57d\uad6d", "lat": "35.8653788579579", "lng": "128.600167878701", "url": "/info/%EC%83%98%EB%AC%BC%EC%95%BD%EA%B5%AD-%EB%8C%80%EA%B5%AC%EA%B4%91%EC%97%AD%EC%8B%9C-%EC%A4%91%EA%B5%AC-%EC%82%BC%EB%8D%95%EB%8F%992%EA%B0%80/", "workingTime": ["-", "09:00~18:30", "09:00~18:30", "09:00~18:30", "09:00~18:30", "09:00~18:30", "09:00~17:00", "-"]}, {"name": "\ubc18\uc6d4\uc57d\uad6d", "lat": "35.86587798435545", "lng": "128.60310368567252", "url": "/info/%EB%B0%98%EC%9B%94%EC%95%BD%EA%B5%AD-%EB%8C%80%EA%B5%AC%EA%B4%91%EC%97%AD%EC%8B%9C-%EC%A4%91%EA%B5%AC-%EC%82%BC%EB%8D%95%EB%8F%992%EA%B0%80/", "workingTime": ["-", "09:00~19:30", "09:00~19:30", "09:00~19:30", "09:00~19:30", "09:00~19:30", "10:30~16:00", "-"]}, {"name": "\ub300\ud765\uc57d\uad6d", "lat": "35.86550236301181", "lng": "128.60300129335002", "url": "/info/%EB%8C%80%ED%9D%A5%EC%95%BD%EA%B5%AD-%EB%8C%80%EA%B5%AC%EA%B4%91%EC%97%AD%EC%8B%9C-%EC%A4%91%EA%B5%AC-%EC%82%BC%EB%8D%95%EB%8F%992%EA%B0%80/", "workingTime": ["-", "09:00~18:00", "09:00~18:00", "09:00~18:00", "09:00~18:00", "09:00~18:00", "-", "-"]}, {"name": "\ubb38\uc55e\uc57d\uad6d", "lat": "35.865476988411835", "lng": "128.60398127419944", "url": "/info/%EB%AC%B8%EC%95%9E%EC%95%BD%EA%B5%AD-%EB%8C%80%EA%B5%AC%EA%B4%91%EC%97%AD%EC%8B%9C-%EC%A4%91%EA%B5%AC-%EC%82%BC%EB%8D%95%EB%8F%992%EA%B0%80/", "workingTime": ["-", "09:00~18:20", "09:00~18:20", "09:00~18:20", "09:00~18:20", "09:00~18:20", "-", "-"]}, {"name": "\uc0bc\ub355\uc57d\uad6d", "lat": "35.8654418218", "lng": "128.6040949583", "url": "/info/%EC%82%BC%EB%8D%95%EC%95%BD%EA%B5%AD-%EB%8C%80%EA%B5%AC%EA%B4%91%EC%97%AD%EC%8B%9C-%EC%A4%91%EA%B5%AC-%EC%82%BC%EB%8D%95%EB%8F%992%EA%B0%80/", "workingTime": ["-", "09:00~18:00", "09:00~18:00", "09:00~18:00", "09:00~18:00", "09:00~18:00", "-", "-"]}, {"name": "\ud50c\ub7ec\uc2a4\uc57d\uad6d", "lat": "35.86482281434883", "lng": "128.60140857047762", "url": "/info/%ED%94%8C%EB%9F%AC%EC%8A%A4%EC%95%BD%EA%B5%AD-%EB%8C%80%EA%B5%AC%EA%B4%91%EC%97%AD%EC%8B%9C-%EC%A4%91%EA%B5%AC-%EC%82%BC%EB%8D%95%EB%8F%992%EA%B0%80/", "workingTime": ["-", "09:30~21:30", "09:30~21:30", "09:30~21:30", "09:30~21:30", "09:30~21:30", "09:30~17:30", "-"]}, {"name": "\uc194\uc57d\uad6d", "lat": "35.8650932251", "lng": "128.6026664486", "url": "/info/%EC%86%94%EC%95%BD%EA%B5%AD-%EB%8C%80%EA%B5%AC%EA%B4%91%EC%97%AD%EC%8B%9C-%EC%A4%91%EA%B5%AC-%EC%82%BC%EB%8D%95%EB%8F%992%EA%B0%80/", "workingTime": ["-", "09:00~18:00", "09:00~18:00", "09:00~18:00", "09:00~18:00", "09:00~18:00", "09:00~13:00", "-"]}, {"name": "\uc7a5\uc57d\uad6d", "lat": "35.865200921298616", "lng": "128.59764327768272", "url": "/info/%EC%9E%A5%EC%95%BD%EA%B5%AD-%EB%8C%80%EA%B5%AC%EA%B4%91%EC%97%AD%EC%8B%9C-%EC%A4%91%EA%B5%AC-%EC%82%BC%EB%8D%95%EB%8F%992%EA%B0%80/", "workingTime": ["-", "09:00~18:00", "09:00~18:00", "09:00~18:00", "09:00~18:00", "09:00~18:00", "09:00~15:00", "-"]}, {"name": "\ub450\uc0b0\uc57d\uad6d", "lat": "35.86599578092885", "lng": "128.60319019438938", "url": "/info/%EB%91%90%EC%82%B0%EC%95%BD%EA%B5%AD-%EB%8C%80%EA%B5%AC%EA%B4%91%EC%97%AD%EC%8B%9C-%EC%A4%91%EA%B5%AC-%EC%82%BC%EB%8D%95%EB%8F%992%EA%B0%80/", "workingTime": ["-", "09:00~18:00", "09:00~18:00", "09:00~18:00", "09:00~18:00", "09:00~18:00", "-", "-"]}, {"name": "\uace0\uc6b4\ube5b\uc628\ub204\ub9ac\uc57d\uad6d", "lat": "35.86721538746564", "lng": "128.60336530591633", "url": "/info/%EA%B3%A0%EC%9A%B4%EB%B9%9B%EC%98%A8%EB%88%84%EB%A6%AC%EC%95%BD%EA%B5%AD-%EB%8C%80%EA%B5%AC%EA%B4%91%EC%97%AD%EC%8B%9C-%EC%A4%91%EA%B5%AC-%EC%82%BC%EB%8D%95%EB%8F%992%EA%B0%80/", "workingTime": ["-", "09:00~18:00", "09:00~18:00", "09:00~18:00", "09:00~18:00", "09:00~18:00", "09:00~13:00", "-"]}, {"name": "\ub354\uc232\uc57d\uad6d", "lat": "35.8677859845273", "lng": "128.600844568371", "url": "/info/%EB%8D%94%EC%88%B2%EC%95%BD%EA%B5%AD-%EB%8C%80%EA%B5%AC%EA%B4%91%EC%97%AD%EC%8B%9C-%EC%A4%91%EA%B5%AC-%EC%82%BC%EB%8D%95%EB%8F%992%EA%B0%80/", "workingTime": ["-", "09:00~19:00", "09:00~19:00", "09:00~19:00", "09:00~19:00", "09:00~19:00", "09:00~15:00", "-"]}, {"name": "\uc9c4\uc57d\uad6d", "lat": "35.863637960339176", "lng": "128.60214197317572", "url": "/info/%EC%A7%84%EC%95%BD%EA%B5%AD-%EB%8C%80%EA%B5%AC%EA%B4%91%EC%97%AD%EC%8B%9C-%EC%A4%91%EA%B5%AC-%EC%82%BC%EB%8D%95%EB%8F%992%EA%B0%80/", "workingTime": ["-", "08:30~18:30", "08:30~18:30", "08:30~18:30", "08:30~18:30", "08:30~18:30", "08:30~13:00", "-"]}, {"name": "\ub9cc\ub098\uc57d\uad6d", "lat": "35.86404424791775", "lng": "128.59996623948527", "url": "/info/%EB%A7%8C%EB%82%98%EC%95%BD%EA%B5%AD-%EB%8C%80%EA%B5%AC%EA%B4%91%EC%97%AD%EC%8B%9C-%EC%A4%91%EA%B5%AC-%EC%82%BC%EB%8D%95%EB%8F%992%EA%B0%80/", "workingTime": ["-", "09:00~19:00", "09:00~19:00", "09:00~19:00", "09:00~19:00", "09:00~19:00", "09:00~16:00", "-"]}, {"name": "\uc990\uac70\uc6b4\uc57d\uad6d", "lat": "35.8635772898", "lng": "128.6030875989", "url": "/info/%EC%A6%90%EA%B1%B0%EC%9A%B4%EC%95%BD%EA%B5%AD-%EB%8C%80%EA%B5%AC%EA%B4%91%EC%97%AD%EC%8B%9C-%EC%A4%91%EA%B5%AC-%EC%82%BC%EB%8D%95%EB%8F%992%EA%B0%80/", "workingTime": ["-", "09:00~19:00", "09:00~19:00", "09:00~19:00", "09:00~19:30", "09:00~19:30", "09:00~15:00", "-"]}, {"name": "\ub300\uad6c\uc57d\uad6d", "lat": "35.8636982728", "lng": "128.6018545626", "url": "/info/%EB%8C%80%EA%B5%AC%EC%95%BD%EA%B5%AD-%EB%8C%80%EA%B5%AC%EA%B4%91%EC%97%AD%EC%8B%9C-%EC%A4%91%EA%B5%AC-%EC%82%BC%EB%8D%95%EB%8F%992%EA%B0%80/", "workingTime": ["-", "09:00~18:00", "09:00~18:00", "09:00~20:00", "09:00~18:00", "09:00~18:00", "09:00~17:00", "09:00~13:00"]}, {"name": "\ub2e4\uc628\uc57d\uad6d", "lat": "35.8639969997", "lng": "128.6005365323", "url": "/info/%EB%8B%A4%EC%98%A8%EC%95%BD%EA%B5%AD-%EB%8C%80%EA%B5%AC%EA%B4%91%EC%97%AD%EC%8B%9C-%EC%A4%91%EA%B5%AC-%EC%82%BC%EB%8D%95%EB%8F%992%EA%B0%80/", "workingTime": ["-", "09:00~18:30", "09:00~18:30", "09:00~18:30", "09:00~18:30", "09:00~18:30", "09:00~13:30", "-"]}]