[{"name": "\uc11c\ub300\uad6c\uc57d\uad6d", "lat": "35.869752347861436", "lng": "128.55316565426253", "url": "/info/%EC%84%9C%EB%8C%80%EA%B5%AC%EC%95%BD%EA%B5%AD-%EB%8C%80%EA%B5%AC%EA%B4%91%EC%97%AD%EC%8B%9C-%EC%84%9C%EA%B5%AC-%ED%8F%89%EB%A6%AC%EB%8F%99/", "workingTime": ["-", "09:00~19:00", "09:00~19:00", "09:00~19:00", "09:00~19:00", "09:00~19:00", "09:00~13:00", "-"]}, {"name": "\uc11c\uc57d\uad6d", "lat": "35.86509121635438", "lng": "128.55682111860938", "url": "/info/%EC%84%9C%EC%95%BD%EA%B5%AD-%EB%8C%80%EA%B5%AC%EA%B4%91%EC%97%AD%EC%8B%9C-%EC%84%9C%EA%B5%AC-%ED%8F%89%EB%A6%AC%EB%8F%99/", "workingTime": ["-", "08:00~21:00", "08:00~21:00", "08:00~21:00", "08:00~21:00", "08:00~21:00", "08:00~21:00", "-"]}, {"name": "\ud3c9\ub9ac\uc81c\uc77c\uc57d\uad6d", "lat": "35.875061452225054", "lng": "128.5551794203112", "url": "/info/%ED%8F%89%EB%A6%AC%EC%A0%9C%EC%9D%BC%EC%95%BD%EA%B5%AD-%EB%8C%80%EA%B5%AC%EA%B4%91%EC%97%AD%EC%8B%9C-%EC%84%9C%EA%B5%AC-%ED%8F%89%EB%A6%AC%EB%8F%99/", "workingTime": ["-", "09:00~19:00", "09:00~19:00", "09:00~19:00", "09:00~19:00", "09:00~19:00", "09:00~13:00", "-"]}, {"name": "\uac74\uac15\ub2f9\uc57d\uad6d", "lat": "35.875717029694236", "lng": "128.56554925925513", "url": "/info/%EA%B1%B4%EA%B0%95%EB%8B%B9%EC%95%BD%EA%B5%AD-%EB%8C%80%EA%B5%AC%EA%B4%91%EC%97%AD%EC%8B%9C-%EC%84%9C%EA%B5%AC-%ED%8F%89%EB%A6%AC%EB%8F%99/", "workingTime": ["-", "08:00~20:00", "08:00~20:00", "08:00~20:00", "08:00~20:00", "08:00~20:00", "08:00~15:00", "-"]}, {"name": "\ucc38\uc870\uc740\uc57d\uad6d", "lat": "35.86887758742373", "lng": "128.559481370462", "url": "/info/%EC%B0%B8%EC%A1%B0%EC%9D%80%EC%95%BD%EA%B5%AD-%EB%8C%80%EA%B5%AC%EA%B4%91%EC%97%AD%EC%8B%9C-%EC%84%9C%EA%B5%AC-%ED%8F%89%EB%A6%AC%EB%8F%99/", "workingTime": ["-", "08:00~22:00", "08:00~22:00", "08:00~22:00", "08:00~22:00", "08:00~22:00", "08:00~22:00", "-"]}, {"name": "\uadf9\ub3d9\uc57d\uad6d", "lat": "35.8785673881599", "lng": "128.55054317109523", "url": "/info/%EA%B7%B9%EB%8F%99%EC%95%BD%EA%B5%AD-%EB%8C%80%EA%B5%AC%EA%B4%91%EC%97%AD%EC%8B%9C-%EC%84%9C%EA%B5%AC-%ED%8F%89%EB%A6%AC%EB%8F%99/", "workingTime": ["-", "09:00~19:00", "09:00~19:00", "09:00~19:00", "09:00~19:00", "09:00~19:00", "09:00~16:00", "-"]}, {"name": "\uba54\ub514\ud31c \uc11c\uc9c4\uc57d\uad6d", "lat": "35.87554480509445", "lng": "128.5540093874169", "url": "/info/%EB%A9%94%EB%94%94%ED%8C%9C+%EC%84%9C%EC%A7%84%EC%95%BD%EA%B5%AD-%EB%8C%80%EA%B5%AC%EA%B4%91%EC%97%AD%EC%8B%9C-%EC%84%9C%EA%B5%AC-%ED%8F%89%EB%A6%AC%EB%8F%99/", "workingTime": ["-", "10:00~20:00", "10:00~20:00", "10:00~20:00", "10:00~20:00", "10:00~20:00", "10:00~19:00", "10:00~20:00"]}, {"name": "\uc720\ud55c\uc57d\uad6d", "lat": "35.87116622242905", "lng": "128.56005761738984", "url": "/info/%EC%9C%A0%ED%95%9C%EC%95%BD%EA%B5%AD-%EB%8C%80%EA%B5%AC%EA%B4%91%EC%97%AD%EC%8B%9C-%EC%84%9C%EA%B5%AC-%ED%8F%89%EB%A6%AC%EB%8F%99/", "workingTime": ["-", "09:00~19:00", "09:00~19:00", "09:00~19:00", "09:00~19:00", "09:00~19:00", "09:00~13:00", "-"]}, {"name": "\uc628\uc57d\uad6d", "lat": "35.875612163", "lng": "128.563501023", "url": "/info/%EC%98%A8%EC%95%BD%EA%B5%AD-%EB%8C%80%EA%B5%AC%EA%B4%91%EC%97%AD%EC%8B%9C-%EC%84%9C%EA%B5%AC-%ED%8F%89%EB%A6%AC%EB%8F%99/", "workingTime": ["-", "09:00~19:00", "09:00~19:00", "09:00~19:00", "09:00~19:00", "09:00~19:00", "09:00~14:00", "-"]}, {"name": "\uc628\ub204\ub9ac \uad11\uba85\uc57d\uad6d", "lat": "35.875258669243585", "lng": "128.55400629664606", "url": "/info/%EC%98%A8%EB%88%84%EB%A6%AC+%EA%B4%91%EB%AA%85%EC%95%BD%EA%B5%AD-%EB%8C%80%EA%B5%AC%EA%B4%91%EC%97%AD%EC%8B%9C-%EC%84%9C%EA%B5%AC-%ED%8F%89%EB%A6%AC%EB%8F%99/", "workingTime": ["-", "09:00~19:00", "09:00~19:00", "09:00~19:00", "09:00~19:00", "09:00~19:00", "09:00~13:00", "-"]}, {"name": "\ud589\ubcf5\uc57d\uad6d", "lat": "35.8717458470504", "lng": "128.56510436682265", "url": "/info/%ED%96%89%EB%B3%B5%EC%95%BD%EA%B5%AD-%EB%8C%80%EA%B5%AC%EA%B4%91%EC%97%AD%EC%8B%9C-%EC%84%9C%EA%B5%AC-%ED%8F%89%EB%A6%AC%EB%8F%99/", "workingTime": ["-", "09:00~18:30", "09:00~18:30", "09:00~13:00", "09:00~18:30", "09:00~18:30", "09:00~14:00", "-"]}, {"name": "\ubc31\uc138\uc57d\uad6d", "lat": "35.8697173549", "lng": "128.5527654394", "url": "/info/%EB%B0%B1%EC%84%B8%EC%95%BD%EA%B5%AD-%EB%8C%80%EA%B5%AC%EA%B4%91%EC%97%AD%EC%8B%9C-%EC%84%9C%EA%B5%AC-%ED%8F%89%EB%A6%AC%EB%8F%99/", "workingTime": ["-", "09:00~19:00", "09:00~19:00", "09:00~19:00", "09:00~19:00", "09:00~19:00", "09:00~15:00", "-"]}, {"name": "\ubbf8\ub798\uc57d\uad6d", "lat": "35.86949054428695", "lng": "128.5482748815322", "url": "/info/%EB%AF%B8%EB%9E%98%EC%95%BD%EA%B5%AD-%EB%8C%80%EA%B5%AC%EA%B4%91%EC%97%AD%EC%8B%9C-%EC%84%9C%EA%B5%AC-%ED%8F%89%EB%A6%AC%EB%8F%99/", "workingTime": ["-", "09:00~19:00", "09:00~19:00", "09:00~19:00", "09:00~19:00", "09:00~19:00", "09:00~13:00", "-"]}, {"name": "\uba54\ub514\uc2a8\uc57d\uad6d", "lat": "35.886091502604195", "lng": "128.6347612738799", "url": "/info/%EB%A9%94%EB%94%94%EC%8A%A8%EC%95%BD%EA%B5%AD-%EB%8C%80%EA%B5%AC%EA%B4%91%EC%97%AD%EC%8B%9C-%EC%84%9C%EA%B5%AC-%ED%8F%89%EB%A6%AC%EB%8F%99/", "workingTime": ["-", "09:00~18:00", "09:00~18:00", "09:00~18:00", "09:00~18:00", "09:00~18:00", "09:00~15:00", "-"]}, {"name": "\ub3d9\ud654\uc57d\uad6d", "lat": "35.8652147377", "lng": "128.5536385324", "url": "/info/%EB%8F%99%ED%99%94%EC%95%BD%EA%B5%AD-%EB%8C%80%EA%B5%AC%EA%B4%91%EC%97%AD%EC%8B%9C-%EC%84%9C%EA%B5%AC-%ED%8F%89%EB%A6%AC%EB%8F%99/", "workingTime": ["-", "09:00~19:00", "09:00~19:00", "09:00~19:00", "09:00~19:00", "09:00~19:00", "09:00~18:00", "-"]}, {"name": "\ub3d9\uc6d0\uc57d\uad6d", "lat": "35.871677449895266", "lng": "128.56371242243472", "url": "/info/%EB%8F%99%EC%9B%90%EC%95%BD%EA%B5%AD-%EB%8C%80%EA%B5%AC%EA%B4%91%EC%97%AD%EC%8B%9C-%EC%84%9C%EA%B5%AC-%ED%8F%89%EB%A6%AC%EB%8F%99/", "workingTime": ["-", "09:00~19:30", "09:00~19:30", "09:00~19:30", "09:00~19:30", "09:00~19:30", "09:00~13:00", "-"]}, {"name": "\ub300\uc591\uc57d\uad6d", "lat": "35.86806711324441", "lng": "128.56360168857572", "url": "/info/%EB%8C%80%EC%96%91%EC%95%BD%EA%B5%AD-%EB%8C%80%EA%B5%AC%EA%B4%91%EC%97%AD%EC%8B%9C-%EC%84%9C%EA%B5%AC-%ED%8F%89%EB%A6%AC%EB%8F%99/", "workingTime": ["-", "08:00~19:00", "08:00~19:00", "08:00~19:00", "08:00~19:00", "08:00~19:00", "08:00~19:00", "-"]}, {"name": "\ucd5c\uc57d\uad6d", "lat": "35.875809458816974", "lng": "128.55913689318382", "url": "/info/%EC%B5%9C%EC%95%BD%EA%B5%AD-%EB%8C%80%EA%B5%AC%EA%B4%91%EC%97%AD%EC%8B%9C-%EC%84%9C%EA%B5%AC-%ED%8F%89%EB%A6%AC%EB%8F%99/", "workingTime": ["-", "09:00~19:00", "09:00~19:00", "09:00~19:00", "-", "09:00~19:00", "09:00~14:00", "-"]}, {"name": "\uc911\ub9ac\ud6a8\uc131\uc57d\uad6d", "lat": "35.869273649438576", "lng": "128.54723979192786", "url": "/info/%EC%A4%91%EB%A6%AC%ED%9A%A8%EC%84%B1%EC%95%BD%EA%B5%AD-%EB%8C%80%EA%B5%AC%EA%B4%91%EC%97%AD%EC%8B%9C-%EC%84%9C%EA%B5%AC-%ED%8F%89%EB%A6%AC%EB%8F%99/", "workingTime": ["-", "09:30~18:30", "09:30~18:30", "09:30~18:30", "09:30~18:30", "09:30~18:30", "09:30~14:00", "-"]}, {"name": "\ucc38\ud55c\uc591\uc57d\uad6d", "lat": "35.8645378612", "lng": "128.5563620068", "url": "/info/%EC%B0%B8%ED%95%9C%EC%96%91%EC%95%BD%EA%B5%AD-%EB%8C%80%EA%B5%AC%EA%B4%91%EC%97%AD%EC%8B%9C-%EC%84%9C%EA%B5%AC-%ED%8F%89%EB%A6%AC%EB%8F%99/", "workingTime": ["-", "09:00~19:30", "09:00~19:30", "09:00~19:30", "09:00~19:30", "09:00~19:30", "09:00~14:00", "-"]}, {"name": "\uba54\ub514\ud31c\uad70\uc704\uc57d\uad6d", "lat": "35.879647954735596", "lng": "128.5672483515923", "url": "/info/%EB%A9%94%EB%94%94%ED%8C%9C%EA%B5%B0%EC%9C%84%EC%95%BD%EA%B5%AD-%EB%8C%80%EA%B5%AC%EA%B4%91%EC%97%AD%EC%8B%9C-%EC%84%9C%EA%B5%AC-%ED%8F%89%EB%A6%AC%EB%8F%99/", "workingTime": ["-", "09:00~19:00", "09:00~19:00", "09:00~19:00", "09:00~19:00", "09:00~19:00", "09:00~18:00", "-"]}, {"name": "\uba54\ub514\uc2a8\uc57d\uad6d", "lat": "35.86763493736517", "lng": "128.5607988597489", "url": "/info/%EB%A9%94%EB%94%94%EC%8A%A8%EC%95%BD%EA%B5%AD-%EB%8C%80%EA%B5%AC%EA%B4%91%EC%97%AD%EC%8B%9C-%EC%84%9C%EA%B5%AC-%ED%8F%89%EB%A6%AC%EB%8F%99/", "workingTime": ["-", "09:00~18:30", "09:00~18:30", "09:00~18:30", "09:00~18:30", "09:00~18:30", "09:00~12:30", "-"]}, {"name": "\ube44\ud0c0\uc57d\uad6d", "lat": "35.871016847984414", "lng": "128.5593009268087", "url": "/info/%EB%B9%84%ED%83%80%EC%95%BD%EA%B5%AD-%EB%8C%80%EA%B5%AC%EA%B4%91%EC%97%AD%EC%8B%9C-%EC%84%9C%EA%B5%AC-%ED%8F%89%EB%A6%AC%EB%8F%99/", "workingTime": ["-", "09:00~19:00", "09:00~19:00", "09:00~19:00", "09:00~19:00", "09:00~19:00", "09:00~16:00", "-"]}, {"name": "\uccad\uc554\uc57d\uad6d", "lat": "35.869393623659114", "lng": "128.54772040552695", "url": "/info/%EC%B2%AD%EC%95%94%EC%95%BD%EA%B5%AD-%EB%8C%80%EA%B5%AC%EA%B4%91%EC%97%AD%EC%8B%9C-%EC%84%9C%EA%B5%AC-%ED%8F%89%EB%A6%AC%EB%8F%99/", "workingTime": ["-", "09:00~20:00", "09:00~20:00", "09:00~20:00", "09:00~20:00", "09:00~20:00", "09:00~14:00", "-"]}, {"name": "\ud3c9\ub9ac\uc57d\uad6d", "lat": "35.87842924821644", "lng": "128.55895977408167", "url": "/info/%ED%8F%89%EB%A6%AC%EC%95%BD%EA%B5%AD-%EB%8C%80%EA%B5%AC%EA%B4%91%EC%97%AD%EC%8B%9C-%EC%84%9C%EA%B5%AC-%ED%8F%89%EB%A6%AC%EB%8F%99/", "workingTime": ["1,3,5\uc9f8\uc8fc10:00~17:00", "09:00~20:00", "09:00~20:00", "09:00~20:00", "09:00~20:00", "09:00~20:00", "09:00~17:00", "10:00~17:00"]}, {"name": "\uc218\uc815\uc57d\uad6d", "lat": "35.87554230309947", "lng": "128.56032492643573", "url": "/info/%EC%88%98%EC%A0%95%EC%95%BD%EA%B5%AD-%EB%8C%80%EA%B5%AC%EA%B4%91%EC%97%AD%EC%8B%9C-%EC%84%9C%EA%B5%AC-%ED%8F%89%EB%A6%AC%EB%8F%99/", "workingTime": ["2\uc9f8\uc8fc10:00~17:00", "08:30~19:30", "08:30~19:30", "08:30~19:30", "08:30~19:30", "08:30~19:30", "08:30~17:00", "-"]}, {"name": "\uc2e0\uc131\uc57d\uad6d", "lat": "35.87941265649703", "lng": "128.5587309989595", "url": "/info/%EC%8B%A0%EC%84%B1%EC%95%BD%EA%B5%AD-%EB%8C%80%EA%B5%AC%EA%B4%91%EC%97%AD%EC%8B%9C-%EC%84%9C%EA%B5%AC-%ED%8F%89%EB%A6%AC%EB%8F%99/", "workingTime": ["-", "09:00~20:00", "09:00~20:00", "09:00~20:00", "09:00~20:00", "09:00~20:00", "09:00~13:00", "-"]}, {"name": "\uc2dc\uc6d0\uc57d\uad6d", "lat": "35.870819228312115", "lng": "128.55814117748022", "url": "/info/%EC%8B%9C%EC%9B%90%EC%95%BD%EA%B5%AD-%EB%8C%80%EA%B5%AC%EA%B4%91%EC%97%AD%EC%8B%9C-%EC%84%9C%EA%B5%AC-%ED%8F%89%EB%A6%AC%EB%8F%99/", "workingTime": ["-", "09:00~18:30", "09:00~18:30", "09:00~18:30", "09:00~18:30", "09:00~18:30", "09:00~14:00", "-"]}, {"name": "\uc601\ub0a8\uc57d\uad6d", "lat": "35.870717638650284", "lng": "128.5579585253564", "url": "/info/%EC%98%81%EB%82%A8%EC%95%BD%EA%B5%AD-%EB%8C%80%EA%B5%AC%EA%B4%91%EC%97%AD%EC%8B%9C-%EC%84%9C%EA%B5%AC-%ED%8F%89%EB%A6%AC%EB%8F%99/", "workingTime": ["-", "09:00~19:30", "09:00~19:30", "09:00~19:30", "09:00~19:30", "09:00~19:30", "09:00~14:30", "-"]}, {"name": "\ub2e4\uc628\uc57d\uad6d", "lat": "35.871043302047205", "lng": "128.559762025623", "url": "/info/%EB%8B%A4%EC%98%A8%EC%95%BD%EA%B5%AD-%EB%8C%80%EA%B5%AC%EA%B4%91%EC%97%AD%EC%8B%9C-%EC%84%9C%EA%B5%AC-%ED%8F%89%EB%A6%AC%EB%8F%99/", "workingTime": ["-", "09:00~19:00", "09:00~19:00", "09:00~19:00", "09:00~19:00", "09:00~19:00", "09:00~14:00", "-"]}, {"name": "\uc2e0\ud3c9\ub9ac\uc57d\uad6d", "lat": "35.8702223959", "lng": "128.5552420339", "url": "/info/%EC%8B%A0%ED%8F%89%EB%A6%AC%EC%95%BD%EA%B5%AD-%EB%8C%80%EA%B5%AC%EA%B4%91%EC%97%AD%EC%8B%9C-%EC%84%9C%EA%B5%AC-%ED%8F%89%EB%A6%AC%EB%8F%99/", "workingTime": ["-", "09:00~18:30", "09:00~18:30", "09:00~18:30", "09:00~18:30", "09:00~18:30", "09:00~13:30", "-"]}, {"name": "\ucc9c\uc77c\uc57d\uad6d", "lat": "35.87477869033405", "lng": "128.55523368246904", "url": "/info/%EC%B2%9C%EC%9D%BC%EC%95%BD%EA%B5%AD-%EB%8C%80%EA%B5%AC%EA%B4%91%EC%97%AD%EC%8B%9C-%EC%84%9C%EA%B5%AC-%ED%8F%89%EB%A6%AC%EB%8F%99/", "workingTime": ["18:00~21:00(\uc5f0\ub77d\ud6c4\ubc29\ubb38\uc694\ub9dd)", "10:00~13:00", "10:00~13:00", "10:00~13:00", "10:00~13:00", "10:00~13:00", "09:30~15:00", "-"]}]