[{"name": "\uc0c8\uc0ac\ub791\uc57d\uad6d", "lat": "35.8718844874", "lng": "128.702708935", "url": "/info/%EC%83%88%EC%82%AC%EB%9E%91%EC%95%BD%EA%B5%AD-%EB%8C%80%EA%B5%AC%EA%B4%91%EC%97%AD%EC%8B%9C-%EB%8F%99%EA%B5%AC-%EC%8B%A0%EA%B8%B0%EB%8F%99/", "workingTime": ["-", "09:00~18:00", "09:00~18:00", "09:00~18:00", "09:00~18:00", "09:00~18:00", "09:00~12:30", "-"]}, {"name": "\ud604\uc57d\uad6d", "lat": "35.86997840776213", "lng": "128.70207037421528", "url": "/info/%ED%98%84%EC%95%BD%EA%B5%AD-%EB%8C%80%EA%B5%AC%EA%B4%91%EC%97%AD%EC%8B%9C-%EB%8F%99%EA%B5%AC-%EC%8B%A0%EA%B8%B0%EB%8F%99/", "workingTime": ["-", "09:00~18:30", "09:00~18:30", "09:00~18:30", "09:00~18:30", "09:00~18:30", "09:00~12:30", "-"]}, {"name": "\ubc18\uc57c\uc6d4\uc778\uc81c\uc57d\uad6d", "lat": "35.86972941929622", "lng": "128.70666622031186", "url": "/info/%EB%B0%98%EC%95%BC%EC%9B%94%EC%9D%B8%EC%A0%9C%EC%95%BD%EA%B5%AD-%EB%8C%80%EA%B5%AC%EA%B4%91%EC%97%AD%EC%8B%9C-%EB%8F%99%EA%B5%AC-%EC%8B%A0%EA%B8%B0%EB%8F%99/", "workingTime": ["-", "09:00~18:30", "09:00~18:30", "09:00~18:30", "09:00~18:30", "09:00~18:30", "09:00~12:00", "-"]}, {"name": "\ub9d1\uc740\uc57d\uad6d", "lat": "35.8698993313", "lng": "128.7034060101", "url": "/info/%EB%A7%91%EC%9D%80%EC%95%BD%EA%B5%AD-%EB%8C%80%EA%B5%AC%EA%B4%91%EC%97%AD%EC%8B%9C-%EB%8F%99%EA%B5%AC-%EC%8B%A0%EA%B8%B0%EB%8F%99/", "workingTime": ["-", "09:00~18:30", "09:00~18:30", "09:00~18:30", "09:00~18:30", "09:00~18:30", "09:00~13:00", "-"]}, {"name": "\ub3d9\ud654\uc57d\uad6d", "lat": "35.86987186600742", "lng": "128.70297593291355", "url": "/info/%EB%8F%99%ED%99%94%EC%95%BD%EA%B5%AD-%EB%8C%80%EA%B5%AC%EA%B4%91%EC%97%AD%EC%8B%9C-%EB%8F%99%EA%B5%AC-%EC%8B%A0%EA%B8%B0%EB%8F%99/", "workingTime": ["-", "09:30~18:30", "09:30~18:30", "09:30~18:30", "09:30~18:30", "09:30~18:30", "09:30~12:30", "-"]}, {"name": "\ub2e4\uc815\uc57d\uad6d", "lat": "35.869971984967975", "lng": "128.7017602438431", "url": "/info/%EB%8B%A4%EC%A0%95%EC%95%BD%EA%B5%AD-%EB%8C%80%EA%B5%AC%EA%B4%91%EC%97%AD%EC%8B%9C-%EB%8F%99%EA%B5%AC-%EC%8B%A0%EA%B8%B0%EB%8F%99/", "workingTime": ["-", "09:00~18:30", "09:00~18:30", "09:00~18:30", "09:00~18:30", "09:00~18:30", "09:00~12:30", "-"]}, {"name": "\uae40\uc815\ud76c\uc57d\uad6d", "lat": "35.8718583458269", "lng": "128.70243826905303", "url": "/info/%EA%B9%80%EC%A0%95%ED%9D%AC%EC%95%BD%EA%B5%AD-%EB%8C%80%EA%B5%AC%EA%B4%91%EC%97%AD%EC%8B%9C-%EB%8F%99%EA%B5%AC-%EC%8B%A0%EA%B8%B0%EB%8F%99/", "workingTime": ["-", "08:30~18:30", "08:30~18:30", "08:30~18:30", "08:30~18:30", "08:30~18:30", "08:30~13:00", "-"]}]