[{"name": "\ub2e4\ub098\uc744\uc57d\uad6d", "lat": "35.8176250386098", "lng": "128.644137173401", "url": "/info/%EB%8B%A4%EB%82%98%EC%9D%84%EC%95%BD%EA%B5%AD-%EB%8C%80%EA%B5%AC%EA%B4%91%EC%97%AD%EC%8B%9C-%EC%88%98%EC%84%B1%EA%B5%AC-%EB%B2%94%EB%AC%BC%EB%8F%99/", "workingTime": ["-", "09:00~18:00", "09:00~18:00", "09:00~18:00", "09:00~18:00", "09:00~18:00", "-", "-"]}, {"name": "\ubcf4\uc724\uc57d\uad6d", "lat": "35.817839291523846", "lng": "128.64545025368105", "url": "/info/%EB%B3%B4%EC%9C%A4%EC%95%BD%EA%B5%AD-%EB%8C%80%EA%B5%AC%EA%B4%91%EC%97%AD%EC%8B%9C-%EC%88%98%EC%84%B1%EA%B5%AC-%EB%B2%94%EB%AC%BC%EB%8F%99/", "workingTime": ["-", "09:00~18:30", "09:00~18:30", "09:00~18:30", "09:00~18:30", "09:00~18:30", "09:00~13:00", "09:00~12:00"]}, {"name": "\ub9ac\ube59\uc57d\uad6d", "lat": "35.82078803677016", "lng": "128.63951114707544", "url": "/info/%EB%A6%AC%EB%B9%99%EC%95%BD%EA%B5%AD-%EB%8C%80%EA%B5%AC%EA%B4%91%EC%97%AD%EC%8B%9C-%EC%88%98%EC%84%B1%EA%B5%AC-%EB%B2%94%EB%AC%BC%EB%8F%99/", "workingTime": ["-", "09:30~18:00", "09:30~18:00", "09:30~18:00", "09:30~18:00", "09:30~18:00", "09:30~15:00", "-"]}, {"name": "\ubbf8\uc18c\uc628\ub204\ub9ac\uc57d\uad6d", "lat": "35.82080041435608", "lng": "128.63951883605793", "url": "/info/%EB%AF%B8%EC%86%8C%EC%98%A8%EB%88%84%EB%A6%AC%EC%95%BD%EA%B5%AD-%EB%8C%80%EA%B5%AC%EA%B4%91%EC%97%AD%EC%8B%9C-%EC%88%98%EC%84%B1%EA%B5%AC-%EB%B2%94%EB%AC%BC%EB%8F%99/", "workingTime": ["-", "09:30~18:00", "09:30~18:00", "09:30~18:00", "09:30~18:00", "09:30~18:00", "09:30~14:00", "-"]}, {"name": "\uc790\uc5f0\uc57d\uad6d", "lat": "35.818835929024495", "lng": "128.63951826350583", "url": "/info/%EC%9E%90%EC%97%B0%EC%95%BD%EA%B5%AD-%EB%8C%80%EA%B5%AC%EA%B4%91%EC%97%AD%EC%8B%9C-%EC%88%98%EC%84%B1%EA%B5%AC-%EB%B2%94%EB%AC%BC%EB%8F%99/", "workingTime": ["-", "09:00~21:00", "09:00~21:00", "09:00~21:00", "09:00~21:00", "09:00~21:00", "09:00~19:00", "09:00~19:00"]}, {"name": "\ub77c\uc628\uc57d\uad6d", "lat": "35.8175618915421", "lng": "128.643654584403", "url": "/info/%EB%9D%BC%EC%98%A8%EC%95%BD%EA%B5%AD-%EB%8C%80%EA%B5%AC%EA%B4%91%EC%97%AD%EC%8B%9C-%EC%88%98%EC%84%B1%EA%B5%AC-%EB%B2%94%EB%AC%BC%EB%8F%99/", "workingTime": ["-", "09:00~19:00", "09:00~19:00", "09:00~18:00", "09:00~19:00", "09:00~19:00", "09:00~15:00", "09:00~15:00"]}, {"name": "\uc720\ube48\uc57d\uad6d", "lat": "35.819911811768726", "lng": "128.64085626809555", "url": "/info/%EC%9C%A0%EB%B9%88%EC%95%BD%EA%B5%AD-%EB%8C%80%EA%B5%AC%EA%B4%91%EC%97%AD%EC%8B%9C-%EC%88%98%EC%84%B1%EA%B5%AC-%EB%B2%94%EB%AC%BC%EB%8F%99/", "workingTime": ["-", "09:00~19:00", "09:00~19:00", "09:00~13:00", "09:00~19:00", "09:00~19:00", "09:00~13:00", "-"]}, {"name": "\ud55c\uc57d\uad6d", "lat": "35.8173399726", "lng": "128.644798234", "url": "/info/%ED%95%9C%EC%95%BD%EA%B5%AD-%EB%8C%80%EA%B5%AC%EA%B4%91%EC%97%AD%EC%8B%9C-%EC%88%98%EC%84%B1%EA%B5%AC-%EB%B2%94%EB%AC%BC%EB%8F%99/", "workingTime": ["-", "09:00~20:00", "09:00~20:00", "09:00~20:00", "09:00~20:00", "09:00~20:00", "09:00~13:00", "-"]}, {"name": "\ud589\ubcf5\ud55c\uc6a9\uc9c0\uc57d\uad6d", "lat": "35.81769908606535", "lng": "128.64463304362428", "url": "/info/%ED%96%89%EB%B3%B5%ED%95%9C%EC%9A%A9%EC%A7%80%EC%95%BD%EA%B5%AD-%EB%8C%80%EA%B5%AC%EA%B4%91%EC%97%AD%EC%8B%9C-%EC%88%98%EC%84%B1%EA%B5%AC-%EB%B2%94%EB%AC%BC%EB%8F%99/", "workingTime": ["-", "09:00~19:00", "09:00~19:00", "09:00~19:00", "09:00~19:00", "09:00~19:00", "09:00~14:00", "-"]}, {"name": "\uc218\uc131\uc911\uc559\uc57d\uad6d", "lat": "35.82005522390451", "lng": "128.6407692781731", "url": "/info/%EC%88%98%EC%84%B1%EC%A4%91%EC%95%99%EC%95%BD%EA%B5%AD-%EB%8C%80%EA%B5%AC%EA%B4%91%EC%97%AD%EC%8B%9C-%EC%88%98%EC%84%B1%EA%B5%AC-%EB%B2%94%EB%AC%BC%EB%8F%99/", "workingTime": ["-", "08:30~20:00", "08:30~20:00", "08:30~20:00", "08:30~20:00", "08:30~20:00", "08:30~14:00", "-"]}, {"name": "\ubc94\ubb3c21\uc138\uae30\uc57d\uad6d", "lat": "35.817741088538455", "lng": "128.6446088039318", "url": "/info/%EB%B2%94%EB%AC%BC21%EC%84%B8%EA%B8%B0%EC%95%BD%EA%B5%AD-%EB%8C%80%EA%B5%AC%EA%B4%91%EC%97%AD%EC%8B%9C-%EC%88%98%EC%84%B1%EA%B5%AC-%EB%B2%94%EB%AC%BC%EB%8F%99/", "workingTime": ["-", "10:00~20:00", "10:00~20:00", "10:00~20:00", "10:00~20:00", "10:00~20:00", "09:00~21:00", "-"]}]