[{"name": "\uc218\ud55c\uc57d\uad6d", "lat": "35.8064975759", "lng": "128.5352493789", "url": "/info/%EC%88%98%ED%95%9C%EC%95%BD%EA%B5%AD-%EB%8C%80%EA%B5%AC%EA%B4%91%EC%97%AD%EC%8B%9C-%EB%8B%AC%EC%84%9C%EA%B5%AC-%EB%8F%84%EC%9B%90%EB%8F%99/", "workingTime": ["1,2,3,4,5\uc9f8\uc8fc13:00~18:00", "10:00~21:00", "10:00~21:00", "10:00~21:00", "10:00~21:00", "10:00~21:00", "10:00~19:00", "-"]}, {"name": "\ucd08\uc774\uc2a4\uc57d\uad6d", "lat": "35.80728841483512", "lng": "128.53429107399023", "url": "/info/%EC%B4%88%EC%9D%B4%EC%8A%A4%EC%95%BD%EA%B5%AD-%EB%8C%80%EA%B5%AC%EA%B4%91%EC%97%AD%EC%8B%9C-%EB%8B%AC%EC%84%9C%EA%B5%AC-%EB%8F%84%EC%9B%90%EB%8F%99/", "workingTime": ["-", "09:00~19:30", "09:00~19:30", "09:00~19:30", "09:00~19:30", "09:00~19:30", "09:00~15:00", "-"]}, {"name": "\ub300\uace1\ud2bc\ud2bc\uc57d\uad6d", "lat": "35.80795427198871", "lng": "128.53554963281533", "url": "/info/%EB%8C%80%EA%B3%A1%ED%8A%BC%ED%8A%BC%EC%95%BD%EA%B5%AD-%EB%8C%80%EA%B5%AC%EA%B4%91%EC%97%AD%EC%8B%9C-%EB%8B%AC%EC%84%9C%EA%B5%AC-%EB%8F%84%EC%9B%90%EB%8F%99/", "workingTime": ["-", "09:00~21:00", "09:00~21:00", "09:00~21:00", "09:00~21:00", "09:00~21:00", "09:00~20:00", "09:00~13:00"]}, {"name": "\ubaa8\uc544\uc57d\uad6d", "lat": "35.80649757594631", "lng": "128.53524937887292", "url": "/info/%EB%AA%A8%EC%95%84%EC%95%BD%EA%B5%AD-%EB%8C%80%EA%B5%AC%EA%B4%91%EC%97%AD%EC%8B%9C-%EB%8B%AC%EC%84%9C%EA%B5%AC-%EB%8F%84%EC%9B%90%EB%8F%99/", "workingTime": ["-", "08:30~18:30", "08:30~18:30", "08:30~18:30", "08:30~18:30", "08:30~18:30", "08:30~14:00", "-"]}, {"name": "\uc0dd\uba85\uc0d8\uc57d\uad6d", "lat": "35.80795408145493", "lng": "128.53612932231178", "url": "/info/%EC%83%9D%EB%AA%85%EC%83%98%EC%95%BD%EA%B5%AD-%EB%8C%80%EA%B5%AC%EA%B4%91%EC%97%AD%EC%8B%9C-%EB%8B%AC%EC%84%9C%EA%B5%AC-%EB%8F%84%EC%9B%90%EB%8F%99/", "workingTime": ["-", "09:00~21:00", "09:00~21:00", "09:00~21:00", "09:00~21:00", "09:00~21:00", "09:00~19:00", "-"]}, {"name": "\uc9c0\ud61c\uc57d\uad6d", "lat": "35.80730284319766", "lng": "128.53547072670838", "url": "/info/%EC%A7%80%ED%98%9C%EC%95%BD%EA%B5%AD-%EB%8C%80%EA%B5%AC%EA%B4%91%EC%97%AD%EC%8B%9C-%EB%8B%AC%EC%84%9C%EA%B5%AC-%EB%8F%84%EC%9B%90%EB%8F%99/", "workingTime": ["-", "08:30~18:30", "08:30~18:30", "08:30~18:30", "08:30~18:30", "08:30~18:30", "08:30~13:00", "-"]}, {"name": "\uc911\uc559\uc57d\uad6d", "lat": "35.8071686823428", "lng": "128.53637971598806", "url": "/info/%EC%A4%91%EC%95%99%EC%95%BD%EA%B5%AD-%EB%8C%80%EA%B5%AC%EA%B4%91%EC%97%AD%EC%8B%9C-%EB%8B%AC%EC%84%9C%EA%B5%AC-%EB%8F%84%EC%9B%90%EB%8F%99/", "workingTime": ["-", "09:00~20:00", "09:00~20:00", "09:00~20:00", "09:00~20:00", "09:00~20:00", "09:00~18:00", "-"]}, {"name": "\ub354\uc870\uc740\uc57d\uad6d", "lat": "35.8073112351398", "lng": "128.534063508172", "url": "/info/%EB%8D%94%EC%A1%B0%EC%9D%80%EC%95%BD%EA%B5%AD-%EB%8C%80%EA%B5%AC%EA%B4%91%EC%97%AD%EC%8B%9C-%EB%8B%AC%EC%84%9C%EA%B5%AC-%EB%8F%84%EC%9B%90%EB%8F%99/", "workingTime": ["-", "09:00~18:00", "09:00~18:00", "09:00~18:00", "09:00~18:00", "09:00~18:00", "09:00~13:00", "-"]}, {"name": "\ucd08\ub85d\uc57d\uad6d", "lat": "35.807029108363274", "lng": "128.5360185979652", "url": "/info/%EC%B4%88%EB%A1%9D%EC%95%BD%EA%B5%AD-%EB%8C%80%EA%B5%AC%EA%B4%91%EC%97%AD%EC%8B%9C-%EB%8B%AC%EC%84%9C%EA%B5%AC-%EB%8F%84%EC%9B%90%EB%8F%99/", "workingTime": ["1,2,3,4,5\uc9f8\uc8fc10:00~13:00", "08:30~19:00", "08:30~19:00", "08:30~19:00", "08:30~19:00", "08:30~19:00", "08:30~15:00", "-"]}, {"name": "\uc720\uacf5\uc57d\uad6d", "lat": "35.805396334955994", "lng": "128.55069363529466", "url": "/info/%EC%9C%A0%EA%B3%B5%EC%95%BD%EA%B5%AD-%EB%8C%80%EA%B5%AC%EA%B4%91%EC%97%AD%EC%8B%9C-%EB%8B%AC%EC%84%9C%EA%B5%AC-%EB%8F%84%EC%9B%90%EB%8F%99/", "workingTime": ["-", "09:00~18:00", "09:00~18:00", "09:00~18:00", "09:00~18:00", "09:00~18:00", "-", "-"]}, {"name": "\uc218\uc815\uc57d\uad6d", "lat": "35.80743427656248", "lng": "128.5470957883742", "url": "/info/%EC%88%98%EC%A0%95%EC%95%BD%EA%B5%AD-%EB%8C%80%EA%B5%AC%EA%B4%91%EC%97%AD%EC%8B%9C-%EB%8B%AC%EC%84%9C%EA%B5%AC-%EB%8F%84%EC%9B%90%EB%8F%99/", "workingTime": ["-", "09:00~19:00", "09:00~19:00", "09:00~19:00", "09:00~19:00", "09:00~19:00", "09:00~14:00", "-"]}, {"name": "\uac15\ub0a8\uc57d\uad6d", "lat": "35.80804301008517", "lng": "128.53546389580344", "url": "/info/%EA%B0%95%EB%82%A8%EC%95%BD%EA%B5%AD-%EB%8C%80%EA%B5%AC%EA%B4%91%EC%97%AD%EC%8B%9C-%EB%8B%AC%EC%84%9C%EA%B5%AC-%EB%8F%84%EC%9B%90%EB%8F%99/", "workingTime": ["-", "09:00~21:00", "09:00~21:00", "09:00~21:00", "09:00~21:00", "09:00~21:00", "09:00~19:00", "-"]}, {"name": "\ub300\uace1\uac15\uc0b0\uc57d\uad6d", "lat": "35.80730885568496", "lng": "128.53386895484962", "url": "/info/%EB%8C%80%EA%B3%A1%EA%B0%95%EC%82%B0%EC%95%BD%EA%B5%AD-%EB%8C%80%EA%B5%AC%EA%B4%91%EC%97%AD%EC%8B%9C-%EB%8B%AC%EC%84%9C%EA%B5%AC-%EB%8F%84%EC%9B%90%EB%8F%99/", "workingTime": ["-", "09:00~20:00", "09:00~20:00", "09:00~20:00", "09:00~20:00", "09:00~20:00", "09:00~14:00", "-"]}, {"name": "\uc131\uc548\uc57d\uad6d", "lat": "35.807146875843394", "lng": "128.53526417269558", "url": "/info/%EC%84%B1%EC%95%88%EC%95%BD%EA%B5%AD-%EB%8C%80%EA%B5%AC%EA%B4%91%EC%97%AD%EC%8B%9C-%EB%8B%AC%EC%84%9C%EA%B5%AC-%EB%8F%84%EC%9B%90%EB%8F%99/", "workingTime": ["-", "09:00~19:00", "09:00~19:00", "09:00~19:00", "09:00~19:00", "09:00~19:00", "09:00~16:00", "-"]}, {"name": "\ub098\ub77c\uc57d\uad6d", "lat": "35.81336740993421", "lng": "128.54519943050298", "url": "/info/%EB%82%98%EB%9D%BC%EC%95%BD%EA%B5%AD-%EB%8C%80%EA%B5%AC%EA%B4%91%EC%97%AD%EC%8B%9C-%EB%8B%AC%EC%84%9C%EA%B5%AC-%EB%8F%84%EC%9B%90%EB%8F%99/", "workingTime": ["-", "09:00~19:00", "09:00~19:00", "09:00~19:00", "09:00~19:00", "09:00~19:00", "09:00~14:00", "09:00~14:00"]}]