[{"name": "\uc720\ucc3d\uc57d\uad6d", "lat": "35.85698460213206", "lng": "128.4996712224276", "url": "/info/%EC%9C%A0%EC%B0%BD%EC%95%BD%EA%B5%AD-%EB%8C%80%EA%B5%AC%EA%B4%91%EC%97%AD%EC%8B%9C-%EB%8B%AC%EC%84%9C%EA%B5%AC-%EC%8B%A0%EB%8B%B9%EB%8F%99/", "workingTime": ["-", "08:30~19:00", "08:30~19:00", "08:30~19:00", "08:30~19:00", "08:30~19:00", "08:30~16:00", "-"]}, {"name": "\ub300\uc6b0\ub2f9\uc57d\uad6d", "lat": "35.85568514522377", "lng": "128.4995980377953", "url": "/info/%EB%8C%80%EC%9A%B0%EB%8B%B9%EC%95%BD%EA%B5%AD-%EB%8C%80%EA%B5%AC%EA%B4%91%EC%97%AD%EC%8B%9C-%EB%8B%AC%EC%84%9C%EA%B5%AC-%EC%8B%A0%EB%8B%B9%EB%8F%99/", "workingTime": ["-", "09:00~21:30", "09:00~21:30", "09:00~21:30", "09:00~21:30", "09:00~21:30", "09:00~21:30", "09:00~18:00"]}, {"name": "\ub298\ud478\ub978\uc57d\uad6d", "lat": "35.85330654269427", "lng": "128.4987611574038", "url": "/info/%EB%8A%98%ED%91%B8%EB%A5%B8%EC%95%BD%EA%B5%AD-%EB%8C%80%EA%B5%AC%EA%B4%91%EC%97%AD%EC%8B%9C-%EB%8B%AC%EC%84%9C%EA%B5%AC-%EC%8B%A0%EB%8B%B9%EB%8F%99/", "workingTime": ["-", "09:00~18:30", "09:00~18:30", "09:00~18:30", "09:00~13:00", "09:00~18:30", "09:00~13:00", "09:00~13:00"]}, {"name": "\uc131\uc11c\uc57d\uad6d", "lat": "35.85111798901565", "lng": "128.49388067892238", "url": "/info/%EC%84%B1%EC%84%9C%EC%95%BD%EA%B5%AD-%EB%8C%80%EA%B5%AC%EA%B4%91%EC%97%AD%EC%8B%9C-%EB%8B%AC%EC%84%9C%EA%B5%AC-%EC%8B%A0%EB%8B%B9%EB%8F%99/", "workingTime": ["-", "09:00~18:30", "09:00~18:30", "09:00~18:30", "09:00~18:30", "09:00~18:30", "09:00~13:30", "-"]}, {"name": "\uc774\ub808\uc57d\uad6d", "lat": "35.85572230180932", "lng": "128.4975586084648", "url": "/info/%EC%9D%B4%EB%A0%88%EC%95%BD%EA%B5%AD-%EB%8C%80%EA%B5%AC%EA%B4%91%EC%97%AD%EC%8B%9C-%EB%8B%AC%EC%84%9C%EA%B5%AC-%EC%8B%A0%EB%8B%B9%EB%8F%99/", "workingTime": ["1,2,3,4,5\uc9f8\uc8fc14:00~19:00", "09:00~19:30", "09:00~19:30", "09:00~19:30", "09:00~19:30", "09:00~19:30", "09:00~17:00", "09:00~17:00"]}, {"name": "\ud648\ud50c\ub7ec\uc2a4\uc57d\uad6d", "lat": "35.853835530570926", "lng": "128.49956098585835", "url": "/info/%ED%99%88%ED%94%8C%EB%9F%AC%EC%8A%A4%EC%95%BD%EA%B5%AD-%EB%8C%80%EA%B5%AC%EA%B4%91%EC%97%AD%EC%8B%9C-%EB%8B%AC%EC%84%9C%EA%B5%AC-%EC%8B%A0%EB%8B%B9%EB%8F%99/", "workingTime": ["-", "09:00~19:00", "09:00~19:00", "09:00~19:00", "09:00~19:00", "09:00~19:00", "-", "-"]}]