[{"name": "\uc8fd\uc804\uc57d\uc190\uc57d\uad6d", "lat": "35.8433287643154", "lng": "128.535814561949", "url": "/info/%EC%A3%BD%EC%A0%84%EC%95%BD%EC%86%90%EC%95%BD%EA%B5%AD-%EB%8C%80%EA%B5%AC%EA%B4%91%EC%97%AD%EC%8B%9C-%EB%8B%AC%EC%84%9C%EA%B5%AC-%EC%9E%A5%EA%B8%B0%EB%8F%99/", "workingTime": ["-", "09:00~18:00", "09:00~18:00", "09:00~18:00", "09:00~18:00", "09:00~18:00", "-", "-"]}, {"name": "\uc7a5\uae30\ucc38\uc88b\uc740\uc57d\uad6d", "lat": "35.843846346676244", "lng": "128.53091758790043", "url": "/info/%EC%9E%A5%EA%B8%B0%EC%B0%B8%EC%A2%8B%EC%9D%80%EC%95%BD%EA%B5%AD-%EB%8C%80%EA%B5%AC%EA%B4%91%EC%97%AD%EC%8B%9C-%EB%8B%AC%EC%84%9C%EA%B5%AC-%EC%9E%A5%EA%B8%B0%EB%8F%99/", "workingTime": ["-", "09:00~19:00", "09:00~19:00", "09:00~19:00", "09:00~19:00", "09:00~19:00", "09:00~13:00", "-"]}, {"name": "\uc0bc\uc77c\uc57d\uad6d", "lat": "35.843704624649774", "lng": "128.53333764037308", "url": "/info/%EC%82%BC%EC%9D%BC%EC%95%BD%EA%B5%AD-%EB%8C%80%EA%B5%AC%EA%B4%91%EC%97%AD%EC%8B%9C-%EB%8B%AC%EC%84%9C%EA%B5%AC-%EC%9E%A5%EA%B8%B0%EB%8F%99/", "workingTime": ["1,2,3,4,5\uc9f8\uc8fc11:30~21:00", "09:00~22:00", "09:00~22:00", "09:00~22:00", "09:00~22:00", "09:00~22:00", "09:00~21:00", "09:00~21:00"]}, {"name": "\uc7a5\uae30\ucc38\uc0ac\ub791\uc57d\uad6d", "lat": "35.847144000326246", "lng": "128.52763392074843", "url": "/info/%EC%9E%A5%EA%B8%B0%EC%B0%B8%EC%82%AC%EB%9E%91%EC%95%BD%EA%B5%AD-%EB%8C%80%EA%B5%AC%EA%B4%91%EC%97%AD%EC%8B%9C-%EB%8B%AC%EC%84%9C%EA%B5%AC-%EC%9E%A5%EA%B8%B0%EB%8F%99/", "workingTime": ["-", "09:00~19:00", "09:00~19:00", "09:00~19:00", "09:00~19:00", "09:00~19:00", "09:00~14:00", "-"]}, {"name": "\uc81c\uc774\uc57d\uad6d", "lat": "35.84334139463802", "lng": "128.53125480673023", "url": "/info/%EC%A0%9C%EC%9D%B4%EC%95%BD%EA%B5%AD-%EB%8C%80%EA%B5%AC%EA%B4%91%EC%97%AD%EC%8B%9C-%EB%8B%AC%EC%84%9C%EA%B5%AC-%EC%9E%A5%EA%B8%B0%EB%8F%99/", "workingTime": ["-", "09:00~19:00", "09:00~19:00", "09:00~19:00", "09:00~19:00", "09:00~19:00", "09:00~13:00", "-"]}, {"name": "\uc7a5\uae30\uc6b0\ub9ac\uc57d\uad6d", "lat": "35.848103540195765", "lng": "128.5280031990684", "url": "/info/%EC%9E%A5%EA%B8%B0%EC%9A%B0%EB%A6%AC%EC%95%BD%EA%B5%AD-%EB%8C%80%EA%B5%AC%EA%B4%91%EC%97%AD%EC%8B%9C-%EB%8B%AC%EC%84%9C%EA%B5%AC-%EC%9E%A5%EA%B8%B0%EB%8F%99/", "workingTime": ["-", "09:00~19:00", "09:00~19:00", "09:00~19:00", "09:00~19:00", "09:00~19:00", "09:00~14:00", "-"]}, {"name": "\ub4dc\ub9bc\uc2dc\ud2f0\uc57d\uad6d", "lat": "35.843688653322104", "lng": "128.5337052499394", "url": "/info/%EB%93%9C%EB%A6%BC%EC%8B%9C%ED%8B%B0%EC%95%BD%EA%B5%AD-%EB%8C%80%EA%B5%AC%EA%B4%91%EC%97%AD%EC%8B%9C-%EB%8B%AC%EC%84%9C%EA%B5%AC-%EC%9E%A5%EA%B8%B0%EB%8F%99/", "workingTime": ["-", "09:00~20:00", "09:00~20:00", "09:00~20:00", "09:00~20:00", "09:00~20:00", "09:00~16:00", "09:00~17:00"]}, {"name": "\ud55c\ub204\ub9ac\uc57d\uad6d", "lat": "35.8433543206", "lng": "128.5310586532", "url": "/info/%ED%95%9C%EB%88%84%EB%A6%AC%EC%95%BD%EA%B5%AD-%EB%8C%80%EA%B5%AC%EA%B4%91%EC%97%AD%EC%8B%9C-%EB%8B%AC%EC%84%9C%EA%B5%AC-%EC%9E%A5%EA%B8%B0%EB%8F%99/", "workingTime": ["-", "09:00~17:00", "09:00~17:00", "09:00~17:00", "09:00~17:00", "09:00~17:00", "09:00~20:00", "-"]}]