[{"name": "\ub3d9\ub300\uad6c\uacbd\ubd81\uc57d\uad6d", "lat": "35.88227892012147", "lng": "128.60946834028647", "url": "/info/%EB%8F%99%EB%8C%80%EA%B5%AC%EA%B2%BD%EB%B6%81%EC%95%BD%EA%B5%AD-%EB%8C%80%EA%B5%AC%EA%B4%91%EC%97%AD%EC%8B%9C-%EB%B6%81%EA%B5%AC-%EB%8C%80%ED%98%84%EB%8F%99/", "workingTime": ["-", "09:00~18:30", "09:00~18:30", "09:00~18:30", "09:00~18:30", "09:00~18:30", "09:00~13:00", "09:00~13:00"]}, {"name": "\ub2e4\uc774\uc628\uc57d\uad6d", "lat": "35.8823476741978", "lng": "128.60926856254284", "url": "/info/%EB%8B%A4%EC%9D%B4%EC%98%A8%EC%95%BD%EA%B5%AD-%EB%8C%80%EA%B5%AC%EA%B4%91%EC%97%AD%EC%8B%9C-%EB%B6%81%EA%B5%AC-%EB%8C%80%ED%98%84%EB%8F%99/", "workingTime": ["1\uc9f8\uc8fc09:00~19:00", "09:00~20:00", "09:00~20:00", "09:00~20:00", "09:00~20:00", "09:00~20:00", "09:00~19:00", "-"]}, {"name": "\ub300\ud604\uc0ac\ub791\uc57d\uad6d", "lat": "35.8810508463045", "lng": "128.60858199625358", "url": "/info/%EB%8C%80%ED%98%84%EC%82%AC%EB%9E%91%EC%95%BD%EA%B5%AD-%EB%8C%80%EA%B5%AC%EA%B4%91%EC%97%AD%EC%8B%9C-%EB%B6%81%EA%B5%AC-%EB%8C%80%ED%98%84%EB%8F%99/", "workingTime": ["1,2,3,4,5\uc9f8\uc8fc09:00~13:00", "08:30~20:00", "08:30~20:00", "08:30~20:00", "08:30~20:00", "08:30~20:00", "08:30~17:00", "-"]}, {"name": "\uac15\ub0a8\ub2f9\uc57d\uad6d", "lat": "35.87990803930106", "lng": "128.6104766919152", "url": "/info/%EA%B0%95%EB%82%A8%EB%8B%B9%EC%95%BD%EA%B5%AD-%EB%8C%80%EA%B5%AC%EA%B4%91%EC%97%AD%EC%8B%9C-%EB%B6%81%EA%B5%AC-%EB%8C%80%ED%98%84%EB%8F%99/", "workingTime": ["-", "09:00~19:00", "09:00~19:00", "09:00~19:00", "09:00~19:00", "09:00~19:00", "09:00~14:00", "-"]}, {"name": "\uc138\ubcf5\uc635\ud2f0\ub9c8\uc57d\uad6d", "lat": "35.88174372347084", "lng": "128.60771459477277", "url": "/info/%EC%84%B8%EB%B3%B5%EC%98%B5%ED%8B%B0%EB%A7%88%EC%95%BD%EA%B5%AD-%EB%8C%80%EA%B5%AC%EA%B4%91%EC%97%AD%EC%8B%9C-%EB%B6%81%EA%B5%AC-%EB%8C%80%ED%98%84%EB%8F%99/", "workingTime": ["-", "09:00~18:00", "09:00~18:00", "09:00~18:00", "09:00~18:00", "09:00~18:00", "09:00~13:00", "-"]}, {"name": "\uc18c\uc740\uc57d\uad6d", "lat": "35.88015765454693", "lng": "128.61014070298924", "url": "/info/%EC%86%8C%EC%9D%80%EC%95%BD%EA%B5%AD-%EB%8C%80%EA%B5%AC%EA%B4%91%EC%97%AD%EC%8B%9C-%EB%B6%81%EA%B5%AC-%EB%8C%80%ED%98%84%EB%8F%99/", "workingTime": ["-", "09:00~18:40", "09:00~18:40", "09:00~18:40", "09:00~18:40", "09:00~18:40", "09:00~13:00", "-"]}, {"name": "\ub3d9\ub300\uad6c\uc57d\uad6d", "lat": "35.88271189601767", "lng": "128.60923459966207", "url": "/info/%EB%8F%99%EB%8C%80%EA%B5%AC%EC%95%BD%EA%B5%AD-%EB%8C%80%EA%B5%AC%EA%B4%91%EC%97%AD%EC%8B%9C-%EB%B6%81%EA%B5%AC-%EB%8C%80%ED%98%84%EB%8F%99/", "workingTime": ["-", "09:00~21:00", "09:00~21:00", "09:00~21:00", "09:00~21:00", "09:00~21:00", "09:00~21:00", "09:00~21:00"]}]