[{"name": "\uc870\uc740\uc57d\uad6d", "lat": "35.888009017609924", "lng": "128.57481034381337", "url": "/info/%EC%A1%B0%EC%9D%80%EC%95%BD%EA%B5%AD-%EB%8C%80%EA%B5%AC%EA%B4%91%EC%97%AD%EC%8B%9C-%EB%B6%81%EA%B5%AC-%EB%85%B8%EC%9B%90%EB%8F%992%EA%B0%80/", "workingTime": ["1,2,3,4,5\uc9f8\uc8fc10:00~14:00", "09:00~19:00", "09:00~19:00", "09:00~19:00", "09:00~19:00", "09:00~19:00", "09:00~14:00", "10:00~14:00"]}, {"name": "\uc635\ud2f0\ub9c8\uc18c\ub9dd\uc57d\uad6d", "lat": "35.888199749234", "lng": "128.573729615929", "url": "/info/%EC%98%B5%ED%8B%B0%EB%A7%88%EC%86%8C%EB%A7%9D%EC%95%BD%EA%B5%AD-%EB%8C%80%EA%B5%AC%EA%B4%91%EC%97%AD%EC%8B%9C-%EB%B6%81%EA%B5%AC-%EB%85%B8%EC%9B%90%EB%8F%992%EA%B0%80/", "workingTime": ["-", "09:00~19:30", "09:00~19:30", "09:00~19:30", "09:00~19:30", "09:00~19:30", "09:00~15:30", "-"]}, {"name": "\uba54\ub514\ud31c\uc6d0\ub300\uc57d\uad6d", "lat": "35.8882484876", "lng": "128.5740881605", "url": "/info/%EB%A9%94%EB%94%94%ED%8C%9C%EC%9B%90%EB%8C%80%EC%95%BD%EA%B5%AD-%EB%8C%80%EA%B5%AC%EA%B4%91%EC%97%AD%EC%8B%9C-%EB%B6%81%EA%B5%AC-%EB%85%B8%EC%9B%90%EB%8F%992%EA%B0%80/", "workingTime": ["-", "09:00~19:00", "09:00~19:00", "09:00~19:00", "09:00~19:00", "09:00~19:00", "09:00~14:00", "-"]}, {"name": "\ud615\uc6b0\ub2f9\uc57d\uad6d", "lat": "35.88858017741944", "lng": "128.57070940166932", "url": "/info/%ED%98%95%EC%9A%B0%EB%8B%B9%EC%95%BD%EA%B5%AD-%EB%8C%80%EA%B5%AC%EA%B4%91%EC%97%AD%EC%8B%9C-%EB%B6%81%EA%B5%AC-%EB%85%B8%EC%9B%90%EB%8F%992%EA%B0%80/", "workingTime": ["1,2,3,4,5\uc9f8\uc8fc09:00~23:00", "08:30~22:30", "08:30~22:30", "08:30~22:30", "08:30~22:30", "08:30~22:30", "08:30~23:00", "09:00~22:30"]}, {"name": "\ubc31\uc57d\uad6d", "lat": "35.88793952930855", "lng": "128.57531348687553", "url": "/info/%EB%B0%B1%EC%95%BD%EA%B5%AD-%EB%8C%80%EA%B5%AC%EA%B4%91%EC%97%AD%EC%8B%9C-%EB%B6%81%EA%B5%AC-%EB%85%B8%EC%9B%90%EB%8F%992%EA%B0%80/", "workingTime": ["1,2,3,4,5\uc9f8\uc8fc09:00~13:00", "09:00~19:00", "09:00~19:00", "09:00~19:00", "09:00~19:00", "09:00~19:00", "09:00~15:00", "-"]}, {"name": "\ub3d9\ucc3d\uc57d\uad6d", "lat": "35.88828738100177", "lng": "128.57270026472366", "url": "/info/%EB%8F%99%EC%B0%BD%EC%95%BD%EA%B5%AD-%EB%8C%80%EA%B5%AC%EA%B4%91%EC%97%AD%EC%8B%9C-%EB%B6%81%EA%B5%AC-%EB%85%B8%EC%9B%90%EB%8F%992%EA%B0%80/", "workingTime": ["-", "08:30~20:00", "08:30~20:00", "08:30~20:00", "08:30~20:00", "08:30~20:00", "08:30~18:00", "08:30~20:00"]}]