[{"name": "\ud589\ubcf5\ud55c\uc57d\uad6d", "lat": "35.69524918329999", "lng": "128.4444828381001", "url": "/info/%ED%96%89%EB%B3%B5%ED%95%9C%EC%95%BD%EA%B5%AD-%EB%8C%80%EA%B5%AC%EA%B4%91%EC%97%AD%EC%8B%9C-%EB%8B%AC%EC%84%B1%EA%B5%B0-%ED%98%84%ED%92%8D%EC%9D%8D/", "workingTime": ["-", "08:30~18:00", "08:30~18:00", "08:30~18:00", "08:30~18:00", "08:30~18:00", "08:30~13:00", "-"]}, {"name": "\uc2dc\uc7a5\uc57d\uad6d", "lat": "35.69443855475163", "lng": "128.44295313209003", "url": "/info/%EC%8B%9C%EC%9E%A5%EC%95%BD%EA%B5%AD-%EB%8C%80%EA%B5%AC%EA%B4%91%EC%97%AD%EC%8B%9C-%EB%8B%AC%EC%84%B1%EA%B5%B0-%ED%98%84%ED%92%8D%EC%9D%8D/", "workingTime": ["-", "09:00~19:00", "09:00~19:00", "09:00~19:00", "09:00~19:00", "09:00~19:00", "09:00~13:00", "-"]}, {"name": "\uac70\ubd81\uc774\uc57d\uad6d", "lat": "35.6895594183135", "lng": "128.453691794522", "url": "/info/%EA%B1%B0%EB%B6%81%EC%9D%B4%EC%95%BD%EA%B5%AD-%EB%8C%80%EA%B5%AC%EA%B4%91%EC%97%AD%EC%8B%9C-%EB%8B%AC%EC%84%B1%EA%B5%B0-%ED%98%84%ED%92%8D%EC%9D%8D/", "workingTime": ["-", "09:00~18:00", "09:00~18:00", "09:00~18:00", "09:00~18:00", "09:00~18:00", "-", "-"]}, {"name": "\ub9c8\uc74c\uc57d\uad6d", "lat": "35.69261662838738", "lng": "128.45474891859766", "url": "/info/%EB%A7%88%EC%9D%8C%EC%95%BD%EA%B5%AD-%EB%8C%80%EA%B5%AC%EA%B4%91%EC%97%AD%EC%8B%9C-%EB%8B%AC%EC%84%B1%EA%B5%B0-%ED%98%84%ED%92%8D%EC%9D%8D/", "workingTime": ["-", "09:00~20:00", "09:00~20:00", "09:00~18:00", "09:00~20:00", "09:00~20:00", "09:00~13:00", "09:00~13:00"]}, {"name": "\uc5e0\ud5c8\ube0c\uc57d\uad6d", "lat": "35.6917115799", "lng": "128.453875237", "url": "/info/%EC%97%A0%ED%97%88%EB%B8%8C%EC%95%BD%EA%B5%AD-%EB%8C%80%EA%B5%AC%EA%B4%91%EC%97%AD%EC%8B%9C-%EB%8B%AC%EC%84%B1%EA%B5%B0-%ED%98%84%ED%92%8D%EC%9D%8D/", "workingTime": ["1,2,3,4,5\uc9f8\uc8fc09:00~13:00", "09:00~20:00", "09:00~20:00", "09:00~20:00", "09:00~20:00", "09:00~20:00", "09:00~16:00", "09:00~16:00"]}, {"name": "\ud55c\uc194\uc57d\uad6d", "lat": "35.693750364421795", "lng": "128.44569421865987", "url": "/info/%ED%95%9C%EC%86%94%EC%95%BD%EA%B5%AD-%EB%8C%80%EA%B5%AC%EA%B4%91%EC%97%AD%EC%8B%9C-%EB%8B%AC%EC%84%B1%EA%B5%B0-%ED%98%84%ED%92%8D%EC%9D%8D/", "workingTime": ["1,2,3,4,5\uc9f8\uc8fc10:00~17:00", "08:30~19:30", "08:30~19:30", "08:30~19:30", "08:30~19:30", "08:30~19:30", "08:30~18:00", "10:00~17:00"]}, {"name": "\ud0c0\uc6cc\uc57d\uad6d", "lat": "35.6930978167", "lng": "128.45579609", "url": "/info/%ED%83%80%EC%9B%8C%EC%95%BD%EA%B5%AD-%EB%8C%80%EA%B5%AC%EA%B4%91%EC%97%AD%EC%8B%9C-%EB%8B%AC%EC%84%B1%EA%B5%B0-%ED%98%84%ED%92%8D%EC%9D%8D/", "workingTime": ["-", "09:00~19:00", "09:00~19:00", "09:00~19:00", "09:00~19:00", "09:00~19:00", "09:00~13:00", "-"]}, {"name": "\ub9c8\ub514\uc57d\uad6d", "lat": "35.695232322", "lng": "128.4452867887", "url": "/info/%EB%A7%88%EB%94%94%EC%95%BD%EA%B5%AD-%EB%8C%80%EA%B5%AC%EA%B4%91%EC%97%AD%EC%8B%9C-%EB%8B%AC%EC%84%B1%EA%B5%B0-%ED%98%84%ED%92%8D%EC%9D%8D/", "workingTime": ["-", "09:00~19:00", "09:00~19:00", "09:00~19:00", "09:00~19:00", "09:00~19:00", "09:00~14:00", "-"]}, {"name": "\uac74\uac15\uc57d\uad6d", "lat": "35.69358074942984", "lng": "128.4453365248431", "url": "/info/%EA%B1%B4%EA%B0%95%EC%95%BD%EA%B5%AD-%EB%8C%80%EA%B5%AC%EA%B4%91%EC%97%AD%EC%8B%9C-%EB%8B%AC%EC%84%B1%EA%B5%B0-%ED%98%84%ED%92%8D%EC%9D%8D/", "workingTime": ["-", "09:00~19:00", "09:00~19:00", "09:00~13:00", "09:00~19:00", "09:00~19:00", "09:00~13:00", "-"]}, {"name": "\uc911\uc559\uc628\ub204\ub9ac\uc57d\uad6d", "lat": "35.69097247303822", "lng": "128.4535878595083", "url": "/info/%EC%A4%91%EC%95%99%EC%98%A8%EB%88%84%EB%A6%AC%EC%95%BD%EA%B5%AD-%EB%8C%80%EA%B5%AC%EA%B4%91%EC%97%AD%EC%8B%9C-%EB%8B%AC%EC%84%B1%EA%B5%B0-%ED%98%84%ED%92%8D%EC%9D%8D/", "workingTime": ["-", "09:00~16:00", "09:00~16:00", "09:00~16:00", "09:00~16:00", "09:00~16:00", "09:00~16:00", "09:00~13:00"]}]