[{"name": "\ud0dc\uadf9\uc57d\uad6d", "lat": "35.826485192259035", "lng": "128.54551801622358", "url": "/info/%ED%83%9C%EA%B7%B9%EC%95%BD%EA%B5%AD-%EB%8C%80%EA%B5%AC%EA%B4%91%EC%97%AD%EC%8B%9C-%EB%8B%AC%EC%84%9C%EA%B5%AC-%EB%B3%B8%EB%8F%99/", "workingTime": ["-", "09:00~19:00", "09:00~19:00", "09:00~19:00", "09:00~19:00", "09:00~19:00", "09:00~15:00", "-"]}, {"name": "\uc0c8\uacbd\uc77c\uc628\ub204\ub9ac\uc57d\uad6d", "lat": "35.833834417474776", "lng": "128.5404167668545", "url": "/info/%EC%83%88%EA%B2%BD%EC%9D%BC%EC%98%A8%EB%88%84%EB%A6%AC%EC%95%BD%EA%B5%AD-%EB%8C%80%EA%B5%AC%EA%B4%91%EC%97%AD%EC%8B%9C-%EB%8B%AC%EC%84%9C%EA%B5%AC-%EB%B3%B8%EB%8F%99/", "workingTime": ["-", "09:00~18:00", "09:00~18:00", "09:00~18:00", "09:00~18:00", "09:00~18:00", "09:00~13:00", "09:00~13:00"]}, {"name": "\ud569\ub3d9\uc57d\uad6d", "lat": "35.83435911403467", "lng": "128.53687676460967", "url": "/info/%ED%95%A9%EB%8F%99%EC%95%BD%EA%B5%AD-%EB%8C%80%EA%B5%AC%EA%B4%91%EC%97%AD%EC%8B%9C-%EB%8B%AC%EC%84%9C%EA%B5%AC-%EB%B3%B8%EB%8F%99/", "workingTime": ["-", "09:00~18:00", "09:00~18:00", "09:00~18:00", "09:00~18:00", "09:00~18:00", "09:00~15:00", "-"]}, {"name": "\ud478\ub978\uc57d\uad6d", "lat": "35.82713062609651", "lng": "128.5437308963151", "url": "/info/%ED%91%B8%EB%A5%B8%EC%95%BD%EA%B5%AD-%EB%8C%80%EA%B5%AC%EA%B4%91%EC%97%AD%EC%8B%9C-%EB%8B%AC%EC%84%9C%EA%B5%AC-%EB%B3%B8%EB%8F%99/", "workingTime": ["-", "09:00~19:00", "09:00~19:00", "09:00~19:00", "09:00~19:00", "09:00~19:00", "09:00~15:00", "-"]}, {"name": "\uba85\ubb38\uc57d\uad6d", "lat": "35.83690955305529", "lng": "128.54122871030643", "url": "/info/%EB%AA%85%EB%AC%B8%EC%95%BD%EA%B5%AD-%EB%8C%80%EA%B5%AC%EA%B4%91%EC%97%AD%EC%8B%9C-%EB%8B%AC%EC%84%9C%EA%B5%AC-%EB%B3%B8%EB%8F%99/", "workingTime": ["-", "09:00~18:00", "09:00~18:00", "09:00~18:00", "09:00~18:00", "09:00~18:00", "09:00~13:30", "-"]}, {"name": "\ubcf4\ub78c\uc57d\uad6d", "lat": "35.836578941156254", "lng": "128.5373062989973", "url": "/info/%EB%B3%B4%EB%9E%8C%EC%95%BD%EA%B5%AD-%EB%8C%80%EA%B5%AC%EA%B4%91%EC%97%AD%EC%8B%9C-%EB%8B%AC%EC%84%9C%EA%B5%AC-%EB%B3%B8%EB%8F%99/", "workingTime": ["-", "09:00~17:30", "09:00~17:30", "09:00~17:30", "09:00~17:30", "09:00~17:30", "09:00~12:30", "-"]}, {"name": "\ub298\ud3b8\ud55c\uc57d\uad6d", "lat": "35.8342024704239", "lng": "128.5307871735656", "url": "/info/%EB%8A%98%ED%8E%B8%ED%95%9C%EC%95%BD%EA%B5%AD-%EB%8C%80%EA%B5%AC%EA%B4%91%EC%97%AD%EC%8B%9C-%EB%8B%AC%EC%84%9C%EA%B5%AC-%EB%B3%B8%EB%8F%99/", "workingTime": ["-", "08:30~20:30", "08:30~20:30", "08:30~20:30", "08:30~20:30", "08:30~20:30", "08:30~13:00", "-"]}, {"name": "\uc7a5\uc218\uc57d\uad6d", "lat": "35.83687622043972", "lng": "128.54700333619047", "url": "/info/%EC%9E%A5%EC%88%98%EC%95%BD%EA%B5%AD-%EB%8C%80%EA%B5%AC%EA%B4%91%EC%97%AD%EC%8B%9C-%EB%8B%AC%EC%84%9C%EA%B5%AC-%EB%B3%B8%EB%8F%99/", "workingTime": ["-", "09:00~18:30", "09:00~18:30", "09:00~18:30", "09:00~18:30", "09:00~18:30", "09:00~13:00", "-"]}, {"name": "\uc870\uc740\uc57d\uad6d", "lat": "35.83566467084819", "lng": "128.5320192960201", "url": "/info/%EC%A1%B0%EC%9D%80%EC%95%BD%EA%B5%AD-%EB%8C%80%EA%B5%AC%EA%B4%91%EC%97%AD%EC%8B%9C-%EB%8B%AC%EC%84%9C%EA%B5%AC-%EB%B3%B8%EB%8F%99/", "workingTime": ["-", "09:00~19:00", "09:00~19:00", "09:00~19:00", "09:00~19:00", "09:00~19:00", "09:00~19:00", "-"]}]