[{"name": "\uac15\ucc3d\uc5ed\uc57d\uad6d", "lat": "35.8530784098405", "lng": "128.478343767188", "url": "/info/%EA%B0%95%EC%B0%BD%EC%97%AD%EC%95%BD%EA%B5%AD-%EB%8C%80%EA%B5%AC%EA%B4%91%EC%97%AD%EC%8B%9C-%EB%8B%AC%EC%84%9C%EA%B5%AC-%ED%98%B8%EC%82%B0%EB%8F%99/", "workingTime": ["-", "09:00~18:00", "09:00~18:00", "09:00~18:00", "09:00~18:00", "09:00~18:00", "-", "-"]}, {"name": "\ud3b8\uc548\ud55c\uc57d\uad6d", "lat": "35.8536419525699", "lng": "128.478530344204", "url": "/info/%ED%8E%B8%EC%95%88%ED%95%9C%EC%95%BD%EA%B5%AD-%EB%8C%80%EA%B5%AC%EA%B4%91%EC%97%AD%EC%8B%9C-%EB%8B%AC%EC%84%9C%EA%B5%AC-%ED%98%B8%EC%82%B0%EB%8F%99/", "workingTime": ["-", "09:00~18:00", "09:00~18:00", "09:00~18:00", "09:00~18:00", "09:00~18:00", "-", "-"]}, {"name": "\uc704\ub4dc\ud31c\uc0c8\ub3d9\uc548\uc57d\uad6d", "lat": "35.85342668715958", "lng": "128.47889462311647", "url": "/info/%EC%9C%84%EB%93%9C%ED%8C%9C%EC%83%88%EB%8F%99%EC%95%88%EC%95%BD%EA%B5%AD-%EB%8C%80%EA%B5%AC%EA%B4%91%EC%97%AD%EC%8B%9C-%EB%8B%AC%EC%84%9C%EA%B5%AC-%ED%98%B8%EC%82%B0%EB%8F%99/", "workingTime": ["-", "08:30~18:30", "08:30~18:30", "08:30~18:30", "08:30~18:30", "08:30~18:30", "08:30~13:00", "-"]}, {"name": "\uc5f4\ub9b0\uc815\ubb38\uc57d\uad6d", "lat": "35.85342668715958", "lng": "128.47889462311636", "url": "/info/%EC%97%B4%EB%A6%B0%EC%A0%95%EB%AC%B8%EC%95%BD%EA%B5%AD-%EB%8C%80%EA%B5%AC%EA%B4%91%EC%97%AD%EC%8B%9C-%EB%8B%AC%EC%84%9C%EA%B5%AC-%ED%98%B8%EC%82%B0%EB%8F%99/", "workingTime": ["-", "08:30~18:30", "08:30~18:30", "08:30~18:30", "08:30~18:30", "08:30~18:30", "08:30~13:00", "-"]}, {"name": "\uc131\uc11c\uc218\uc57d\uad6d", "lat": "35.85342668715958", "lng": "128.47889462311636", "url": "/info/%EC%84%B1%EC%84%9C%EC%88%98%EC%95%BD%EA%B5%AD-%EB%8C%80%EA%B5%AC%EA%B4%91%EC%97%AD%EC%8B%9C-%EB%8B%AC%EC%84%9C%EA%B5%AC-%ED%98%B8%EC%82%B0%EB%8F%99/", "workingTime": ["-", "08:30~18:30", "08:30~18:30", "08:30~18:30", "08:30~18:30", "08:30~18:30", "09:00~13:00", "-"]}, {"name": "\uba54\ub514\uce7c\uc911\uc559\uc57d\uad6d", "lat": "35.853365297611724", "lng": "128.47831787849552", "url": "/info/%EB%A9%94%EB%94%94%EC%B9%BC%EC%A4%91%EC%95%99%EC%95%BD%EA%B5%AD-%EB%8C%80%EA%B5%AC%EA%B4%91%EC%97%AD%EC%8B%9C-%EB%8B%AC%EC%84%9C%EA%B5%AC-%ED%98%B8%EC%82%B0%EB%8F%99/", "workingTime": ["1,2,3,4,5\uc9f8\uc8fc10:00~20:00", "09:00~20:00", "09:00~20:00", "09:00~20:00", "09:00~20:00", "09:00~20:00", "09:00~20:00", "10:00~20:00"]}, {"name": "\uacc4\uba85\uc9c0\ud558\ucca0\uc57d\uad6d", "lat": "35.853076610686706", "lng": "128.47834351240488", "url": "/info/%EA%B3%84%EB%AA%85%EC%A7%80%ED%95%98%EC%B2%A0%EC%95%BD%EA%B5%AD-%EB%8C%80%EA%B5%AC%EA%B4%91%EC%97%AD%EC%8B%9C-%EB%8B%AC%EC%84%9C%EA%B5%AC-%ED%98%B8%EC%82%B0%EB%8F%99/", "workingTime": ["-", "08:30~18:30", "08:30~18:30", "08:30~18:30", "08:30~18:30", "08:30~18:30", "08:30~14:00", "-"]}]