[{"name": "\uc774\uc74c\uc57d\uad6d", "lat": "35.8570783251581", "lng": "128.613466983536", "url": "/info/%EC%9D%B4%EC%9D%8C%EC%95%BD%EA%B5%AD-%EB%8C%80%EA%B5%AC%EA%B4%91%EC%97%AD%EC%8B%9C-%EC%88%98%EC%84%B1%EA%B5%AC-%EC%88%98%EC%84%B1%EB%8F%991%EA%B0%80/", "workingTime": ["-", "09:00~18:00", "09:00~18:00", "09:00~18:00", "09:00~18:00", "09:00~18:00", "-", "-"]}, {"name": "\uc138\uc655\uc57d\uad6d", "lat": "35.854347492860235", "lng": "128.61196613799842", "url": "/info/%EC%84%B8%EC%99%95%EC%95%BD%EA%B5%AD-%EB%8C%80%EA%B5%AC%EA%B4%91%EC%97%AD%EC%8B%9C-%EC%88%98%EC%84%B1%EA%B5%AC-%EC%88%98%EC%84%B1%EB%8F%991%EA%B0%80/", "workingTime": ["1,2,3,4,5\uc9f8\uc8fc09:00~21:30", "09:00~21:30", "09:00~21:30", "09:00~21:30", "09:00~21:30", "09:00~21:30", "09:00~21:30", "09:00~21:30"]}, {"name": "\ub450\ubc30\uc57d\uad6d", "lat": "35.85489713297406", "lng": "128.613344517028", "url": "/info/%EB%91%90%EB%B0%B0%EC%95%BD%EA%B5%AD-%EB%8C%80%EA%B5%AC%EA%B4%91%EC%97%AD%EC%8B%9C-%EC%88%98%EC%84%B1%EA%B5%AC-%EC%88%98%EC%84%B1%EB%8F%991%EA%B0%80/", "workingTime": ["-", "09:00~18:00", "09:00~18:00", "09:00~18:00", "09:00~18:00", "09:00~18:00", "09:00~12:30", "-"]}, {"name": "\uc131\uc9c0\uc57d\uad6d", "lat": "35.859579249179625", "lng": "128.61265646716151", "url": "/info/%EC%84%B1%EC%A7%80%EC%95%BD%EA%B5%AD-%EB%8C%80%EA%B5%AC%EA%B4%91%EC%97%AD%EC%8B%9C-%EC%88%98%EC%84%B1%EA%B5%AC-%EC%88%98%EC%84%B1%EB%8F%991%EA%B0%80/", "workingTime": ["-", "09:00~20:30", "09:00~20:30", "09:00~20:30", "09:00~20:30", "09:00~20:30", "09:00~16:00", "-"]}, {"name": "\uc601\uad11\uc57d\uad6d", "lat": "35.85951456524608", "lng": "128.61344776159063", "url": "/info/%EC%98%81%EA%B4%91%EC%95%BD%EA%B5%AD-%EB%8C%80%EA%B5%AC%EA%B4%91%EC%97%AD%EC%8B%9C-%EC%88%98%EC%84%B1%EA%B5%AC-%EC%88%98%EC%84%B1%EB%8F%991%EA%B0%80/", "workingTime": ["-", "08:30~19:00", "08:30~19:00", "08:30~19:00", "08:30~19:00", "08:30~19:00", "08:30~17:00", "08:30~13:00"]}, {"name": "\uba54\ub514\ud31c\uc0bc\uc131\uc57d\uad6d", "lat": "35.854834896250615", "lng": "128.61136940300744", "url": "/info/%EB%A9%94%EB%94%94%ED%8C%9C%EC%82%BC%EC%84%B1%EC%95%BD%EA%B5%AD-%EB%8C%80%EA%B5%AC%EA%B4%91%EC%97%AD%EC%8B%9C-%EC%88%98%EC%84%B1%EA%B5%AC-%EC%88%98%EC%84%B1%EB%8F%991%EA%B0%80/", "workingTime": ["-", "09:00~19:00", "09:00~19:00", "09:00~19:00", "09:00~19:00", "09:00~19:00", "09:00~17:00", "09:00~15:00"]}, {"name": "\uad7f\ubaa8\ub2dd\uc57d\uad6d", "lat": "35.85442863312429", "lng": "128.61024672089496", "url": "/info/%EA%B5%BF%EB%AA%A8%EB%8B%9D%EC%95%BD%EA%B5%AD-%EB%8C%80%EA%B5%AC%EA%B4%91%EC%97%AD%EC%8B%9C-%EC%88%98%EC%84%B1%EA%B5%AC-%EC%88%98%EC%84%B1%EB%8F%991%EA%B0%80/", "workingTime": ["-", "09:30~18:30", "09:30~18:30", "09:30~18:30", "09:30~18:30", "09:30~18:30", "09:30~13:00", "-"]}, {"name": "\uc218\uc131\ud558\ub098\uc57d\uad6d", "lat": "35.8565825174198", "lng": "128.60952392593", "url": "/info/%EC%88%98%EC%84%B1%ED%95%98%EB%82%98%EC%95%BD%EA%B5%AD-%EB%8C%80%EA%B5%AC%EA%B4%91%EC%97%AD%EC%8B%9C-%EC%88%98%EC%84%B1%EA%B5%AC-%EC%88%98%EC%84%B1%EB%8F%991%EA%B0%80/", "workingTime": ["-", "09:00~19:00", "09:00~19:00", "09:00~19:00", "09:00~19:00", "09:00~19:00", "09:00~14:00", "-"]}, {"name": "\ud55c\ub9c8\uc74c\uc57d\uad6d", "lat": "35.8543563867567", "lng": "128.61022624457786", "url": "/info/%ED%95%9C%EB%A7%88%EC%9D%8C%EC%95%BD%EA%B5%AD-%EB%8C%80%EA%B5%AC%EA%B4%91%EC%97%AD%EC%8B%9C-%EC%88%98%EC%84%B1%EA%B5%AC-%EC%88%98%EC%84%B1%EB%8F%991%EA%B0%80/", "workingTime": ["-", "09:00~19:00", "09:00~19:00", "09:00~19:00", "09:00~19:00", "09:00~19:00", "09:00~13:00", "-"]}, {"name": "\uc138\uba85\uc57d\uad6d", "lat": "35.855536402536", "lng": "128.613371419499", "url": "/info/%EC%84%B8%EB%AA%85%EC%95%BD%EA%B5%AD-%EB%8C%80%EA%B5%AC%EA%B4%91%EC%97%AD%EC%8B%9C-%EC%88%98%EC%84%B1%EA%B5%AC-%EC%88%98%EC%84%B1%EB%8F%991%EA%B0%80/", "workingTime": ["-", "09:00~19:00", "09:00~19:00", "09:00~19:00", "09:00~19:00", "09:00~19:00", "09:00~15:00", "-"]}, {"name": "\ub2e4\uc815\uc628\ub204\ub9ac\uc57d\uad6d", "lat": "35.859728387301466", "lng": "128.61164909782676", "url": "/info/%EB%8B%A4%EC%A0%95%EC%98%A8%EB%88%84%EB%A6%AC%EC%95%BD%EA%B5%AD-%EB%8C%80%EA%B5%AC%EA%B4%91%EC%97%AD%EC%8B%9C-%EC%88%98%EC%84%B1%EA%B5%AC-%EC%88%98%EC%84%B1%EB%8F%991%EA%B0%80/", "workingTime": ["-", "09:00~19:30", "09:00~19:30", "09:00~19:30", "09:00~19:30", "09:00~19:30", "09:00~15:30", "-"]}, {"name": "\ub3d9\uc131\uc57d\uad6d", "lat": "35.85412134969917", "lng": "128.61377690153017", "url": "/info/%EB%8F%99%EC%84%B1%EC%95%BD%EA%B5%AD-%EB%8C%80%EA%B5%AC%EA%B4%91%EC%97%AD%EC%8B%9C-%EC%88%98%EC%84%B1%EA%B5%AC-%EC%88%98%EC%84%B1%EB%8F%991%EA%B0%80/", "workingTime": ["-", "09:00~18:00", "09:00~18:00", "09:00~18:00", "09:00~18:00", "09:00~18:00", "09:00~13:00", "-"]}]