[{"name": "\uc81c\uc77c\uc57d\uad6d", "lat": "35.8857358055", "lng": "128.6358690525", "url": "/info/%EC%A0%9C%EC%9D%BC%EC%95%BD%EA%B5%AD-%EB%8C%80%EA%B5%AC%EA%B4%91%EC%97%AD%EC%8B%9C-%EB%8F%99%EA%B5%AC-%ED%9A%A8%EB%AA%A9%EB%8F%99/", "workingTime": ["-", "09:00~19:00", "09:00~19:00", "09:00~19:00", "09:00~19:00", "09:00~19:00", "09:00~14:00", "-"]}, {"name": "\uadf8\ub9b0\uc57d\uad6d", "lat": "35.88560630673094", "lng": "128.6346571742826", "url": "/info/%EA%B7%B8%EB%A6%B0%EC%95%BD%EA%B5%AD-%EB%8C%80%EA%B5%AC%EA%B4%91%EC%97%AD%EC%8B%9C-%EB%8F%99%EA%B5%AC-%ED%9A%A8%EB%AA%A9%EB%8F%99/", "workingTime": ["-", "09:00~18:30", "09:00~18:30", "09:00~18:30", "09:00~18:30", "09:00~18:30", "09:00~13:00", "-"]}, {"name": "\ub9dd\uace0\uc57d\uad6d", "lat": "35.8780503650081", "lng": "128.640698914699", "url": "/info/%EB%A7%9D%EA%B3%A0%EC%95%BD%EA%B5%AD-%EB%8C%80%EA%B5%AC%EA%B4%91%EC%97%AD%EC%8B%9C-%EB%8F%99%EA%B5%AC-%ED%9A%A8%EB%AA%A9%EB%8F%99/", "workingTime": ["-", "09:00~19:00", "09:00~19:00", "09:00~19:00", "09:00~19:00", "09:00~19:00", "09:00~12:00", "09:00~16:00"]}, {"name": "\uafc0\uc57d\uad6d", "lat": "35.8770066083367", "lng": "128.639469505011", "url": "/info/%EA%BF%80%EC%95%BD%EA%B5%AD-%EB%8C%80%EA%B5%AC%EA%B4%91%EC%97%AD%EC%8B%9C-%EB%8F%99%EA%B5%AC-%ED%9A%A8%EB%AA%A9%EB%8F%99/", "workingTime": ["-", "09:00~19:00", "09:00~19:00", "09:00~19:00", "09:00~19:00", "09:00~19:00", "09:00~14:00", "-"]}, {"name": "\ub3d9\ubd80\uc720\uc77c\uc57d\uad6d", "lat": "35.872449389329724", "lng": "128.63599039025945", "url": "/info/%EB%8F%99%EB%B6%80%EC%9C%A0%EC%9D%BC%EC%95%BD%EA%B5%AD-%EB%8C%80%EA%B5%AC%EA%B4%91%EC%97%AD%EC%8B%9C-%EB%8F%99%EA%B5%AC-%ED%9A%A8%EB%AA%A9%EB%8F%99/", "workingTime": ["-", "09:00~18:30", "09:00~18:30", "09:00~18:30", "09:00~18:30", "09:00~18:30", "09:00~16:30", "-"]}, {"name": "\uc218\uc815\uc57d\uad6d", "lat": "35.877932434199266", "lng": "128.64552984945982", "url": "/info/%EC%88%98%EC%A0%95%EC%95%BD%EA%B5%AD-%EB%8C%80%EA%B5%AC%EA%B4%91%EC%97%AD%EC%8B%9C-%EB%8F%99%EA%B5%AC-%ED%9A%A8%EB%AA%A9%EB%8F%99/", "workingTime": ["-", "11:00~18:00", "11:00~18:00", "11:00~18:00", "11:00~18:00", "11:00~18:00", "11:00~17:00", "-"]}, {"name": "\uc138\uacbd\uc57d\uad6d", "lat": "35.877239762026406", "lng": "128.63918212720918", "url": "/info/%EC%84%B8%EA%B2%BD%EC%95%BD%EA%B5%AD-%EB%8C%80%EA%B5%AC%EA%B4%91%EC%97%AD%EC%8B%9C-%EB%8F%99%EA%B5%AC-%ED%9A%A8%EB%AA%A9%EB%8F%99/", "workingTime": ["-", "09:00~19:30", "09:00~19:30", "09:00~19:30", "09:00~19:30", "09:00~19:30", "09:00~14:00", "-"]}, {"name": "\ud55c\ub9c8\uc74c\uc57d\uad6d", "lat": "35.873339032794135", "lng": "128.63869873903482", "url": "/info/%ED%95%9C%EB%A7%88%EC%9D%8C%EC%95%BD%EA%B5%AD-%EB%8C%80%EA%B5%AC%EA%B4%91%EC%97%AD%EC%8B%9C-%EB%8F%99%EA%B5%AC-%ED%9A%A8%EB%AA%A9%EB%8F%99/", "workingTime": ["-", "09:00~18:30", "09:00~18:30", "09:00~18:30", "09:00~18:30", "09:00~18:30", "09:00~13:00", "-"]}, {"name": "\ud558\ub098\ub85c\uc57d\uad6d", "lat": "35.88255321303209", "lng": "128.6426512156326", "url": "/info/%ED%95%98%EB%82%98%EB%A1%9C%EC%95%BD%EA%B5%AD-%EB%8C%80%EA%B5%AC%EA%B4%91%EC%97%AD%EC%8B%9C-%EB%8F%99%EA%B5%AC-%ED%9A%A8%EB%AA%A9%EB%8F%99/", "workingTime": ["1,2,3,4,5\uc9f8\uc8fc15:00~19:00", "09:00~21:00", "09:00~21:00", "09:00~21:00", "09:00~21:00", "09:00~21:00", "09:00~20:00", "09:00~21:00"]}, {"name": "\uc644\ucf8c\uc57d\uad6d", "lat": "35.885605338192654", "lng": "128.63497178875207", "url": "/info/%EC%99%84%EC%BE%8C%EC%95%BD%EA%B5%AD-%EB%8C%80%EA%B5%AC%EA%B4%91%EC%97%AD%EC%8B%9C-%EB%8F%99%EA%B5%AC-%ED%9A%A8%EB%AA%A9%EB%8F%99/", "workingTime": ["-", "08:30~17:30", "08:30~17:30", "08:30~17:30", "08:30~17:30", "08:30~17:30", "08:30~13:00", "-"]}, {"name": "\uba54\ud2b8\ub85c\uc57d\uad6d", "lat": "35.8727300002", "lng": "128.635384583", "url": "/info/%EB%A9%94%ED%8A%B8%EB%A1%9C%EC%95%BD%EA%B5%AD-%EB%8C%80%EA%B5%AC%EA%B4%91%EC%97%AD%EC%8B%9C-%EB%8F%99%EA%B5%AC-%ED%9A%A8%EB%AA%A9%EB%8F%99/", "workingTime": ["-", "09:00~18:00", "09:00~18:00", "09:00~18:00", "09:00~18:00", "09:00~18:00", "09:00~13:00", "-"]}, {"name": "\ud2bc\ud2bc\uc57d\uad6d", "lat": "35.88566430893336", "lng": "128.63514131702397", "url": "/info/%ED%8A%BC%ED%8A%BC%EC%95%BD%EA%B5%AD-%EB%8C%80%EA%B5%AC%EA%B4%91%EC%97%AD%EC%8B%9C-%EB%8F%99%EA%B5%AC-%ED%9A%A8%EB%AA%A9%EB%8F%99/", "workingTime": ["-", "09:00~18:00", "09:00~18:00", "09:00~18:00", "09:00~18:00", "09:00~18:00", "09:00~13:00", "-"]}, {"name": "\uc0c8\ubbf8\ub798\uc57d\uad6d", "lat": "35.8870105772", "lng": "128.6401874569", "url": "/info/%EC%83%88%EB%AF%B8%EB%9E%98%EC%95%BD%EA%B5%AD-%EB%8C%80%EA%B5%AC%EA%B4%91%EC%97%AD%EC%8B%9C-%EB%8F%99%EA%B5%AC-%ED%9A%A8%EB%AA%A9%EB%8F%99/", "workingTime": ["-", "09:00~19:00", "09:00~19:00", "09:00~19:00", "09:00~19:00", "09:00~19:00", "09:00~16:00", "09:00~13:00"]}, {"name": "\uba85\ubcf4\uc57d\uad6d", "lat": "35.87518065060158", "lng": "128.6392493113952", "url": "/info/%EB%AA%85%EB%B3%B4%EC%95%BD%EA%B5%AD-%EB%8C%80%EA%B5%AC%EA%B4%91%EC%97%AD%EC%8B%9C-%EB%8F%99%EA%B5%AC-%ED%9A%A8%EB%AA%A9%EB%8F%99/", "workingTime": ["1,2,3,4,5\uc9f8\uc8fc11:00~15:00", "09:00~21:00", "09:00~21:00", "09:00~21:00", "09:00~21:00", "09:00~21:00", "09:00~21:00", "09:00~21:00"]}, {"name": "\ud574\uc778\ub2f9\uc57d\uad6d", "lat": "35.8824941745", "lng": "128.6422912112", "url": "/info/%ED%95%B4%EC%9D%B8%EB%8B%B9%EC%95%BD%EA%B5%AD-%EB%8C%80%EA%B5%AC%EA%B4%91%EC%97%AD%EC%8B%9C-%EB%8F%99%EA%B5%AC-%ED%9A%A8%EB%AA%A9%EB%8F%99/", "workingTime": ["-", "08:30~20:00", "08:30~20:00", "08:30~20:00", "08:30~20:00", "08:30~20:00", "08:30~19:00", "-"]}]