[{"name": "\uac15\ub0a8\uc57d\uad6d", "lat": "35.86282273049632", "lng": "128.61458193813425", "url": "/info/%EA%B0%95%EB%82%A8%EC%95%BD%EA%B5%AD-%EB%8C%80%EA%B5%AC%EA%B4%91%EC%97%AD%EC%8B%9C-%EC%88%98%EC%84%B1%EA%B5%AC-%EC%88%98%EC%84%B1%EB%8F%994%EA%B0%80/", "workingTime": ["-", "08:30~19:10", "08:30~19:10", "08:30~19:10", "08:30~19:10", "08:30~19:10", "08:30~13:00", "-"]}, {"name": "\ub2e4\ub098\uc57d\uad6d", "lat": "35.85992922054816", "lng": "128.6178922178765", "url": "/info/%EB%8B%A4%EB%82%98%EC%95%BD%EA%B5%AD-%EB%8C%80%EA%B5%AC%EA%B4%91%EC%97%AD%EC%8B%9C-%EC%88%98%EC%84%B1%EA%B5%AC-%EC%88%98%EC%84%B1%EB%8F%994%EA%B0%80/", "workingTime": ["-", "09:30~18:30", "09:30~18:30", "09:30~18:30", "09:30~18:30", "09:30~18:30", "09:30~13:00", "-"]}, {"name": "\uc194\uc57d\uad6d", "lat": "35.859806834023054", "lng": "128.62146387143474", "url": "/info/%EC%86%94%EC%95%BD%EA%B5%AD-%EB%8C%80%EA%B5%AC%EA%B4%91%EC%97%AD%EC%8B%9C-%EC%88%98%EC%84%B1%EA%B5%AC-%EC%88%98%EC%84%B1%EB%8F%994%EA%B0%80/", "workingTime": ["-", "09:30~18:30", "09:30~18:30", "09:30~18:30", "09:30~18:30", "09:30~18:30", "09:30~13:00", "-"]}, {"name": "\ud50c\ub7ec\uc2a4\uc628\ub204\ub9ac\uc57d\uad6d", "lat": "35.859980629174004", "lng": "128.6165877797947", "url": "/info/%ED%94%8C%EB%9F%AC%EC%8A%A4%EC%98%A8%EB%88%84%EB%A6%AC%EC%95%BD%EA%B5%AD-%EB%8C%80%EA%B5%AC%EA%B4%91%EC%97%AD%EC%8B%9C-%EC%88%98%EC%84%B1%EA%B5%AC-%EC%88%98%EC%84%B1%EB%8F%994%EA%B0%80/", "workingTime": ["-", "08:00~18:00", "08:00~18:00", "08:00~18:00", "08:00~18:00", "08:00~18:00", "08:00~13:00", "-"]}, {"name": "\uc138\uacc4\uc57d\uad6d", "lat": "35.860037751471545", "lng": "128.6173276392047", "url": "/info/%EC%84%B8%EA%B3%84%EC%95%BD%EA%B5%AD-%EB%8C%80%EA%B5%AC%EA%B4%91%EC%97%AD%EC%8B%9C-%EC%88%98%EC%84%B1%EA%B5%AC-%EC%88%98%EC%84%B1%EB%8F%994%EA%B0%80/", "workingTime": ["-", "09:00~19:00", "09:00~19:00", "09:00~19:00", "09:00~19:00", "09:00~19:00", "09:00~16:00", "-"]}]