[{"name": "\uc77c\uc2ec\uc57d\uad6d", "lat": "36.350376396626814", "lng": "127.43663978041727", "url": "/info/%EC%9D%BC%EC%8B%AC%EC%95%BD%EA%B5%AD-%EB%8C%80%EC%A0%84%EA%B4%91%EC%97%AD%EC%8B%9C-%EB%8F%99%EA%B5%AC-%EC%9A%A9%EC%A0%84%EB%8F%99/", "workingTime": ["1,2,3,4,5\uc9f8\uc8fc05:00~21:00", "05:00~21:00", "05:00~21:00", "05:00~21:00", "05:00~21:00", "05:00~21:00", "05:00~21:00", "05:00~21:00"]}, {"name": "\ub9c8\uc74c\uc57d\uad6d", "lat": "36.3499356098075", "lng": "127.438056895308", "url": "/info/%EB%A7%88%EC%9D%8C%EC%95%BD%EA%B5%AD-%EB%8C%80%EC%A0%84%EA%B4%91%EC%97%AD%EC%8B%9C-%EB%8F%99%EA%B5%AC-%EC%9A%A9%EC%A0%84%EB%8F%99/", "workingTime": ["-", "09:00~18:30", "09:00~18:30", "09:00~18:30", "09:00~18:30", "09:00~18:30", "09:00~13:00", "-"]}, {"name": "\ub300\uc804\uc2dc\ubbfc\uc57d\uad6d", "lat": "36.3492173198582", "lng": "127.435804451998", "url": "/info/%EB%8C%80%EC%A0%84%EC%8B%9C%EB%AF%BC%EC%95%BD%EA%B5%AD-%EB%8C%80%EC%A0%84%EA%B4%91%EC%97%AD%EC%8B%9C-%EB%8F%99%EA%B5%AC-%EC%9A%A9%EC%A0%84%EB%8F%99/", "workingTime": ["-", "08:30~19:30", "08:30~19:30", "08:30~19:30", "08:30~19:30", "08:30~19:30", "08:30~16:00", "-"]}, {"name": "\ud2bc\ud2bc\uc57d\uad6d", "lat": "36.3578422472", "lng": "127.4332066717", "url": "/info/%ED%8A%BC%ED%8A%BC%EC%95%BD%EA%B5%AD-%EB%8C%80%EC%A0%84%EA%B4%91%EC%97%AD%EC%8B%9C-%EB%8F%99%EA%B5%AC-%EC%9A%A9%EC%A0%84%EB%8F%99/", "workingTime": ["-", "08:30~18:20", "08:30~18:20", "08:30~18:20", "08:30~18:20", "08:30~18:20", "08:30~13:30", "-"]}, {"name": "\ud55c\uc6b0\ub9ac\uc57d\uad6d", "lat": "36.35032193823571", "lng": "127.43674642373591", "url": "/info/%ED%95%9C%EC%9A%B0%EB%A6%AC%EC%95%BD%EA%B5%AD-%EB%8C%80%EC%A0%84%EA%B4%91%EC%97%AD%EC%8B%9C-%EB%8F%99%EA%B5%AC-%EC%9A%A9%EC%A0%84%EB%8F%99/", "workingTime": ["-", "10:00~20:00", "10:00~20:00", "10:00~20:00", "10:00~21:30", "10:00~20:00", "09:30~18:00", "-"]}, {"name": "\ub178\ub2d0\uc57d\uad6d", "lat": "36.3503437930069", "lng": "127.43668415998454", "url": "/info/%EB%85%B8%EB%8B%90%EC%95%BD%EA%B5%AD-%EB%8C%80%EC%A0%84%EA%B4%91%EC%97%AD%EC%8B%9C-%EB%8F%99%EA%B5%AC-%EC%9A%A9%EC%A0%84%EB%8F%99/", "workingTime": ["1,2,3,4,5\uc9f8\uc8fc07:30~24:00", "07:30~24:00", "07:30~24:00", "07:30~24:00", "07:30~24:00", "07:30~24:00", "07:30~24:00", "07:30~24:00"]}, {"name": "\ubc31\ud654\ub2f9\uc57d\uad6d", "lat": "36.34829265889563", "lng": "127.4334166683704", "url": "/info/%EB%B0%B1%ED%99%94%EB%8B%B9%EC%95%BD%EA%B5%AD-%EB%8C%80%EC%A0%84%EA%B4%91%EC%97%AD%EC%8B%9C-%EB%8F%99%EA%B5%AC-%EC%9A%A9%EC%A0%84%EB%8F%99/", "workingTime": ["-", "08:40~18:40", "08:40~18:40", "08:40~18:40", "08:40~18:40", "08:40~18:40", "08:40~13:00", "-"]}, {"name": "\uc0bc\uc131\uc57d\uad6d", "lat": "36.348377039655816", "lng": "127.43231971450929", "url": "/info/%EC%82%BC%EC%84%B1%EC%95%BD%EA%B5%AD-%EB%8C%80%EC%A0%84%EA%B4%91%EC%97%AD%EC%8B%9C-%EB%8F%99%EA%B5%AC-%EC%9A%A9%EC%A0%84%EB%8F%99/", "workingTime": ["-", "09:00~20:00", "09:00~20:00", "09:00~20:00", "09:00~20:00", "09:00~20:00", "09:00~14:00", "-"]}, {"name": "\uc0c8\uc18c\ub9dd\uc57d\uad6d", "lat": "36.34973662607419", "lng": "127.43183831931866", "url": "/info/%EC%83%88%EC%86%8C%EB%A7%9D%EC%95%BD%EA%B5%AD-%EB%8C%80%EC%A0%84%EA%B4%91%EC%97%AD%EC%8B%9C-%EB%8F%99%EA%B5%AC-%EC%9A%A9%EC%A0%84%EB%8F%99/", "workingTime": ["-", "09:00~18:00", "09:00~18:00", "09:00~18:00", "09:00~18:00", "09:00~18:00", "09:00~13:00", "-"]}, {"name": "\uc544\ub0a8\uba54\ub514\uceec\uc57d\uad6d", "lat": "36.3480933838", "lng": "127.4327026035", "url": "/info/%EC%95%84%EB%82%A8%EB%A9%94%EB%94%94%EC%BB%AC%EC%95%BD%EA%B5%AD-%EB%8C%80%EC%A0%84%EA%B4%91%EC%97%AD%EC%8B%9C-%EB%8F%99%EA%B5%AC-%EC%9A%A9%EC%A0%84%EB%8F%99/", "workingTime": ["1,2,3,4,5\uc9f8\uc8fc09:00~18:00", "09:00~22:00", "09:00~22:00", "09:00~22:00", "09:00~22:00", "09:00~22:00", "09:00~18:00", "09:00~18:00"]}, {"name": "\uc54c\ucc2c\uc57d\uad6d", "lat": "36.3486067595", "lng": "127.4342739673", "url": "/info/%EC%95%8C%EC%B0%AC%EC%95%BD%EA%B5%AD-%EB%8C%80%EC%A0%84%EA%B4%91%EC%97%AD%EC%8B%9C-%EB%8F%99%EA%B5%AC-%EC%9A%A9%EC%A0%84%EB%8F%99/", "workingTime": ["-", "09:00~19:00", "09:00~19:00", "09:00~19:00", "09:00~19:00", "09:00~19:00", "09:00~13:00", "-"]}, {"name": "\uc628\ub204\ub9ac\uc724\uc57d\uad6d", "lat": "36.35534834954852", "lng": "127.43305026476156", "url": "/info/%EC%98%A8%EB%88%84%EB%A6%AC%EC%9C%A4%EC%95%BD%EA%B5%AD-%EB%8C%80%EC%A0%84%EA%B4%91%EC%97%AD%EC%8B%9C-%EB%8F%99%EA%B5%AC-%EC%9A%A9%EC%A0%84%EB%8F%99/", "workingTime": ["-", "09:00~21:00", "09:00~21:00", "09:00~21:00", "09:00~21:00", "09:00~21:00", "09:00~19:30", "09:00~18:00"]}, {"name": "\uc6a9\uc804\uc57d\uad6d", "lat": "36.34912161663621", "lng": "127.43244985942769", "url": "/info/%EC%9A%A9%EC%A0%84%EC%95%BD%EA%B5%AD-%EB%8C%80%EC%A0%84%EA%B4%91%EC%97%AD%EC%8B%9C-%EB%8F%99%EA%B5%AC-%EC%9A%A9%EC%A0%84%EB%8F%99/", "workingTime": ["-", "08:40~18:50", "08:40~18:50", "08:40~18:50", "08:40~18:50", "08:40~18:50", "08:40~13:00", "-"]}, {"name": "\uc720\uc0b0\uade0\uc57d\uad6d", "lat": "36.3541485807", "lng": "127.4328920855", "url": "/info/%EC%9C%A0%EC%82%B0%EA%B7%A0%EC%95%BD%EA%B5%AD-%EB%8C%80%EC%A0%84%EA%B4%91%EC%97%AD%EC%8B%9C-%EB%8F%99%EA%B5%AC-%EC%9A%A9%EC%A0%84%EB%8F%99/", "workingTime": ["1,2,3,4,5\uc9f8\uc8fc12:30~21:00", "09:00~21:00", "09:00~21:00", "09:00~21:00", "09:00~21:00", "09:00~21:00", "09:00~21:00", "09:00~21:00"]}]