[{"name": "\ub300\ud559\uc57d\uad6d", "lat": "36.3180845292657", "lng": "127.414251574967", "url": "/info/%EB%8C%80%ED%95%99%EC%95%BD%EA%B5%AD-%EB%8C%80%EC%A0%84%EA%B4%91%EC%97%AD%EC%8B%9C-%EC%A4%91%EA%B5%AC-%EB%AC%B8%ED%99%94%EB%8F%99/", "workingTime": ["-", "08:30~18:30", "08:30~18:30", "08:30~18:30", "08:30~18:30", "08:30~18:00", "-", "-"]}, {"name": "\ub098\ub098\uc57d\uad6d", "lat": "36.317620204332535", "lng": "127.41127783602099", "url": "/info/%EB%82%98%EB%82%98%EC%95%BD%EA%B5%AD-%EB%8C%80%EC%A0%84%EA%B4%91%EC%97%AD%EC%8B%9C-%EC%A4%91%EA%B5%AC-%EB%AC%B8%ED%99%94%EB%8F%99/", "workingTime": ["-", "08:30~19:30", "08:30~19:30", "08:30~19:30", "08:30~19:30", "08:30~19:30", "09:00~12:30", "-"]}, {"name": "\ubbf8\uc18c\uc57d\uad6d", "lat": "36.31983198404643", "lng": "127.40508053198738", "url": "/info/%EB%AF%B8%EC%86%8C%EC%95%BD%EA%B5%AD-%EB%8C%80%EC%A0%84%EA%B4%91%EC%97%AD%EC%8B%9C-%EC%A4%91%EA%B5%AC-%EB%AC%B8%ED%99%94%EB%8F%99/", "workingTime": ["-", "08:30~18:30", "08:30~18:30", "08:30~18:30", "08:30~18:30", "08:30~18:30", "08:30~13:30", "-"]}, {"name": "\uc774\ud654\ub2f9\uc57d\uad6d", "lat": "36.321963888888888", "lng": "127.414441666666661", "url": "/info/%EC%9D%B4%ED%99%94%EB%8B%B9%EC%95%BD%EA%B5%AD-%EB%8C%80%EC%A0%84%EA%B4%91%EC%97%AD%EC%8B%9C-%EC%A4%91%EA%B5%AC-%EB%AC%B8%ED%99%94%EB%8F%99/", "workingTime": ["-", "08:30~18:30", "08:30~18:30", "08:30~18:30", "08:30~18:30", "08:30~18:30", "08:30~13:30", "08:30~13:00"]}, {"name": "\uc778\uc81c\ub2f9\uc57d\uad6d", "lat": "36.31208002408435", "lng": "127.41088848871342", "url": "/info/%EC%9D%B8%EC%A0%9C%EB%8B%B9%EC%95%BD%EA%B5%AD-%EB%8C%80%EC%A0%84%EA%B4%91%EC%97%AD%EC%8B%9C-%EC%A4%91%EA%B5%AC-%EB%AC%B8%ED%99%94%EB%8F%99/", "workingTime": ["-", "09:00~18:00", "09:00~18:00", "09:00~18:00", "09:00~18:00", "09:00~18:00", "09:00~13:00", "-"]}, {"name": "\uc81c\uc0dd\uc57d\uad6d", "lat": "36.309658333333331", "lng": "127.399888888888896", "url": "/info/%EC%A0%9C%EC%83%9D%EC%95%BD%EA%B5%AD-%EB%8C%80%EC%A0%84%EA%B4%91%EC%97%AD%EC%8B%9C-%EC%A4%91%EA%B5%AC-%EB%AC%B8%ED%99%94%EB%8F%99/", "workingTime": ["1,2,3,4,5\uc9f8\uc8fc09:00~21:00", "09:00~19:00", "09:00~19:00", "09:00~19:00", "09:00~19:00", "09:00~19:00", "09:00~20:00", "15:00~20:30"]}, {"name": "\ucda9\ub300\ube5b\ub098\uc57d\uad6d", "lat": "36.3176345617618", "lng": "127.4112957281366", "url": "/info/%EC%B6%A9%EB%8C%80%EB%B9%9B%EB%82%98%EC%95%BD%EA%B5%AD-%EB%8C%80%EC%A0%84%EA%B4%91%EC%97%AD%EC%8B%9C-%EC%A4%91%EA%B5%AC-%EB%AC%B8%ED%99%94%EB%8F%99/", "workingTime": ["-", "08:30~19:00", "08:30~19:00", "08:30~19:00", "08:30~19:00", "08:30~19:00", "09:30~12:30", "-"]}, {"name": "\ud574\uc624\ub984\uc57d\uad6d", "lat": "36.32029169941265", "lng": "127.40769765772566", "url": "/info/%ED%95%B4%EC%98%A4%EB%A6%84%EC%95%BD%EA%B5%AD-%EB%8C%80%EC%A0%84%EA%B4%91%EC%97%AD%EC%8B%9C-%EC%A4%91%EA%B5%AC-%EB%AC%B8%ED%99%94%EB%8F%99/", "workingTime": ["1,3,5\uc9f8\uc8fc10:00~22:00", "10:00~22:00", "10:00~22:00", "10:00~22:00", "10:00~22:00", "10:00~22:00", "10:00~22:00", "10:00~22:00"]}, {"name": "\uae00\uaf43\uc57d\uad6d", "lat": "36.320460323790485", "lng": "127.41033500610035", "url": "/info/%EA%B8%80%EA%BD%83%EC%95%BD%EA%B5%AD-%EB%8C%80%EC%A0%84%EA%B4%91%EC%97%AD%EC%8B%9C-%EC%A4%91%EA%B5%AC-%EB%AC%B8%ED%99%94%EB%8F%99/", "workingTime": ["1,2,3,4,5\uc9f8\uc8fc09:00~22:30", "09:00~22:30", "09:00~22:30", "09:00~22:30", "09:00~22:30", "09:00~22:30", "09:00~22:30", "09:00~22:30"]}, {"name": "\uba85\uc9c0\uc57d\uad6d", "lat": "36.307102777777779", "lng": "127.397972222222222", "url": "/info/%EB%AA%85%EC%A7%80%EC%95%BD%EA%B5%AD-%EB%8C%80%EC%A0%84%EA%B4%91%EC%97%AD%EC%8B%9C-%EC%A4%91%EA%B5%AC-%EB%AC%B8%ED%99%94%EB%8F%99/", "workingTime": ["1,2,3,4,5\uc9f8\uc8fc16:00~20:00", "08:40~20:40", "08:40~20:40", "08:40~20:40", "08:40~20:40", "08:40~20:40", "08:40~20:00", "09:00~20:00"]}, {"name": "\ubb38\ud654\ud478\ub978\uc57d\uad6d", "lat": "36.309305620541636", "lng": "127.4041887617782", "url": "/info/%EB%AC%B8%ED%99%94%ED%91%B8%EB%A5%B8%EC%95%BD%EA%B5%AD-%EB%8C%80%EC%A0%84%EA%B4%91%EC%97%AD%EC%8B%9C-%EC%A4%91%EA%B5%AC-%EB%AC%B8%ED%99%94%EB%8F%99/", "workingTime": ["5\uc9f8\uc8fc09:00~18:00", "09:00~20:00", "09:00~20:00", "09:00~20:00", "09:00~20:00", "09:00~20:00", "09:00~18:00", "09:00~18:00"]}, {"name": "\uc194\uc57d\uad6d", "lat": "36.32177829879869", "lng": "127.41460988745214", "url": "/info/%EC%86%94%EC%95%BD%EA%B5%AD-%EB%8C%80%EC%A0%84%EA%B4%91%EC%97%AD%EC%8B%9C-%EC%A4%91%EA%B5%AC-%EB%AC%B8%ED%99%94%EB%8F%99/", "workingTime": ["-", "08:30~18:30", "08:30~18:30", "08:30~18:30", "08:30~18:30", "08:30~18:30", "08:30~13:30", "-"]}, {"name": "\uc628\ub204\ub9ac\ud604\ub300\uc57d\uad6d", "lat": "36.314186111111113", "lng": "127.404358333333334", "url": "/info/%EC%98%A8%EB%88%84%EB%A6%AC%ED%98%84%EB%8C%80%EC%95%BD%EA%B5%AD-%EB%8C%80%EC%A0%84%EA%B4%91%EC%97%AD%EC%8B%9C-%EC%A4%91%EA%B5%AC-%EB%AC%B8%ED%99%94%EB%8F%99/", "workingTime": ["-", "09:00~19:00", "09:00~19:00", "09:00~19:00", "09:00~19:00", "09:00~19:00", "09:00~13:00", "-"]}]