[{"name": "\ub300\uc601\uc57d\uad6d", "lat": "36.34673120284861", "lng": "127.44534545220375", "url": "/info/%EB%8C%80%EC%98%81%EC%95%BD%EA%B5%AD-%EB%8C%80%EC%A0%84%EA%B4%91%EC%97%AD%EC%8B%9C-%EB%8F%99%EA%B5%AC-%EA%B0%80%EC%96%91%EB%8F%99/", "workingTime": ["-", "08:30~19:00", "08:30~19:00", "08:30~19:00", "08:30~19:00", "08:30~19:00", "08:30~15:00", "-"]}, {"name": "\uac74\uac15\uc57d\uad6d", "lat": "36.34544095029361", "lng": "127.44625599197606", "url": "/info/%EA%B1%B4%EA%B0%95%EC%95%BD%EA%B5%AD-%EB%8C%80%EC%A0%84%EA%B4%91%EC%97%AD%EC%8B%9C-%EB%8F%99%EA%B5%AC-%EA%B0%80%EC%96%91%EB%8F%99/", "workingTime": ["-", "09:00~19:00", "09:00~19:00", "09:00~19:00", "09:00~19:00", "09:00~19:00", "09:00~14:00", "-"]}, {"name": "\uce60\uc131\uc57d\uad6d", "lat": "36.34210755057848", "lng": "127.44792568575471", "url": "/info/%EC%B9%A0%EC%84%B1%EC%95%BD%EA%B5%AD-%EB%8C%80%EC%A0%84%EA%B4%91%EC%97%AD%EC%8B%9C-%EB%8F%99%EA%B5%AC-%EA%B0%80%EC%96%91%EB%8F%99/", "workingTime": ["-", "09:00~18:30", "09:00~18:30", "09:00~18:30", "09:00~18:30", "09:00~18:30", "09:00~13:00", "-"]}, {"name": "\ub2e4\uc0ac\ub791\uc57d\uad6d", "lat": "36.3452278286", "lng": "127.4463750835", "url": "/info/%EB%8B%A4%EC%82%AC%EB%9E%91%EC%95%BD%EA%B5%AD-%EB%8C%80%EC%A0%84%EA%B4%91%EC%97%AD%EC%8B%9C-%EB%8F%99%EA%B5%AC-%EA%B0%80%EC%96%91%EB%8F%99/", "workingTime": ["-", "09:00~19:00", "09:00~19:00", "09:00~19:00", "09:00~19:00", "09:00~19:00", "09:00~13:00", "-"]}, {"name": "\ub2e4\uc815\uc57d\uad6d", "lat": "36.34380645529318", "lng": "127.44182211774878", "url": "/info/%EB%8B%A4%EC%A0%95%EC%95%BD%EA%B5%AD-%EB%8C%80%EC%A0%84%EA%B4%91%EC%97%AD%EC%8B%9C-%EB%8F%99%EA%B5%AC-%EA%B0%80%EC%96%91%EB%8F%99/", "workingTime": ["-", "09:00~13:00", "09:00~13:00", "09:00~13:00", "09:00~13:00", "09:00~13:00", "09:00~13:00", "-"]}, {"name": "\uc0c8\uac00\uc591\uc57d\uad6d", "lat": "36.34807218724771", "lng": "127.45110132708754", "url": "/info/%EC%83%88%EA%B0%80%EC%96%91%EC%95%BD%EA%B5%AD-%EB%8C%80%EC%A0%84%EA%B4%91%EC%97%AD%EC%8B%9C-%EB%8F%99%EA%B5%AC-%EA%B0%80%EC%96%91%EB%8F%99/", "workingTime": ["-", "09:00~19:00", "09:00~19:00", "09:00~19:00", "09:00~19:00", "09:00~19:00", "09:00~14:00", "-"]}, {"name": "\uc2dc\uc628\uc57d\uad6d", "lat": "36.34657382206222", "lng": "127.4453655227752", "url": "/info/%EC%8B%9C%EC%98%A8%EC%95%BD%EA%B5%AD-%EB%8C%80%EC%A0%84%EA%B4%91%EC%97%AD%EC%8B%9C-%EB%8F%99%EA%B5%AC-%EA%B0%80%EC%96%91%EB%8F%99/", "workingTime": ["-", "08:30~20:00", "08:30~21:00", "08:30~20:00", "08:30~20:00", "08:30~21:00", "08:30~14:00", "08:30~16:00"]}, {"name": "\uc2e0\ub3c5\uc77c\uc57d\uad6d", "lat": "36.34707500913751", "lng": "127.44979444010047", "url": "/info/%EC%8B%A0%EB%8F%85%EC%9D%BC%EC%95%BD%EA%B5%AD-%EB%8C%80%EC%A0%84%EA%B4%91%EC%97%AD%EC%8B%9C-%EB%8F%99%EA%B5%AC-%EA%B0%80%EC%96%91%EB%8F%99/", "workingTime": ["-", "10:00~19:00", "10:00~19:00", "10:00~19:00", "10:00~19:00", "10:00~19:00", "10:00~18:00", "-"]}, {"name": "\uc2e0\uc720\uc57d\uad6d", "lat": "36.35011088377658", "lng": "127.44672379711964", "url": "/info/%EC%8B%A0%EC%9C%A0%EC%95%BD%EA%B5%AD-%EB%8C%80%EC%A0%84%EA%B4%91%EC%97%AD%EC%8B%9C-%EB%8F%99%EA%B5%AC-%EA%B0%80%EC%96%91%EB%8F%99/", "workingTime": ["-", "09:00~20:30", "09:00~20:30", "09:00~20:30", "09:00~20:30", "09:00~20:30", "09:00~16:30", "10:00~17:00"]}, {"name": "\uc54c\ucc2c\uc57d\uad6d", "lat": "36.3486067595", "lng": "127.4342739673", "url": "/info/%EC%95%8C%EC%B0%AC%EC%95%BD%EA%B5%AD-%EB%8C%80%EC%A0%84%EA%B4%91%EC%97%AD%EC%8B%9C-%EB%8F%99%EA%B5%AC-%EA%B0%80%EC%96%91%EB%8F%99/", "workingTime": ["-", "09:00~19:00", "09:00~19:00", "09:00~19:00", "09:00~19:00", "09:00~19:00", "09:00~13:00", "-"]}]