[{"name": "\uc11c\uc6b8\uc57d\uad6d", "lat": "36.3125744156116", "lng": "127.379744113806", "url": "/info/%EC%84%9C%EC%9A%B8%EC%95%BD%EA%B5%AD-%EB%8C%80%EC%A0%84%EA%B4%91%EC%97%AD%EC%8B%9C-%EC%84%9C%EA%B5%AC-%EB%8F%84%EB%A7%88%EB%8F%99/", "workingTime": ["-", "08:30~18:00", "08:30~18:00", "08:30~18:00", "08:30~18:00", "08:30~18:00", "08:30~13:00", "-"]}, {"name": "\ub3c4\ub9c8\ud0dc\ud3c9\uc591\uc57d\uad6d", "lat": "36.32475623915257", "lng": "127.37057332912569", "url": "/info/%EB%8F%84%EB%A7%88%ED%83%9C%ED%8F%89%EC%96%91%EC%95%BD%EA%B5%AD-%EB%8C%80%EC%A0%84%EA%B4%91%EC%97%AD%EC%8B%9C-%EC%84%9C%EA%B5%AC-%EB%8F%84%EB%A7%88%EB%8F%99/", "workingTime": ["1,2,3,4,5\uc9f8\uc8fc18:00~25:00", "09:00~25:00", "09:00~25:00", "09:00~25:00", "09:00~25:00", "09:00~25:00", "09:00~25:00", "09:00~25:00"]}, {"name": "\ub4e4\ubafc\ud480\ud55c\uc57d\uad6d", "lat": "36.3152730825271", "lng": "127.382037611953", "url": "/info/%EB%93%A4%EB%AB%BC%ED%92%80%ED%95%9C%EC%95%BD%EA%B5%AD-%EB%8C%80%EC%A0%84%EA%B4%91%EC%97%AD%EC%8B%9C-%EC%84%9C%EA%B5%AC-%EB%8F%84%EB%A7%88%EB%8F%99/", "workingTime": ["-", "09:00~18:00", "09:00~18:00", "09:00~18:00", "09:00~18:00", "09:00~18:00", "09:00~17:00", "-"]}, {"name": "\uc131\ubaa8\uc57d\uad6d", "lat": "36.31367124774022", "lng": "127.38216822360601", "url": "/info/%EC%84%B1%EB%AA%A8%EC%95%BD%EA%B5%AD-%EB%8C%80%EC%A0%84%EA%B4%91%EC%97%AD%EC%8B%9C-%EC%84%9C%EA%B5%AC-%EB%8F%84%EB%A7%88%EB%8F%99/", "workingTime": ["-", "09:00~18:30", "09:00~18:30", "09:00~18:30", "09:00~18:30", "09:00~18:30", "09:00~15:00", "-"]}, {"name": "\ub3c4\ud1a0\ub9ac\uc57d\uad6d", "lat": "36.3134165698", "lng": "127.3795168108", "url": "/info/%EB%8F%84%ED%86%A0%EB%A6%AC%EC%95%BD%EA%B5%AD-%EB%8C%80%EC%A0%84%EA%B4%91%EC%97%AD%EC%8B%9C-%EC%84%9C%EA%B5%AC-%EB%8F%84%EB%A7%88%EB%8F%99/", "workingTime": ["-", "09:00~18:30", "09:00~18:30", "09:00~18:30", "09:00~18:30", "09:00~18:30", "09:00~14:00", "-"]}, {"name": "\uc11c\ubd80\uc2e4\ub85c\uc554\uc57d\uad6d", "lat": "36.31341656980481", "lng": "127.37951681084685", "url": "/info/%EC%84%9C%EB%B6%80%EC%8B%A4%EB%A1%9C%EC%95%94%EC%95%BD%EA%B5%AD-%EB%8C%80%EC%A0%84%EA%B4%91%EC%97%AD%EC%8B%9C-%EC%84%9C%EA%B5%AC-%EB%8F%84%EB%A7%88%EB%8F%99/", "workingTime": ["-", "09:00~19:00", "09:00~19:00", "09:00~19:00", "09:00~19:00", "09:00~19:00", "09:00~14:00", "-"]}, {"name": "\ub300\uc601\uc628\ub204\ub9ac\uc57d\uad6d", "lat": "36.322630555555556", "lng": "127.370388888888883", "url": "/info/%EB%8C%80%EC%98%81%EC%98%A8%EB%88%84%EB%A6%AC%EC%95%BD%EA%B5%AD-%EB%8C%80%EC%A0%84%EA%B4%91%EC%97%AD%EC%8B%9C-%EC%84%9C%EA%B5%AC-%EB%8F%84%EB%A7%88%EB%8F%99/", "workingTime": ["-", "09:00~21:00", "09:00~21:00", "09:00~21:00", "09:00~21:00", "09:00~21:00", "09:00~17:00", "-"]}, {"name": "\ub3c4\ub9c8\ud504\ub77c\uc790\uc57d\uad6d", "lat": "36.312649571708285", "lng": "127.38039054781012", "url": "/info/%EB%8F%84%EB%A7%88%ED%94%84%EB%9D%BC%EC%9E%90%EC%95%BD%EA%B5%AD-%EB%8C%80%EC%A0%84%EA%B4%91%EC%97%AD%EC%8B%9C-%EC%84%9C%EA%B5%AC-%EB%8F%84%EB%A7%88%EB%8F%99/", "workingTime": ["-", "08:10~18:50", "08:10~18:50", "08:10~18:50", "08:10~18:50", "08:10~18:50", "08:10~15:00", "-"]}, {"name": "\ud574\uc131\uc57d\uad6d", "lat": "36.311609340346436", "lng": "127.37534364064837", "url": "/info/%ED%95%B4%EC%84%B1%EC%95%BD%EA%B5%AD-%EB%8C%80%EC%A0%84%EA%B4%91%EC%97%AD%EC%8B%9C-%EC%84%9C%EA%B5%AC-%EB%8F%84%EB%A7%88%EB%8F%99/", "workingTime": ["1,2,4,5\uc9f8\uc8fc09:00~18:00", "09:00~20:30", "09:00~20:30", "09:00~20:30", "09:00~20:30", "09:00~20:30", "09:00~20:30", "09:00~18:00"]}, {"name": "\uc778\ud654\uc57d\uad6d", "lat": "36.316630555555555", "lng": "127.373500000000007", "url": "/info/%EC%9D%B8%ED%99%94%EC%95%BD%EA%B5%AD-%EB%8C%80%EC%A0%84%EA%B4%91%EC%97%AD%EC%8B%9C-%EC%84%9C%EA%B5%AC-%EB%8F%84%EB%A7%88%EB%8F%99/", "workingTime": ["-", "08:30~20:00", "08:30~20:00", "08:30~20:00", "08:30~20:00", "08:30~20:00", "08:30~18:00", "-"]}, {"name": "\ubcf4\ub839\ub2f9\uc57d\uad6d", "lat": "36.31511470693058", "lng": "127.37941814273279", "url": "/info/%EB%B3%B4%EB%A0%B9%EB%8B%B9%EC%95%BD%EA%B5%AD-%EB%8C%80%EC%A0%84%EA%B4%91%EC%97%AD%EC%8B%9C-%EC%84%9C%EA%B5%AC-%EB%8F%84%EB%A7%88%EB%8F%99/", "workingTime": ["-", "09:30~20:30", "09:30~20:30", "09:30~20:30", "09:30~20:30", "09:30~20:30", "09:30~20:00", "-"]}, {"name": "\ubcc4\uc57d\uad6d", "lat": "36.32594559845707", "lng": "127.37063687228843", "url": "/info/%EB%B3%84%EC%95%BD%EA%B5%AD-%EB%8C%80%EC%A0%84%EA%B4%91%EC%97%AD%EC%8B%9C-%EC%84%9C%EA%B5%AC-%EB%8F%84%EB%A7%88%EB%8F%99/", "workingTime": ["-", "08:30~19:00", "08:30~19:00", "08:30~19:00", "08:30~19:00", "08:30~19:00", "08:30~15:00", "-"]}, {"name": "\ud558\ub098\ub85c\uc57d\uad6d", "lat": "36.31306999895199", "lng": "127.38080681384679", "url": "/info/%ED%95%98%EB%82%98%EB%A1%9C%EC%95%BD%EA%B5%AD-%EB%8C%80%EC%A0%84%EA%B4%91%EC%97%AD%EC%8B%9C-%EC%84%9C%EA%B5%AC-%EB%8F%84%EB%A7%88%EB%8F%99/", "workingTime": ["-", "08:30~18:00", "08:30~18:00", "08:30~18:00", "08:30~18:00", "08:30~18:00", "08:30~12:30", "-"]}, {"name": "\ub3c4\ub9c8\uc57d\uad6d", "lat": "36.311991666666664", "lng": "127.378225000000000", "url": "/info/%EB%8F%84%EB%A7%88%EC%95%BD%EA%B5%AD-%EB%8C%80%EC%A0%84%EA%B4%91%EC%97%AD%EC%8B%9C-%EC%84%9C%EA%B5%AC-%EB%8F%84%EB%A7%88%EB%8F%99/", "workingTime": ["-", "08:30~19:00", "08:30~19:00", "08:30~19:00", "08:30~19:00", "08:30~19:00", "08:30~16:30", "-"]}, {"name": "\ub3c4\ub9c8\uc194\uc57d\uad6d", "lat": "36.31417445440001", "lng": "127.37923542319998", "url": "/info/%EB%8F%84%EB%A7%88%EC%86%94%EC%95%BD%EA%B5%AD-%EB%8C%80%EC%A0%84%EA%B4%91%EC%97%AD%EC%8B%9C-%EC%84%9C%EA%B5%AC-%EB%8F%84%EB%A7%88%EB%8F%99/", "workingTime": ["-", "08:30~19:00", "08:30~19:00", "08:30~19:00", "08:30~19:00", "08:30~19:00", "08:30~15:00", "-"]}, {"name": "\ub3c4\ub9c8\uc870\uc544\uc57d\uad6d", "lat": "36.32409088067348", "lng": "127.37008462252156", "url": "/info/%EB%8F%84%EB%A7%88%EC%A1%B0%EC%95%84%EC%95%BD%EA%B5%AD-%EB%8C%80%EC%A0%84%EA%B4%91%EC%97%AD%EC%8B%9C-%EC%84%9C%EA%B5%AC-%EB%8F%84%EB%A7%88%EB%8F%99/", "workingTime": ["-", "08:00~19:30", "08:00~19:30", "08:00~19:30", "08:00~19:30", "08:00~19:30", "08:00~15:00", "-"]}, {"name": "\uc815\uc57d\uad6d", "lat": "36.3190875120788", "lng": "127.37374889951323", "url": "/info/%EC%A0%95%EC%95%BD%EA%B5%AD-%EB%8C%80%EC%A0%84%EA%B4%91%EC%97%AD%EC%8B%9C-%EC%84%9C%EA%B5%AC-%EB%8F%84%EB%A7%88%EB%8F%99/", "workingTime": ["-", "09:00~20:00", "09:00~20:00", "09:00~20:00", "09:00~20:00", "09:00~20:00", "09:00~16:00", "-"]}, {"name": "\uc11c\uc815\uc57d\uad6d", "lat": "36.3114928041011", "lng": "127.377329516228", "url": "/info/%EC%84%9C%EC%A0%95%EC%95%BD%EA%B5%AD-%EB%8C%80%EC%A0%84%EA%B4%91%EC%97%AD%EC%8B%9C-%EC%84%9C%EA%B5%AC-%EB%8F%84%EB%A7%88%EB%8F%99/", "workingTime": ["-", "08:30~18:30", "08:30~18:30", "08:30~18:30", "08:30~18:30", "08:30~18:30", "08:30~13:00", "-"]}, {"name": "\ud55c\ubc2d\uc57d\uad6d", "lat": "36.312372510635704", "lng": "127.37909754834888", "url": "/info/%ED%95%9C%EB%B0%AD%EC%95%BD%EA%B5%AD-%EB%8C%80%EC%A0%84%EA%B4%91%EC%97%AD%EC%8B%9C-%EC%84%9C%EA%B5%AC-%EB%8F%84%EB%A7%88%EB%8F%99/", "workingTime": ["-", "08:30~18:30", "08:30~18:30", "08:30~18:30", "08:30~18:30", "08:30~18:30", "08:30~14:30", "-"]}, {"name": "\ube44\uc804\uc57d\uad6d", "lat": "36.313296070960696", "lng": "127.38112860347922", "url": "/info/%EB%B9%84%EC%A0%84%EC%95%BD%EA%B5%AD-%EB%8C%80%EC%A0%84%EA%B4%91%EC%97%AD%EC%8B%9C-%EC%84%9C%EA%B5%AC-%EB%8F%84%EB%A7%88%EB%8F%99/", "workingTime": ["-", "09:00~18:00", "09:00~18:00", "09:00~18:00", "09:00~18:00", "09:00~18:00", "09:00~13:00", "-"]}, {"name": "\ub9e4\uc77c\uc57d\uad6d", "lat": "36.316658333333336", "lng": "127.378255555555555", "url": "/info/%EB%A7%A4%EC%9D%BC%EC%95%BD%EA%B5%AD-%EB%8C%80%EC%A0%84%EA%B4%91%EC%97%AD%EC%8B%9C-%EC%84%9C%EA%B5%AC-%EB%8F%84%EB%A7%88%EB%8F%99/", "workingTime": ["-", "09:00~18:00", "09:00~18:00", "09:00~18:00", "09:00~18:00", "09:00~18:00", "09:00~12:30", "-"]}]