[{"name": "\ub4dc\ub9bc\uc57d\uad6d", "lat": "36.3062750570675", "lng": "127.456979499438", "url": "/info/%EB%93%9C%EB%A6%BC%EC%95%BD%EA%B5%AD-%EB%8C%80%EC%A0%84%EA%B4%91%EC%97%AD%EC%8B%9C-%EB%8F%99%EA%B5%AC-%EA%B0%80%EC%98%A4%EB%8F%99/", "workingTime": ["-", "09:00~19:00", "09:00~19:00", "09:00~19:00", "09:00~19:00", "09:00~19:00", "09:00~15:00", "-"]}, {"name": "\uac00\uc624\uc608\uc2dc\ud2f0\uc57d\uad6d", "lat": "36.306497517932996", "lng": "127.45672656321604", "url": "/info/%EA%B0%80%EC%98%A4%EC%98%88%EC%8B%9C%ED%8B%B0%EC%95%BD%EA%B5%AD-%EB%8C%80%EC%A0%84%EA%B4%91%EC%97%AD%EC%8B%9C-%EB%8F%99%EA%B5%AC-%EA%B0%80%EC%98%A4%EB%8F%99/", "workingTime": ["-", "08:10~20:00", "08:10~20:00", "08:10~20:00", "08:10~20:00", "08:10~20:00", "08:10~16:00", "-"]}, {"name": "\ud558\ub298\uc57d\uad6d", "lat": "36.3063530082022", "lng": "127.45636114124295", "url": "/info/%ED%95%98%EB%8A%98%EC%95%BD%EA%B5%AD-%EB%8C%80%EC%A0%84%EA%B4%91%EC%97%AD%EC%8B%9C-%EB%8F%99%EA%B5%AC-%EA%B0%80%EC%98%A4%EB%8F%99/", "workingTime": ["-", "09:00~18:00", "09:00~18:00", "09:00~18:00", "09:00~18:00", "09:00~18:00", "09:00~13:00", "-"]}, {"name": "\ub9d1\uc740\uc0d8\uc57d\uad6d", "lat": "36.3061887708761", "lng": "127.4553612211", "url": "/info/%EB%A7%91%EC%9D%80%EC%83%98%EC%95%BD%EA%B5%AD-%EB%8C%80%EC%A0%84%EA%B4%91%EC%97%AD%EC%8B%9C-%EB%8F%99%EA%B5%AC-%EA%B0%80%EC%98%A4%EB%8F%99/", "workingTime": ["-", "09:00~18:30", "09:00~18:30", "09:00~18:30", "09:00~18:30", "09:00~18:30", "09:00~13:00", "-"]}, {"name": "\ud798\ub098\ub294\uc57d\uad6d", "lat": "36.310790155707174", "lng": "127.45592310083069", "url": "/info/%ED%9E%98%EB%82%98%EB%8A%94%EC%95%BD%EA%B5%AD-%EB%8C%80%EC%A0%84%EA%B4%91%EC%97%AD%EC%8B%9C-%EB%8F%99%EA%B5%AC-%EA%B0%80%EC%98%A4%EB%8F%99/", "workingTime": ["-", "09:00~19:00", "09:00~19:00", "09:00~19:00", "09:00~19:00", "09:00~19:00", "-", "-"]}, {"name": "\uac00\uc624\uc628\ub204\ub9ac\uc57d\uad6d", "lat": "36.30619168337564", "lng": "127.45612861335118", "url": "/info/%EA%B0%80%EC%98%A4%EC%98%A8%EB%88%84%EB%A6%AC%EC%95%BD%EA%B5%AD-%EB%8C%80%EC%A0%84%EA%B4%91%EC%97%AD%EC%8B%9C-%EB%8F%99%EA%B5%AC-%EA%B0%80%EC%98%A4%EB%8F%99/", "workingTime": ["-", "08:30~19:00", "08:30~20:00", "08:30~19:00", "08:30~20:00", "08:30~19:00", "08:30~16:00", "-"]}, {"name": "\uad7f\ubaa8\ub2dd\uc57d\uad6d", "lat": "36.30724869419937", "lng": "127.45686070033413", "url": "/info/%EA%B5%BF%EB%AA%A8%EB%8B%9D%EC%95%BD%EA%B5%AD-%EB%8C%80%EC%A0%84%EA%B4%91%EC%97%AD%EC%8B%9C-%EB%8F%99%EA%B5%AC-%EA%B0%80%EC%98%A4%EB%8F%99/", "workingTime": ["-", "08:30~20:00", "08:30~20:00", "08:30~20:00", "08:30~20:00", "08:30~20:00", "08:30~14:00", "-"]}, {"name": "\ub098\ub214\uc57d\uad6d", "lat": "36.304979761014806", "lng": "127.45348503945037", "url": "/info/%EB%82%98%EB%88%94%EC%95%BD%EA%B5%AD-%EB%8C%80%EC%A0%84%EA%B4%91%EC%97%AD%EC%8B%9C-%EB%8F%99%EA%B5%AC-%EA%B0%80%EC%98%A4%EB%8F%99/", "workingTime": ["1,2,3,4,5\uc9f8\uc8fc11:00~21:00", "09:00~22:00", "09:00~22:00", "09:00~22:00", "09:00~22:00", "09:00~22:00", "09:00~22:00", "11:00~21:00"]}, {"name": "\ub204\ub9ac\uc57d\uad6d", "lat": "36.3069668262", "lng": "127.4579858313", "url": "/info/%EB%88%84%EB%A6%AC%EC%95%BD%EA%B5%AD-%EB%8C%80%EC%A0%84%EA%B4%91%EC%97%AD%EC%8B%9C-%EB%8F%99%EA%B5%AC-%EA%B0%80%EC%98%A4%EB%8F%99/", "workingTime": ["1,2,3,4,5\uc9f8\uc8fc10:00~22:00", "10:30~21:30", "10:30~21:30", "10:30~21:30", "10:30~21:30", "10:30~21:30", "10:30~21:30", "10:30~21:30"]}, {"name": "\uc0c8\ubd04\uc57d\uad6d", "lat": "36.307056679871145", "lng": "127.45616926259957", "url": "/info/%EC%83%88%EB%B4%84%EC%95%BD%EA%B5%AD-%EB%8C%80%EC%A0%84%EA%B4%91%EC%97%AD%EC%8B%9C-%EB%8F%99%EA%B5%AC-%EA%B0%80%EC%98%A4%EB%8F%99/", "workingTime": ["1,2,3,4,5\uc9f8\uc8fc08:30~17:00", "08:30~20:30", "08:30~20:30", "08:30~20:30", "08:30~20:30", "08:30~20:30", "08:30~17:00", "08:30~17:00"]}, {"name": "\uc2a4\ub9c8\uc77c\uc57d\uad6d", "lat": "36.30666067678508", "lng": "127.45602891101997", "url": "/info/%EC%8A%A4%EB%A7%88%EC%9D%BC%EC%95%BD%EA%B5%AD-%EB%8C%80%EC%A0%84%EA%B4%91%EC%97%AD%EC%8B%9C-%EB%8F%99%EA%B5%AC-%EA%B0%80%EC%98%A4%EB%8F%99/", "workingTime": ["1,2,3,4,5\uc9f8\uc8fc08:30~17:00", "08:30~22:00", "08:30~22:00", "08:30~22:00", "08:30~22:00", "08:30~22:00", "08:30~17:00", "08:30~17:00"]}, {"name": "\uc624\ucf00\uc774\uc57d\uad6d(OK\uc57d\uad6d)", "lat": "36.3195836475449", "lng": "127.456721540008", "url": "/info/%EC%98%A4%EC%BC%80%EC%9D%B4%EC%95%BD%EA%B5%AD%28OK%EC%95%BD%EA%B5%AD%29-%EB%8C%80%EC%A0%84%EA%B4%91%EC%97%AD%EC%8B%9C-%EB%8F%99%EA%B5%AC-%EA%B0%80%EC%98%A4%EB%8F%99/", "workingTime": ["-", "09:00~19:00", "09:00~19:00", "09:00~19:00", "09:00~19:00", "09:00~19:00", "09:00~15:00", "-"]}, {"name": "\uc740\uc5b4\uc1a1\uc57d\uad6d", "lat": "36.30604284958425", "lng": "127.455904462881", "url": "/info/%EC%9D%80%EC%96%B4%EC%86%A1%EC%95%BD%EA%B5%AD-%EB%8C%80%EC%A0%84%EA%B4%91%EC%97%AD%EC%8B%9C-%EB%8F%99%EA%B5%AC-%EA%B0%80%EC%98%A4%EB%8F%99/", "workingTime": ["-", "08:40~21:00", "08:40~20:30", "08:40~20:30", "08:40~20:30", "08:40~21:00", "08:40~15:00", "-"]}]