[{"name": "\uc720\uc131\ud0dc\ud3c9\uc591\uc57d\uad6d", "lat": "36.35494546153466", "lng": "127.33652238831601", "url": "/info/%EC%9C%A0%EC%84%B1%ED%83%9C%ED%8F%89%EC%96%91%EC%95%BD%EA%B5%AD-%EB%8C%80%EC%A0%84%EA%B4%91%EC%97%AD%EC%8B%9C-%EC%9C%A0%EC%84%B1%EA%B5%AC-%EB%B4%89%EB%AA%85%EB%8F%99/", "workingTime": ["1,3,5\uc9f8\uc8fc09:00~19:00", "08:30~19:00", "08:30~19:00", "08:30~19:00", "08:30~19:00", "08:30~19:00", "08:30~15:00", "-"]}, {"name": "\uc2e4\ub85c\uc554\uc57d\uad6d", "lat": "36.3537643403741", "lng": "127.3424212069325", "url": "/info/%EC%8B%A4%EB%A1%9C%EC%95%94%EC%95%BD%EA%B5%AD-%EB%8C%80%EC%A0%84%EA%B4%91%EC%97%AD%EC%8B%9C-%EC%9C%A0%EC%84%B1%EA%B5%AC-%EB%B4%89%EB%AA%85%EB%8F%99/", "workingTime": ["-", "09:00~19:30", "09:00~19:30", "09:00~19:30", "09:00~19:30", "09:00~19:30", "09:00~14:30", "09:30~12:00"]}, {"name": "\uc720\uc131\uac74\uac15\uc57d\uad6d", "lat": "36.3530369370161", "lng": "127.348512739783", "url": "/info/%EC%9C%A0%EC%84%B1%EA%B1%B4%EA%B0%95%EC%95%BD%EA%B5%AD-%EB%8C%80%EC%A0%84%EA%B4%91%EC%97%AD%EC%8B%9C-%EC%9C%A0%EC%84%B1%EA%B5%AC-%EB%B4%89%EB%AA%85%EB%8F%99/", "workingTime": ["-", "09:00~18:30", "09:00~18:30", "09:00~18:30", "09:00~18:30", "09:00~18:30", "09:00~13:30", "-"]}, {"name": "\ubd09\uba85\uba54\ub514\uce7c\uc57d\uad6d", "lat": "36.35264680162126", "lng": "127.34372718867579", "url": "/info/%EB%B4%89%EB%AA%85%EB%A9%94%EB%94%94%EC%B9%BC%EC%95%BD%EA%B5%AD-%EB%8C%80%EC%A0%84%EA%B4%91%EC%97%AD%EC%8B%9C-%EC%9C%A0%EC%84%B1%EA%B5%AC-%EB%B4%89%EB%AA%85%EB%8F%99/", "workingTime": ["1,2,3,4,5\uc9f8\uc8fc09:00~20:00", "08:00~23:00", "08:00~23:00", "08:00~23:00", "08:00~23:00", "08:00~23:00", "08:00~22:00", "09:00~20:00"]}, {"name": "\uc6f0\ube59\uc57d\uad6d", "lat": "36.3526633842", "lng": "127.3429741507", "url": "/info/%EC%9B%B0%EB%B9%99%EC%95%BD%EA%B5%AD-%EB%8C%80%EC%A0%84%EA%B4%91%EC%97%AD%EC%8B%9C-%EC%9C%A0%EC%84%B1%EA%B5%AC-%EB%B4%89%EB%AA%85%EB%8F%99/", "workingTime": ["1,2,3,4,5\uc9f8\uc8fc10:00~13:30", "09:00~20:30", "09:00~20:30", "09:00~20:30", "09:00~20:30", "09:00~20:30", "09:00~16:30", "10:00~13:30"]}, {"name": "\uc62c\ubc14\ub978\uc57d\uad6d", "lat": "36.3520089917937", "lng": "127.34614757653", "url": "/info/%EC%98%AC%EB%B0%94%EB%A5%B8%EC%95%BD%EA%B5%AD-%EB%8C%80%EC%A0%84%EA%B4%91%EC%97%AD%EC%8B%9C-%EC%9C%A0%EC%84%B1%EA%B5%AC-%EB%B4%89%EB%AA%85%EB%8F%99/", "workingTime": ["-", "09:00~18:00", "09:00~18:00", "09:00~18:00", "09:00~18:00", "09:00~18:00", "09:00~13:00", "-"]}, {"name": "\ub354\uc870\uc740\uc57d\uad6d", "lat": "36.3549242643", "lng": "127.3414599778", "url": "/info/%EB%8D%94%EC%A1%B0%EC%9D%80%EC%95%BD%EA%B5%AD-%EB%8C%80%EC%A0%84%EA%B4%91%EC%97%AD%EC%8B%9C-%EC%9C%A0%EC%84%B1%EA%B5%AC-%EB%B4%89%EB%AA%85%EB%8F%99/", "workingTime": ["-", "09:00~18:00", "09:00~18:00", "09:00~18:00", "09:00~18:00", "09:00~18:00", "09:00~17:00", "-"]}, {"name": "\ud61c\ud654\uc628\ub204\ub9ac\uc57d\uad6d", "lat": "36.34564384321009", "lng": "127.34086692580398", "url": "/info/%ED%98%9C%ED%99%94%EC%98%A8%EB%88%84%EB%A6%AC%EC%95%BD%EA%B5%AD-%EB%8C%80%EC%A0%84%EA%B4%91%EC%97%AD%EC%8B%9C-%EC%9C%A0%EC%84%B1%EA%B5%AC-%EB%B4%89%EB%AA%85%EB%8F%99/", "workingTime": ["-", "09:00~20:00", "09:00~20:00", "09:00~20:00", "09:00~20:00", "09:00~20:00", "09:00~16:00", "-"]}, {"name": "\uc720\uc131365\uc57d\uad6d", "lat": "36.357559700048", "lng": "127.343396052745", "url": "/info/%EC%9C%A0%EC%84%B1365%EC%95%BD%EA%B5%AD-%EB%8C%80%EC%A0%84%EA%B4%91%EC%97%AD%EC%8B%9C-%EC%9C%A0%EC%84%B1%EA%B5%AC-%EB%B4%89%EB%AA%85%EB%8F%99/", "workingTime": ["1,2,3,4,5\uc9f8\uc8fc09:30~18:00", "09:30~22:00", "09:30~22:00", "09:30~22:00", "09:30~22:00", "09:30~22:00", "09:30~22:00", "09:30~18:00"]}, {"name": "\ubbf8\uc18c\uc57d\uad6d", "lat": "36.35014435173073", "lng": "127.33892520686149", "url": "/info/%EB%AF%B8%EC%86%8C%EC%95%BD%EA%B5%AD-%EB%8C%80%EC%A0%84%EA%B4%91%EC%97%AD%EC%8B%9C-%EC%9C%A0%EC%84%B1%EA%B5%AC-%EB%B4%89%EB%AA%85%EB%8F%99/", "workingTime": ["1,2,3,4,5\uc9f8\uc8fc09:00~22:00", "09:00~21:00", "09:00~21:00", "09:00~21:00", "09:00~21:00", "09:00~21:00", "09:00~21:00", "09:00~22:00"]}, {"name": "\uc720\uc131\ud55c\uc0ac\ub791\uc57d\uad6d", "lat": "36.35532678038533", "lng": "127.35060105408232", "url": "/info/%EC%9C%A0%EC%84%B1%ED%95%9C%EC%82%AC%EB%9E%91%EC%95%BD%EA%B5%AD-%EB%8C%80%EC%A0%84%EA%B4%91%EC%97%AD%EC%8B%9C-%EC%9C%A0%EC%84%B1%EA%B5%AC-%EB%B4%89%EB%AA%85%EB%8F%99/", "workingTime": ["-", "08:30~18:30", "08:30~18:30", "08:30~18:30", "08:30~18:30", "08:30~18:30", "08:30~13:00", "-"]}, {"name": "\ud587\uc0b4\uc57d\uad6d", "lat": "36.332574849", "lng": "127.3390056546", "url": "/info/%ED%96%87%EC%82%B4%EC%95%BD%EA%B5%AD-%EB%8C%80%EC%A0%84%EA%B4%91%EC%97%AD%EC%8B%9C-%EC%9C%A0%EC%84%B1%EA%B5%AC-%EB%B4%89%EB%AA%85%EB%8F%99/", "workingTime": ["-", "09:00~19:30", "09:00~19:30", "09:00~19:30", "09:00~19:30", "09:00~19:30", "09:00~14:30", "-"]}, {"name": "\ud55c\ub9bc\uc6d0\ud55c\uc57d\uad6d", "lat": "36.3541141352394", "lng": "127.341166330541", "url": "/info/%ED%95%9C%EB%A6%BC%EC%9B%90%ED%95%9C%EC%95%BD%EA%B5%AD-%EB%8C%80%EC%A0%84%EA%B4%91%EC%97%AD%EC%8B%9C-%EC%9C%A0%EC%84%B1%EA%B5%AC-%EB%B4%89%EB%AA%85%EB%8F%99/", "workingTime": ["-", "10:00~19:00", "10:00~19:00", "10:00~19:00", "10:00~19:00", "10:00~19:00", "-", "-"]}, {"name": "\uc194\ub85c\ubaac\uc57d\uad6d", "lat": "36.355231233039504", "lng": "127.3412607794084", "url": "/info/%EC%86%94%EB%A1%9C%EB%AA%AC%EC%95%BD%EA%B5%AD-%EB%8C%80%EC%A0%84%EA%B4%91%EC%97%AD%EC%8B%9C-%EC%9C%A0%EC%84%B1%EA%B5%AC-%EB%B4%89%EB%AA%85%EB%8F%99/", "workingTime": ["1,2,3,4,5\uc9f8\uc8fc10:00~16:00", "09:00~20:00", "09:00~20:00", "09:00~20:00", "09:00~20:00", "09:00~20:00", "09:00~18:00", "10:00~16:00"]}, {"name": "\uc720\uc131\ubbf8\ub798\uc57d\uad6d", "lat": "36.35170716325456", "lng": "127.34706004548197", "url": "/info/%EC%9C%A0%EC%84%B1%EB%AF%B8%EB%9E%98%EC%95%BD%EA%B5%AD-%EB%8C%80%EC%A0%84%EA%B4%91%EC%97%AD%EC%8B%9C-%EC%9C%A0%EC%84%B1%EA%B5%AC-%EB%B4%89%EB%AA%85%EB%8F%99/", "workingTime": ["1,2,3,4,5\uc9f8\uc8fc09:00~22:00", "08:00~22:00", "08:00~22:00", "08:00~22:00", "08:00~22:00", "08:00~22:00", "08:00~22:00", "09:00~22:00"]}, {"name": "\uc5f4\ub9b0\uc57d\uad6d", "lat": "36.35562297062556", "lng": "127.33525002556783", "url": "/info/%EC%97%B4%EB%A6%B0%EC%95%BD%EA%B5%AD-%EB%8C%80%EC%A0%84%EA%B4%91%EC%97%AD%EC%8B%9C-%EC%9C%A0%EC%84%B1%EA%B5%AC-%EB%B4%89%EB%AA%85%EB%8F%99/", "workingTime": ["-", "09:00~20:00", "09:00~20:00", "09:00~20:00", "09:00~20:00", "09:00~20:00", "09:00~20:00", "09:00~20:00"]}, {"name": "\uc720\uba85\uc57d\uad6d", "lat": "36.354492535015105", "lng": "127.33990281495495", "url": "/info/%EC%9C%A0%EB%AA%85%EC%95%BD%EA%B5%AD-%EB%8C%80%EC%A0%84%EA%B4%91%EC%97%AD%EC%8B%9C-%EC%9C%A0%EC%84%B1%EA%B5%AC-%EB%B4%89%EB%AA%85%EB%8F%99/", "workingTime": ["-", "08:00~20:30", "08:00~20:30", "08:00~20:30", "08:00~20:30", "08:00~20:30", "08:00~15:00", "-"]}, {"name": "\ub9d8e\ud3b8\ud55c\uc57d\uad6d", "lat": "36.3522406801", "lng": "127.3445587226", "url": "/info/%EB%A7%98e%ED%8E%B8%ED%95%9C%EC%95%BD%EA%B5%AD-%EB%8C%80%EC%A0%84%EA%B4%91%EC%97%AD%EC%8B%9C-%EC%9C%A0%EC%84%B1%EA%B5%AC-%EB%B4%89%EB%AA%85%EB%8F%99/", "workingTime": ["-", "09:30~19:00", "09:30~19:00", "09:30~19:00", "09:30~19:00", "09:30~19:00", "09:30~15:00", "-"]}, {"name": "\ud574\uc624\ub984\uc57d\uad6d", "lat": "36.35846988604705", "lng": "127.35434078788735", "url": "/info/%ED%95%B4%EC%98%A4%EB%A6%84%EC%95%BD%EA%B5%AD-%EB%8C%80%EC%A0%84%EA%B4%91%EC%97%AD%EC%8B%9C-%EC%9C%A0%EC%84%B1%EA%B5%AC-%EB%B4%89%EB%AA%85%EB%8F%99/", "workingTime": ["1,3,5\uc9f8\uc8fc10:00~22:00", "10:00~22:00", "10:00~22:00", "10:00~22:00", "10:00~22:00", "10:00~22:00", "10:00~22:00", "10:00~22:00"]}, {"name": "\uad6d\ubbfc\uc57d\uad6d", "lat": "36.355097222222220", "lng": "127.335752777777785", "url": "/info/%EA%B5%AD%EB%AF%BC%EC%95%BD%EA%B5%AD-%EB%8C%80%EC%A0%84%EA%B4%91%EC%97%AD%EC%8B%9C-%EC%9C%A0%EC%84%B1%EA%B5%AC-%EB%B4%89%EB%AA%85%EB%8F%99/", "workingTime": ["1,2,3,4,5\uc9f8\uc8fc08:30~17:00", "08:30~19:00", "08:30~19:00", "08:30~19:00", "08:30~19:00", "08:30~19:00", "08:30~17:00", "-"]}, {"name": "\uc720\uc131\ud558\ub098\uc57d\uad6d", "lat": "36.35355627121403", "lng": "127.34080266356688", "url": "/info/%EC%9C%A0%EC%84%B1%ED%95%98%EB%82%98%EC%95%BD%EA%B5%AD-%EB%8C%80%EC%A0%84%EA%B4%91%EC%97%AD%EC%8B%9C-%EC%9C%A0%EC%84%B1%EA%B5%AC-%EB%B4%89%EB%AA%85%EB%8F%99/", "workingTime": ["-", "09:00~18:30", "09:00~18:30", "09:00~18:30", "09:00~18:30", "09:00~18:30", "09:00~16:30", "-"]}, {"name": "\ud2bc\ud2bc\uc57d\uad6d", "lat": "36.3460030504", "lng": "127.3413096253", "url": "/info/%ED%8A%BC%ED%8A%BC%EC%95%BD%EA%B5%AD-%EB%8C%80%EC%A0%84%EA%B4%91%EC%97%AD%EC%8B%9C-%EC%9C%A0%EC%84%B1%EA%B5%AC-%EB%B4%89%EB%AA%85%EB%8F%99/", "workingTime": ["-", "09:00~19:00", "09:00~19:00", "09:00~19:00", "09:00~19:00", "09:00~19:00", "09:00~13:00", "-"]}, {"name": "\ube44\ud0c0\ubbfc\ud0dc\ud3c9\uc591\uc57d\uad6d", "lat": "36.35916397368939", "lng": "127.35244094585225", "url": "/info/%EB%B9%84%ED%83%80%EB%AF%BC%ED%83%9C%ED%8F%89%EC%96%91%EC%95%BD%EA%B5%AD-%EB%8C%80%EC%A0%84%EA%B4%91%EC%97%AD%EC%8B%9C-%EC%9C%A0%EC%84%B1%EA%B5%AC-%EB%B4%89%EB%AA%85%EB%8F%99/", "workingTime": ["-", "09:00~20:30", "09:00~20:30", "09:00~20:30", "09:00~20:30", "09:00~18:30", "09:00~16:00", "-"]}, {"name": "\uc0dd\uc218\uc57d\uad6d", "lat": "36.35472614827396", "lng": "127.34141009215931", "url": "/info/%EC%83%9D%EC%88%98%EC%95%BD%EA%B5%AD-%EB%8C%80%EC%A0%84%EA%B4%91%EC%97%AD%EC%8B%9C-%EC%9C%A0%EC%84%B1%EA%B5%AC-%EB%B4%89%EB%AA%85%EB%8F%99/", "workingTime": ["-", "09:00~21:00", "09:00~21:00", "09:00~19:30", "09:00~21:00", "09:00~19:30", "09:00~21:00", "-"]}, {"name": "\ucc38\ub2e4\uc19c\uc57d\uad6d", "lat": "36.3525156871", "lng": "127.3441945205", "url": "/info/%EC%B0%B8%EB%8B%A4%EC%86%9C%EC%95%BD%EA%B5%AD-%EB%8C%80%EC%A0%84%EA%B4%91%EC%97%AD%EC%8B%9C-%EC%9C%A0%EC%84%B1%EA%B5%AC-%EB%B4%89%EB%AA%85%EB%8F%99/", "workingTime": ["1,2,3,4,5\uc9f8\uc8fc09:00~13:00", "09:00~20:00", "09:00~20:00", "09:00~20:00", "09:00~20:00", "09:00~20:00", "09:00~18:00", "09:00~13:00"]}, {"name": "\uc2dc\ud2f0\ud31c\uc57d\uad6d", "lat": "36.3531601544185", "lng": "127.340786055599", "url": "/info/%EC%8B%9C%ED%8B%B0%ED%8C%9C%EC%95%BD%EA%B5%AD-%EB%8C%80%EC%A0%84%EA%B4%91%EC%97%AD%EC%8B%9C-%EC%9C%A0%EC%84%B1%EA%B5%AC-%EB%B4%89%EB%AA%85%EB%8F%99/", "workingTime": ["-", "09:00~20:00", "09:00~20:00", "09:00~20:00", "09:00~20:00", "09:00~21:00", "09:00~17:00", "-"]}, {"name": "\ubca0\uc2a4\ud2b8\ud790\ub9c1\uc57d\uad6d", "lat": "36.3592409789097", "lng": "127.343065958444", "url": "/info/%EB%B2%A0%EC%8A%A4%ED%8A%B8%ED%9E%90%EB%A7%81%EC%95%BD%EA%B5%AD-%EB%8C%80%EC%A0%84%EA%B4%91%EC%97%AD%EC%8B%9C-%EC%9C%A0%EC%84%B1%EA%B5%AC-%EB%B4%89%EB%AA%85%EB%8F%99/", "workingTime": ["-", "09:00~20:00", "09:00~20:00", "09:00~20:00", "09:00~20:00", "09:00~20:00", "09:00~16:00", "-"]}]