[{"name": "\ubbf8\uc18c\uc57d\uad6d", "lat": "36.450337894932", "lng": "127.427113327187", "url": "/info/%EB%AF%B8%EC%86%8C%EC%95%BD%EA%B5%AD-%EB%8C%80%EC%A0%84%EA%B4%91%EC%97%AD%EC%8B%9C-%EB%8C%80%EB%8D%95%EA%B5%AC-%EC%84%9D%EB%B4%89%EB%8F%99/", "workingTime": ["-", "08:30~19:00", "08:30~19:00", "08:30~19:00", "08:30~19:00", "08:30~19:00", "08:30~13:00", "-"]}, {"name": "\ubcf4\uac74\ub2f9\uc57d\uad6d", "lat": "36.45020848937354", "lng": "127.42506820381737", "url": "/info/%EB%B3%B4%EA%B1%B4%EB%8B%B9%EC%95%BD%EA%B5%AD-%EB%8C%80%EC%A0%84%EA%B4%91%EC%97%AD%EC%8B%9C-%EB%8C%80%EB%8D%95%EA%B5%AC-%EC%84%9D%EB%B4%89%EB%8F%99/", "workingTime": ["-", "09:00~18:30", "09:00~18:30", "09:00~18:30", "09:00~18:30", "09:00~18:30", "09:00~14:00", "-"]}, {"name": "\uc2e0\ud0c4\ub300\ud55c\uc57d\uad6d", "lat": "36.4442683825", "lng": "127.4259860984", "url": "/info/%EC%8B%A0%ED%83%84%EB%8C%80%ED%95%9C%EC%95%BD%EA%B5%AD-%EB%8C%80%EC%A0%84%EA%B4%91%EC%97%AD%EC%8B%9C-%EB%8C%80%EB%8D%95%EA%B5%AC-%EC%84%9D%EB%B4%89%EB%8F%99/", "workingTime": ["-", "09:00~20:00", "09:00~20:00", "09:00~20:00", "09:00~20:00", "09:00~20:00", "09:00~18:00", "-"]}, {"name": "\uc2e0\ud0c4\uc120\uc0ac\uc57d\uad6d", "lat": "36.44862528660933", "lng": "127.42129520936146", "url": "/info/%EC%8B%A0%ED%83%84%EC%84%A0%EC%82%AC%EC%95%BD%EA%B5%AD-%EB%8C%80%EC%A0%84%EA%B4%91%EC%97%AD%EC%8B%9C-%EB%8C%80%EB%8D%95%EA%B5%AC-%EC%84%9D%EB%B4%89%EB%8F%99/", "workingTime": ["-", "08:30~19:30", "08:30~19:30", "08:30~19:30", "08:30~19:30", "08:30~19:30", "08:30~13:30", "-"]}, {"name": "\uc5d1\uc2ac\ub8e8\uc57d\uad6d", "lat": "36.44940566452317", "lng": "127.41968959505865", "url": "/info/%EC%97%91%EC%8A%AC%EB%A3%A8%EC%95%BD%EA%B5%AD-%EB%8C%80%EC%A0%84%EA%B4%91%EC%97%AD%EC%8B%9C-%EB%8C%80%EB%8D%95%EA%B5%AC-%EC%84%9D%EB%B4%89%EB%8F%99/", "workingTime": ["-", "09:00~19:00", "09:00~19:00", "09:00~19:00", "09:00~19:00", "09:00~19:00", "09:00~14:00", "-"]}, {"name": "\ud0dc\ud3c9\uc591\uc57d\uad6d", "lat": "36.44928596864525", "lng": "127.4209998315109", "url": "/info/%ED%83%9C%ED%8F%89%EC%96%91%EC%95%BD%EA%B5%AD-%EB%8C%80%EC%A0%84%EA%B4%91%EC%97%AD%EC%8B%9C-%EB%8C%80%EB%8D%95%EA%B5%AC-%EC%84%9D%EB%B4%89%EB%8F%99/", "workingTime": ["1,2,3,4,5\uc9f8\uc8fc09:00~22:00", "08:00~22:00", "08:00~22:00", "08:00~22:00", "08:00~22:00", "08:00~22:00", "09:00~22:00", "09:00~22:00"]}, {"name": "\uc0c8\ube5b\uc57d\uad6d", "lat": "36.45056691143541", "lng": "127.4247145074343", "url": "/info/%EC%83%88%EB%B9%9B%EC%95%BD%EA%B5%AD-%EB%8C%80%EC%A0%84%EA%B4%91%EC%97%AD%EC%8B%9C-%EB%8C%80%EB%8D%95%EA%B5%AC-%EC%84%9D%EB%B4%89%EB%8F%99/", "workingTime": ["1,2,3,4,5\uc9f8\uc8fc13:00~18:00", "09:00~20:00", "09:00~19:00", "09:00~19:00", "09:00~20:00", "09:00~19:00", "08:30~14:00", "08:30~14:00"]}, {"name": "\uc0c8\uc77c\uc57d\uad6d", "lat": "36.450416049902714", "lng": "127.4265015899389", "url": "/info/%EC%83%88%EC%9D%BC%EC%95%BD%EA%B5%AD-%EB%8C%80%EC%A0%84%EA%B4%91%EC%97%AD%EC%8B%9C-%EB%8C%80%EB%8D%95%EA%B5%AC-%EC%84%9D%EB%B4%89%EB%8F%99/", "workingTime": ["-", "09:00~18:30", "09:00~18:30", "09:00~18:30", "09:00~18:30", "09:00~18:30", "09:00~13:00", "-"]}]