[{"name": "\ub300\uccad\uac74\uac15\uc57d\uad6d", "lat": "36.30812977835784", "lng": "127.36988893226605", "url": "/info/%EB%8C%80%EC%B2%AD%EA%B1%B4%EA%B0%95%EC%95%BD%EA%B5%AD-%EB%8C%80%EC%A0%84%EA%B4%91%EC%97%AD%EC%8B%9C-%EC%84%9C%EA%B5%AC-%EC%A0%95%EB%A6%BC%EB%8F%99/", "workingTime": ["-", "08:30~18:00", "08:30~18:00", "08:30~18:00", "08:30~18:00", "08:30~18:00", "08:30~13:00", "-"]}, {"name": "\uad7f\ubaa8\ub2dd\uc57d\uad6d", "lat": "36.30750645428615", "lng": "127.36510271155194", "url": "/info/%EA%B5%BF%EB%AA%A8%EB%8B%9D%EC%95%BD%EA%B5%AD-%EB%8C%80%EC%A0%84%EA%B4%91%EC%97%AD%EC%8B%9C-%EC%84%9C%EA%B5%AC-%EC%A0%95%EB%A6%BC%EB%8F%99/", "workingTime": ["-", "09:00~17:30", "09:00~17:30", "09:00~17:30", "09:00~17:30", "09:00~17:30", "09:00~16:00", "-"]}, {"name": "\ud0dc\ud3c9\uc591\uc57d\uad6d", "lat": "36.30549363654703", "lng": "127.36554761241666", "url": "/info/%ED%83%9C%ED%8F%89%EC%96%91%EC%95%BD%EA%B5%AD-%EB%8C%80%EC%A0%84%EA%B4%91%EC%97%AD%EC%8B%9C-%EC%84%9C%EA%B5%AC-%EC%A0%95%EB%A6%BC%EB%8F%99/", "workingTime": ["-", "09:00~20:30", "09:00~20:30", "09:00~20:30", "09:00~20:30", "09:00~20:30", "09:00~18:00", "09:00~18:00"]}, {"name": "\ub300\uccad\uc815\ubb38\uc57d\uad6d", "lat": "36.30812977835784", "lng": "127.36988893226605", "url": "/info/%EB%8C%80%EC%B2%AD%EC%A0%95%EB%AC%B8%EC%95%BD%EA%B5%AD-%EB%8C%80%EC%A0%84%EA%B4%91%EC%97%AD%EC%8B%9C-%EC%84%9C%EA%B5%AC-%EC%A0%95%EB%A6%BC%EB%8F%99/", "workingTime": ["-", "08:30~18:30", "08:30~18:30", "08:30~18:30", "08:30~18:30", "08:30~18:30", "08:30~13:30", "-"]}, {"name": "\ub298\uc870\uc740\uc57d\uad6d", "lat": "36.30593382198155", "lng": "127.36542049429786", "url": "/info/%EB%8A%98%EC%A1%B0%EC%9D%80%EC%95%BD%EA%B5%AD-%EB%8C%80%EC%A0%84%EA%B4%91%EC%97%AD%EC%8B%9C-%EC%84%9C%EA%B5%AC-%EC%A0%95%EB%A6%BC%EB%8F%99/", "workingTime": ["-", "09:00~20:00", "09:00~20:00", "09:00~20:00", "09:00~20:00", "09:00~20:00", "09:00~16:30", "-"]}, {"name": "\uc6b0\uc131\uc57d\uad6d", "lat": "36.305491666666668", "lng": "127.365611111111107", "url": "/info/%EC%9A%B0%EC%84%B1%EC%95%BD%EA%B5%AD-%EB%8C%80%EC%A0%84%EA%B4%91%EC%97%AD%EC%8B%9C-%EC%84%9C%EA%B5%AC-%EC%A0%95%EB%A6%BC%EB%8F%99/", "workingTime": ["-", "09:00~18:00", "09:00~18:00", "09:00~18:00", "09:00~18:00", "09:00~18:00", "09:00~14:30", "-"]}, {"name": "\uc815\ub9bc\uc885\ub85c\uc57d\uad6d", "lat": "36.3072784457885", "lng": "127.36439352256468", "url": "/info/%EC%A0%95%EB%A6%BC%EC%A2%85%EB%A1%9C%EC%95%BD%EA%B5%AD-%EB%8C%80%EC%A0%84%EA%B4%91%EC%97%AD%EC%8B%9C-%EC%84%9C%EA%B5%AC-%EC%A0%95%EB%A6%BC%EB%8F%99/", "workingTime": ["-", "09:00~18:30", "09:00~18:30", "09:00~18:30", "09:00~18:30", "09:00~18:30", "09:00~13:00", "-"]}, {"name": "\uc815\ub9bc\ud478\ub978\uc57d\uad6d", "lat": "36.30233674115317", "lng": "127.36645471773377", "url": "/info/%EC%A0%95%EB%A6%BC%ED%91%B8%EB%A5%B8%EC%95%BD%EA%B5%AD-%EB%8C%80%EC%A0%84%EA%B4%91%EC%97%AD%EC%8B%9C-%EC%84%9C%EA%B5%AC-%EC%A0%95%EB%A6%BC%EB%8F%99/", "workingTime": ["-", "09:00~20:00", "09:00~20:00", "09:00~20:00", "09:00~20:00", "09:00~20:00", "09:00~17:00", "-"]}]