[{"name": "\uc120\uc77c\uc57d\uad6d", "lat": "36.32858109556677", "lng": "127.4209087248053", "url": "/info/%EC%84%A0%EC%9D%BC%EC%95%BD%EA%B5%AD-%EB%8C%80%EC%A0%84%EA%B4%91%EC%97%AD%EC%8B%9C-%EC%A4%91%EA%B5%AC-%EC%84%A0%ED%99%94%EB%8F%99/", "workingTime": ["-", "09:00~18:00", "09:00~18:00", "09:00~18:00", "09:00~18:00", "09:00~18:00", "-", "-"]}, {"name": "\ub300\uc6b0\uc57d\uad6d", "lat": "36.328074999999998", "lng": "127.423688888888890", "url": "/info/%EB%8C%80%EC%9A%B0%EC%95%BD%EA%B5%AD-%EB%8C%80%EC%A0%84%EA%B4%91%EC%97%AD%EC%8B%9C-%EC%A4%91%EA%B5%AC-%EC%84%A0%ED%99%94%EB%8F%99/", "workingTime": ["1,2,3,4,5\uc9f8\uc8fc08:00~25:00", "08:00~25:00", "08:00~25:00", "08:00~25:00", "08:00~25:00", "08:00~25:00", "08:00~25:00", "08:00~25:00"]}, {"name": "\ucc38\ud3b8\ud55c\uc57d\uad6d", "lat": "36.33381883559546", "lng": "127.41465947615737", "url": "/info/%EC%B0%B8%ED%8E%B8%ED%95%9C%EC%95%BD%EA%B5%AD-%EB%8C%80%EC%A0%84%EA%B4%91%EC%97%AD%EC%8B%9C-%EC%A4%91%EA%B5%AC-%EC%84%A0%ED%99%94%EB%8F%99/", "workingTime": ["-", "08:30~19:00", "08:30~19:00", "08:30~19:00", "08:30~19:00", "08:30~19:00", "08:30~13:00", "-"]}, {"name": "\ud070\uc0ac\ub791\uc57d\uad6d", "lat": "36.333572222222223", "lng": "127.414938888888884", "url": "/info/%ED%81%B0%EC%82%AC%EB%9E%91%EC%95%BD%EA%B5%AD-%EB%8C%80%EC%A0%84%EA%B4%91%EC%97%AD%EC%8B%9C-%EC%A4%91%EA%B5%AC-%EC%84%A0%ED%99%94%EB%8F%99/", "workingTime": ["-", "09:00~19:00", "09:00~19:00", "09:00~19:00", "09:00~19:00", "09:00~19:00", "09:00~14:00", "-"]}, {"name": "\ub300\ud55c\uc57d\uad6d", "lat": "36.328158333333334", "lng": "127.423941666666664", "url": "/info/%EB%8C%80%ED%95%9C%EC%95%BD%EA%B5%AD-%EB%8C%80%EC%A0%84%EA%B4%91%EC%97%AD%EC%8B%9C-%EC%A4%91%EA%B5%AC-%EC%84%A0%ED%99%94%EB%8F%99/", "workingTime": ["1,2,3,4,5\uc9f8\uc8fc12:00~23:00", "09:00~23:00", "09:00~23:00", "09:00~23:00", "09:00~23:00", "09:00~23:00", "09:00~23:00", "12:00~23:00"]}, {"name": "\uc6d0\uc815\uc57d\uad6d", "lat": "36.329269444444442", "lng": "127.423500000000004", "url": "/info/%EC%9B%90%EC%A0%95%EC%95%BD%EA%B5%AD-%EB%8C%80%EC%A0%84%EA%B4%91%EC%97%AD%EC%8B%9C-%EC%A4%91%EA%B5%AC-%EC%84%A0%ED%99%94%EB%8F%99/", "workingTime": ["1,2,3,4,5\uc9f8\uc8fc09:00~20:00", "08:30~21:00", "08:30~21:00", "08:30~21:00", "08:30~21:00", "08:30~21:00", "09:00~20:00", "09:00~20:00"]}]