[{"name": "\uc6b0\ucc3d\uc57d\uad6d", "lat": "35.09328895819701", "lng": "129.04463468871666", "url": "/info/%EC%9A%B0%EC%B0%BD%EC%95%BD%EA%B5%AD-%EB%B6%80%EC%82%B0%EA%B4%91%EC%97%AD%EC%8B%9C-%EC%98%81%EB%8F%84%EA%B5%AC-%EB%B4%89%EB%9E%98%EB%8F%993%EA%B0%80/", "workingTime": ["-", "09:30~19:00", "09:30~19:00", "09:30~19:00", "09:30~19:00", "09:30~19:00", "-", "-"]}, {"name": "\uc601\ub3c4\uc0ac\ub791\uc57d\uad6d", "lat": "35.0920694438", "lng": "129.04406040980265", "url": "/info/%EC%98%81%EB%8F%84%EC%82%AC%EB%9E%91%EC%95%BD%EA%B5%AD-%EB%B6%80%EC%82%B0%EA%B4%91%EC%97%AD%EC%8B%9C-%EC%98%81%EB%8F%84%EA%B5%AC-%EB%B4%89%EB%9E%98%EB%8F%993%EA%B0%80/", "workingTime": ["-", "09:00~18:30", "09:00~18:30", "09:00~18:30", "09:00~18:30", "09:00~18:30", "09:00~13:00", "-"]}, {"name": "\uc0b0\uc18c\ub9dd\uc57d\uad6d", "lat": "35.0926742287593", "lng": "129.044246989721", "url": "/info/%EC%82%B0%EC%86%8C%EB%A7%9D%EC%95%BD%EA%B5%AD-%EB%B6%80%EC%82%B0%EA%B4%91%EC%97%AD%EC%8B%9C-%EC%98%81%EB%8F%84%EA%B5%AC-%EB%B4%89%EB%9E%98%EB%8F%993%EA%B0%80/", "workingTime": ["-", "09:00~19:00", "09:00~19:00", "09:00~19:00", "09:00~19:00", "09:00~19:00", "09:00~15:00", "-"]}, {"name": "\ub3d9\ud574\uc57d\uad6d", "lat": "35.09223385739501", "lng": "129.04416564207847", "url": "/info/%EB%8F%99%ED%95%B4%EC%95%BD%EA%B5%AD-%EB%B6%80%EC%82%B0%EA%B4%91%EC%97%AD%EC%8B%9C-%EC%98%81%EB%8F%84%EA%B5%AC-%EB%B4%89%EB%9E%98%EB%8F%993%EA%B0%80/", "workingTime": ["1,2,3,4,5\uc9f8\uc8fc09:00~18:00", "08:30~21:00", "08:30~21:00", "08:30~21:00", "08:30~21:00", "08:30~21:00", "09:00~18:00", "09:00~18:00"]}, {"name": "\uac15\uc57d\uad6d", "lat": "35.09209166666666", "lng": "129.04300555555687", "url": "/info/%EA%B0%95%EC%95%BD%EA%B5%AD-%EB%B6%80%EC%82%B0%EA%B4%91%EC%97%AD%EC%8B%9C-%EC%98%81%EB%8F%84%EA%B5%AC-%EB%B4%89%EB%9E%98%EB%8F%993%EA%B0%80/", "workingTime": ["-", "09:00~19:00", "09:00~19:00", "09:00~19:00", "09:00~19:00", "09:00~19:00", "09:00~20:00", "-"]}]