[{"name": "\ud0b4\uc2a4\uc57d\uad6d", "lat": "35.26149781153198", "lng": "129.09135040815408", "url": "/info/%ED%82%B4%EC%8A%A4%EC%95%BD%EA%B5%AD-%EB%B6%80%EC%82%B0%EA%B4%91%EC%97%AD%EC%8B%9C-%EA%B8%88%EC%A0%95%EA%B5%AC-%EB%82%A8%EC%82%B0%EB%8F%99/", "workingTime": ["-", "09:00~18:00", "09:00~18:00", "09:00~18:00", "09:00~18:00", "09:00~18:00", "-", "-"]}, {"name": "\ud604\ub300\uc57d\uad6d", "lat": "35.26330440719592", "lng": "129.09172646126814", "url": "/info/%ED%98%84%EB%8C%80%EC%95%BD%EA%B5%AD-%EB%B6%80%EC%82%B0%EA%B4%91%EC%97%AD%EC%8B%9C-%EA%B8%88%EC%A0%95%EA%B5%AC-%EB%82%A8%EC%82%B0%EB%8F%99/", "workingTime": ["-", "09:00~21:00", "09:00~21:00", "09:00~19:00", "09:00~21:00", "09:00~21:00", "09:00~14:30", "-"]}, {"name": "\ud314\uc1a1\ubcf4\uac74\uc57d\uad6d", "lat": "35.27187960026865", "lng": "129.09235574017535", "url": "/info/%ED%8C%94%EC%86%A1%EB%B3%B4%EA%B1%B4%EC%95%BD%EA%B5%AD-%EB%B6%80%EC%82%B0%EA%B4%91%EC%97%AD%EC%8B%9C-%EA%B8%88%EC%A0%95%EA%B5%AC-%EB%82%A8%EC%82%B0%EB%8F%99/", "workingTime": ["-", "09:00~18:30", "09:00~18:30", "09:00~18:30", "09:00~18:30", "09:00~18:30", "09:00~14:00", "-"]}, {"name": "\ud3b8\ud55c\uc57d\uad6d", "lat": "35.2609069205411", "lng": "129.088525425824", "url": "/info/%ED%8E%B8%ED%95%9C%EC%95%BD%EA%B5%AD-%EB%B6%80%EC%82%B0%EA%B4%91%EC%97%AD%EC%8B%9C-%EA%B8%88%EC%A0%95%EA%B5%AC-%EB%82%A8%EC%82%B0%EB%8F%99/", "workingTime": ["-", "09:00~18:30", "09:00~18:30", "09:00~18:30", "09:00~18:30", "09:00~18:30", "09:00~13:30", "-"]}, {"name": "\uc815\uc6d0\uc57d\uad6d", "lat": "35.271151514799996", "lng": "129.09235457620153", "url": "/info/%EC%A0%95%EC%9B%90%EC%95%BD%EA%B5%AD-%EB%B6%80%EC%82%B0%EA%B4%91%EC%97%AD%EC%8B%9C-%EA%B8%88%EC%A0%95%EA%B5%AC-%EB%82%A8%EC%82%B0%EB%8F%99/", "workingTime": ["-", "09:00~18:30", "09:00~18:30", "09:00~18:30", "09:00~18:30", "09:00~18:30", "09:00~13:00", "-"]}, {"name": "\uc608\uc778\uc194\uc57d\uad6d", "lat": "35.265296155299296", "lng": "129.08889894345808", "url": "/info/%EC%98%88%EC%9D%B8%EC%86%94%EC%95%BD%EA%B5%AD-%EB%B6%80%EC%82%B0%EA%B4%91%EC%97%AD%EC%8B%9C-%EA%B8%88%EC%A0%95%EA%B5%AC-%EB%82%A8%EC%82%B0%EB%8F%99/", "workingTime": ["-", "09:00~19:00", "09:00~19:00", "09:00~19:00", "09:00~19:00", "09:00~19:00", "09:00~14:00", "-"]}, {"name": "\uc628\ub204\ub9ac\ub0a8\uc0b0\uc57d\uad6d", "lat": "35.26104395277987", "lng": "129.08758235565847", "url": "/info/%EC%98%A8%EB%88%84%EB%A6%AC%EB%82%A8%EC%82%B0%EC%95%BD%EA%B5%AD-%EB%B6%80%EC%82%B0%EA%B4%91%EC%97%AD%EC%8B%9C-%EA%B8%88%EC%A0%95%EA%B5%AC-%EB%82%A8%EC%82%B0%EB%8F%99/", "workingTime": ["-", "09:00~19:00", "09:00~19:00", "09:00~19:00", "09:00~19:00", "09:00~19:00", "09:00~14:00", "-"]}, {"name": "\uc2a4\ub9c8\uc77c\uc57d\uad6d", "lat": "35.269682573392274", "lng": "129.08996630729612", "url": "/info/%EC%8A%A4%EB%A7%88%EC%9D%BC%EC%95%BD%EA%B5%AD-%EB%B6%80%EC%82%B0%EA%B4%91%EC%97%AD%EC%8B%9C-%EA%B8%88%EC%A0%95%EA%B5%AC-%EB%82%A8%EC%82%B0%EB%8F%99/", "workingTime": ["-", "09:00~19:00", "09:00~19:00", "09:00~19:00", "09:00~19:00", "09:00~19:00", "09:00~13:00", "-"]}, {"name": "\uc0d8\uc19f\ub294\uc57d\uad6d", "lat": "35.265456902", "lng": "129.0921114134", "url": "/info/%EC%83%98%EC%86%9F%EB%8A%94%EC%95%BD%EA%B5%AD-%EB%B6%80%EC%82%B0%EA%B4%91%EC%97%AD%EC%8B%9C-%EA%B8%88%EC%A0%95%EA%B5%AC-%EB%82%A8%EC%82%B0%EB%8F%99/", "workingTime": ["-", "09:00~22:00", "09:00~22:00", "09:00~22:00", "09:00~22:00", "09:00~22:00", "09:00~13:00", "09:00~13:00"]}, {"name": "\ub9d1\uc740\uc57d\uad6d", "lat": "35.26525176091113", "lng": "129.0920929529803", "url": "/info/%EB%A7%91%EC%9D%80%EC%95%BD%EA%B5%AD-%EB%B6%80%EC%82%B0%EA%B4%91%EC%97%AD%EC%8B%9C-%EA%B8%88%EC%A0%95%EA%B5%AC-%EB%82%A8%EC%82%B0%EB%8F%99/", "workingTime": ["-", "09:00~18:30", "09:00~18:30", "09:00~18:30", "09:00~18:30", "09:00~18:30", "09:00~13:00", "-"]}, {"name": "\ub300\uc6d0\uc57d\uad6d", "lat": "35.26556445896342", "lng": "129.09214494435724", "url": "/info/%EB%8C%80%EC%9B%90%EC%95%BD%EA%B5%AD-%EB%B6%80%EC%82%B0%EA%B4%91%EC%97%AD%EC%8B%9C-%EA%B8%88%EC%A0%95%EA%B5%AC-%EB%82%A8%EC%82%B0%EB%8F%99/", "workingTime": ["-", "06:00~19:00", "06:00~19:00", "-", "06:00~19:00", "06:00~19:00", "06:00~19:00", "-"]}, {"name": "\uae08\uc0d8\uc57d\uad6d", "lat": "35.27102742117542", "lng": "129.08890201927272", "url": "/info/%EA%B8%88%EC%83%98%EC%95%BD%EA%B5%AD-%EB%B6%80%EC%82%B0%EA%B4%91%EC%97%AD%EC%8B%9C-%EA%B8%88%EC%A0%95%EA%B5%AC-%EB%82%A8%EC%82%B0%EB%8F%99/", "workingTime": ["-", "08:30~18:50", "08:30~18:50", "08:30~18:50", "08:30~18:50", "08:30~18:50", "08:30~13:00", "-"]}, {"name": "\ub0a8\uc0b0\ube44\ud0c0\ubbfc\uc57d\uad6d", "lat": "35.271182499814714", "lng": "129.08889720845713", "url": "/info/%EB%82%A8%EC%82%B0%EB%B9%84%ED%83%80%EB%AF%BC%EC%95%BD%EA%B5%AD-%EB%B6%80%EC%82%B0%EA%B4%91%EC%97%AD%EC%8B%9C-%EA%B8%88%EC%A0%95%EA%B5%AC-%EB%82%A8%EC%82%B0%EB%8F%99/", "workingTime": ["-", "09:00~18:30", "09:00~18:30", "09:00~18:30", "09:00~18:30", "09:00~18:30", "09:00~13:00", "-"]}, {"name": "\ub2e4\uc0ac\ub791\uc57d\uad6d", "lat": "35.271155276827244", "lng": "129.09235119625328", "url": "/info/%EB%8B%A4%EC%82%AC%EB%9E%91%EC%95%BD%EA%B5%AD-%EB%B6%80%EC%82%B0%EA%B4%91%EC%97%AD%EC%8B%9C-%EA%B8%88%EC%A0%95%EA%B5%AC-%EB%82%A8%EC%82%B0%EB%8F%99/", "workingTime": ["-", "09:00~19:00", "09:00~19:00", "09:00~19:00", "09:00~19:00", "09:00~19:00", "09:00~15:00", "-"]}]