[{"name": "\ud589\uc6b4\uc57d\uad6d", "lat": "35.1866671781489", "lng": "128.991154296161", "url": "/info/%ED%96%89%EC%9A%B4%EC%95%BD%EA%B5%AD-%EB%B6%80%EC%82%B0%EA%B4%91%EC%97%AD%EC%8B%9C-%EC%82%AC%EC%83%81%EA%B5%AC-%EB%AA%A8%EB%9D%BC%EB%8F%99/", "workingTime": ["-", "09:00~20:00", "09:00~20:00", "09:00~20:00", "09:00~20:00", "09:00~20:00", "09:00~13:00", "09:00~13:00"]}, {"name": "\ud55c\uc77c\uc57d\uad6d", "lat": "35.190634093399574", "lng": "128.98890806491363", "url": "/info/%ED%95%9C%EC%9D%BC%EC%95%BD%EA%B5%AD-%EB%B6%80%EC%82%B0%EA%B4%91%EC%97%AD%EC%8B%9C-%EC%82%AC%EC%83%81%EA%B5%AC-%EB%AA%A8%EB%9D%BC%EB%8F%99/", "workingTime": ["-", "09:00~19:00", "09:00~19:00", "09:00~19:00", "09:00~19:00", "09:00~19:00", "09:00~16:00", "-"]}, {"name": "\uc81c\uc77c\uc57d\uad6d", "lat": "35.18591669444296", "lng": "128.99081283536674", "url": "/info/%EC%A0%9C%EC%9D%BC%EC%95%BD%EA%B5%AD-%EB%B6%80%EC%82%B0%EA%B4%91%EC%97%AD%EC%8B%9C-%EC%82%AC%EC%83%81%EA%B5%AC-%EB%AA%A8%EB%9D%BC%EB%8F%99/", "workingTime": ["-", "08:30~19:00", "08:30~19:00", "08:30~19:00", "08:30~19:00", "08:30~19:00", "08:30~14:00", "-"]}, {"name": "\ubcf4\ubb38\uc57d\uad6d", "lat": "35.1841728979", "lng": "128.9960698412", "url": "/info/%EB%B3%B4%EB%AC%B8%EC%95%BD%EA%B5%AD-%EB%B6%80%EC%82%B0%EA%B4%91%EC%97%AD%EC%8B%9C-%EC%82%AC%EC%83%81%EA%B5%AC-%EB%AA%A8%EB%9D%BC%EB%8F%99/", "workingTime": ["-", "09:00~19:00", "09:00~19:00", "09:00~19:00", "09:00~19:00", "09:00~19:00", "09:00~13:00", "-"]}, {"name": "\ubaa8\ub77c\uc5f4\ub9b0\uc57d\uad6d", "lat": "35.185554122903056", "lng": "128.9916061946502", "url": "/info/%EB%AA%A8%EB%9D%BC%EC%97%B4%EB%A6%B0%EC%95%BD%EA%B5%AD-%EB%B6%80%EC%82%B0%EA%B4%91%EC%97%AD%EC%8B%9C-%EC%82%AC%EC%83%81%EA%B5%AC-%EB%AA%A8%EB%9D%BC%EB%8F%99/", "workingTime": ["1,2,3,5\uc9f8\uc8fc09:00~13:00", "09:00~20:00", "09:00~20:00", "09:00~20:00", "09:00~20:00", "09:00~20:00", "09:00~13:00", "-"]}, {"name": "\ub3d9\uc0b0\uc57d\uad6d", "lat": "35.1906175152", "lng": "128.9915071423", "url": "/info/%EB%8F%99%EC%82%B0%EC%95%BD%EA%B5%AD-%EB%B6%80%EC%82%B0%EA%B4%91%EC%97%AD%EC%8B%9C-%EC%82%AC%EC%83%81%EA%B5%AC-%EB%AA%A8%EB%9D%BC%EB%8F%99/", "workingTime": ["-", "09:00~20:00", "09:00~20:00", "09:00~20:00", "09:00~20:00", "09:00~20:00", "09:00~20:00", "-"]}, {"name": "\ub300\uacbd\uc57d\uad6d", "lat": "35.18508370331588", "lng": "129.00464966118696", "url": "/info/%EB%8C%80%EA%B2%BD%EC%95%BD%EA%B5%AD-%EB%B6%80%EC%82%B0%EA%B4%91%EC%97%AD%EC%8B%9C-%EC%82%AC%EC%83%81%EA%B5%AC-%EB%AA%A8%EB%9D%BC%EB%8F%99/", "workingTime": ["-", "09:30~19:00", "09:30~19:00", "09:30~19:00", "09:30~19:00", "09:30~19:00", "09:30~13:00", "-"]}]