[{"name": "\uc8fc\ubbfc\uc57d\uad6d", "lat": "35.1732177102999", "lng": "129.09588043813", "url": "/info/%EC%A3%BC%EB%AF%BC%EC%95%BD%EA%B5%AD-%EB%B6%80%EC%82%B0%EA%B4%91%EC%97%AD%EC%8B%9C-%EC%97%B0%EC%A0%9C%EA%B5%AC-%EC%97%B0%EC%82%B0%EB%8F%99/", "workingTime": ["-", "09:00~19:00", "09:00~19:00", "09:00~19:00", "09:00~19:00", "09:00~19:00", "09:00~14:00", "-"]}, {"name": "\ub298\ud478\ub978\uacbd\uc131\uc57d\uad6d", "lat": "35.18797099800588", "lng": "129.10406334607967", "url": "/info/%EB%8A%98%ED%91%B8%EB%A5%B8%EA%B2%BD%EC%84%B1%EC%95%BD%EA%B5%AD-%EB%B6%80%EC%82%B0%EA%B4%91%EC%97%AD%EC%8B%9C-%EC%97%B0%EC%A0%9C%EA%B5%AC-%EC%97%B0%EC%82%B0%EB%8F%99/", "workingTime": ["-", "09:00~19:00", "09:00~19:00", "09:00~19:00", "09:00~19:00", "09:00~19:00", "09:00~13:00", "-"]}, {"name": "\ub2e4\ub098\uc740\uc57d\uad6d", "lat": "35.19160541622774", "lng": "129.08525822851655", "url": "/info/%EB%8B%A4%EB%82%98%EC%9D%80%EC%95%BD%EA%B5%AD-%EB%B6%80%EC%82%B0%EA%B4%91%EC%97%AD%EC%8B%9C-%EC%97%B0%EC%A0%9C%EA%B5%AC-%EC%97%B0%EC%82%B0%EB%8F%99/", "workingTime": ["-", "09:00~19:00", "09:00~19:00", "09:00~19:00", "09:00~19:00", "09:00~19:00", "09:00~15:00", "-"]}, {"name": "\ud478\ub978\uc57d\uad6d", "lat": "35.1875404105149", "lng": "129.107431816031", "url": "/info/%ED%91%B8%EB%A5%B8%EC%95%BD%EA%B5%AD-%EB%B6%80%EC%82%B0%EA%B4%91%EC%97%AD%EC%8B%9C-%EC%97%B0%EC%A0%9C%EA%B5%AC-%EC%97%B0%EC%82%B0%EB%8F%99/", "workingTime": ["-", "09:00~19:00", "09:00~19:00", "09:00~19:00", "09:00~19:00", "09:00~19:00", "09:00~14:00", "-"]}, {"name": "\uc2e0\uc9c4\uc57d\uad6d", "lat": "35.1857670562291", "lng": "129.08249479313935", "url": "/info/%EC%8B%A0%EC%A7%84%EC%95%BD%EA%B5%AD-%EB%B6%80%EC%82%B0%EA%B4%91%EC%97%AD%EC%8B%9C-%EC%97%B0%EC%A0%9C%EA%B5%AC-%EC%97%B0%EC%82%B0%EB%8F%99/", "workingTime": ["2,5\uc9f8\uc8fc10:00~13:00", "09:00~19:00", "09:00~19:00", "09:00~19:00", "09:00~19:00", "09:00~19:00", "09:00~15:00", "10:00~13:00"]}, {"name": "\uc5f0\uc81c\ubd04\uc57d\uad6d", "lat": "35.1817531970938", "lng": "129.078686791925", "url": "/info/%EC%97%B0%EC%A0%9C%EB%B4%84%EC%95%BD%EA%B5%AD-%EB%B6%80%EC%82%B0%EA%B4%91%EC%97%AD%EC%8B%9C-%EC%97%B0%EC%A0%9C%EA%B5%AC-%EC%97%B0%EC%82%B0%EB%8F%99/", "workingTime": ["-", "09:00~19:00", "09:00~19:00", "09:00~19:00", "09:00~19:00", "09:00~19:00", "09:00~14:00", "-"]}, {"name": "\uc544\ub78c\uc57d\uad6d", "lat": "35.18851078467126", "lng": "129.0960445700798", "url": "/info/%EC%95%84%EB%9E%8C%EC%95%BD%EA%B5%AD-%EB%B6%80%EC%82%B0%EA%B4%91%EC%97%AD%EC%8B%9C-%EC%97%B0%EC%A0%9C%EA%B5%AC-%EC%97%B0%EC%82%B0%EB%8F%99/", "workingTime": ["-", "09:00~19:30", "09:00~19:30", "09:00~19:30", "09:00~19:30", "09:00~19:30", "09:00~14:00", "-"]}, {"name": "\uccad\uc194\uc57d\uad6d", "lat": "35.1751928750611", "lng": "129.084489188292", "url": "/info/%EC%B2%AD%EC%86%94%EC%95%BD%EA%B5%AD-%EB%B6%80%EC%82%B0%EA%B4%91%EC%97%AD%EC%8B%9C-%EC%97%B0%EC%A0%9C%EA%B5%AC-%EC%97%B0%EC%82%B0%EB%8F%99/", "workingTime": ["-", "08:30~20:00", "08:30~20:00", "08:30~20:00", "08:30~20:00", "08:30~20:00", "08:30~16:00", "-"]}, {"name": "\ud587\uc0b4\uac00\ub4dd\uc57d\uad6d", "lat": "35.186612238267", "lng": "129.080820987788", "url": "/info/%ED%96%87%EC%82%B4%EA%B0%80%EB%93%9D%EC%95%BD%EA%B5%AD-%EB%B6%80%EC%82%B0%EA%B4%91%EC%97%AD%EC%8B%9C-%EC%97%B0%EC%A0%9C%EA%B5%AC-%EC%97%B0%EC%82%B0%EB%8F%99/", "workingTime": ["-", "10:00~18:00", "10:00~18:00", "10:00~18:00", "10:00~18:00", "10:00~18:00", "10:00~14:00", "-"]}, {"name": "\ud589\ubcf5\uc57d\uad6d", "lat": "35.185685997218044", "lng": "129.08238734986514", "url": "/info/%ED%96%89%EB%B3%B5%EC%95%BD%EA%B5%AD-%EB%B6%80%EC%82%B0%EA%B4%91%EC%97%AD%EC%8B%9C-%EC%97%B0%EC%A0%9C%EA%B5%AC-%EC%97%B0%EC%82%B0%EB%8F%99/", "workingTime": ["-", "09:00~19:00", "09:00~19:00", "09:00~19:00", "09:00~19:00", "09:00~19:00", "09:00~15:00", "-"]}, {"name": "\ud558\uc580\uc57d\uad6d", "lat": "35.18829291603441", "lng": "129.08422772091467", "url": "/info/%ED%95%98%EC%96%80%EC%95%BD%EA%B5%AD-%EB%B6%80%EC%82%B0%EA%B4%91%EC%97%AD%EC%8B%9C-%EC%97%B0%EC%A0%9C%EA%B5%AC-%EC%97%B0%EC%82%B0%EB%8F%99/", "workingTime": ["-", "09:00~19:00", "09:00~19:00", "09:00~19:00", "09:00~19:00", "09:00~19:00", "09:00~13:00", "-"]}, {"name": "\ud55c\uc591\uc57d\uad6d", "lat": "35.18807040080734", "lng": "129.09771241986183", "url": "/info/%ED%95%9C%EC%96%91%EC%95%BD%EA%B5%AD-%EB%B6%80%EC%82%B0%EA%B4%91%EC%97%AD%EC%8B%9C-%EC%97%B0%EC%A0%9C%EA%B5%AC-%EC%97%B0%EC%82%B0%EB%8F%99/", "workingTime": ["-", "09:00~18:00", "09:00~18:00", "09:00~18:00", "09:00~18:00", "09:00~18:00", "09:00~13:00", "-"]}, {"name": "\ud55c\uc6b0\ub9ac\uc57d\uad6d", "lat": "35.18545277777777", "lng": "129.08502222222373", "url": "/info/%ED%95%9C%EC%9A%B0%EB%A6%AC%EC%95%BD%EA%B5%AD-%EB%B6%80%EC%82%B0%EA%B4%91%EC%97%AD%EC%8B%9C-%EC%97%B0%EC%A0%9C%EA%B5%AC-%EC%97%B0%EC%82%B0%EB%8F%99/", "workingTime": ["-", "09:00~21:00", "09:00~21:00", "09:00~21:00", "09:00~21:00", "09:00~21:00", "09:00~17:00", "-"]}, {"name": "\ucf54\ub07c\ub9ac\uc57d\uad6d", "lat": "35.186813888888892", "lng": "129.081694444444452", "url": "/info/%EC%BD%94%EB%81%BC%EB%A6%AC%EC%95%BD%EA%B5%AD-%EB%B6%80%EC%82%B0%EA%B4%91%EC%97%AD%EC%8B%9C-%EC%97%B0%EC%A0%9C%EA%B5%AC-%EC%97%B0%EC%82%B0%EB%8F%99/", "workingTime": ["-", "09:00~18:30", "09:00~18:30", "09:00~18:30", "09:00~18:30", "09:00~18:30", "09:00~15:00", "-"]}, {"name": "\ud504\ub77c\uc784\uc57d\uad6d", "lat": "35.190799682200144", "lng": "129.09996490066024", "url": "/info/%ED%94%84%EB%9D%BC%EC%9E%84%EC%95%BD%EA%B5%AD-%EB%B6%80%EC%82%B0%EA%B4%91%EC%97%AD%EC%8B%9C-%EC%97%B0%EC%A0%9C%EA%B5%AC-%EC%97%B0%EC%82%B0%EB%8F%99/", "workingTime": ["-", "09:00~19:00", "09:00~19:00", "09:00~19:00", "09:00~19:00", "09:00~19:00", "09:00~14:30", "-"]}, {"name": "\uc815\uc57d\uad6d", "lat": "35.17444936901854", "lng": "129.08932848486208", "url": "/info/%EC%A0%95%EC%95%BD%EA%B5%AD-%EB%B6%80%EC%82%B0%EA%B4%91%EC%97%AD%EC%8B%9C-%EC%97%B0%EC%A0%9C%EA%B5%AC-%EC%97%B0%EC%82%B0%EB%8F%99/", "workingTime": ["-", "09:00~18:30", "09:00~18:30", "09:00~18:30", "09:00~18:30", "09:00~18:30", "09:00~13:00", "-"]}, {"name": "\uc870\uc740\uc57d\uad6d", "lat": "35.176918056461915", "lng": "129.0860112121031", "url": "/info/%EC%A1%B0%EC%9D%80%EC%95%BD%EA%B5%AD-%EB%B6%80%EC%82%B0%EA%B4%91%EC%97%AD%EC%8B%9C-%EC%97%B0%EC%A0%9C%EA%B5%AC-%EC%97%B0%EC%82%B0%EB%8F%99/", "workingTime": ["-", "09:00~18:30", "09:00~18:30", "09:00~18:30", "09:00~18:30", "09:00~18:30", "09:00~13:00", "-"]}, {"name": "\uc6b0\ub9ac\uc57d\uad6d", "lat": "35.19109422022418", "lng": "129.08231012910616", "url": "/info/%EC%9A%B0%EB%A6%AC%EC%95%BD%EA%B5%AD-%EB%B6%80%EC%82%B0%EA%B4%91%EC%97%AD%EC%8B%9C-%EC%97%B0%EC%A0%9C%EA%B5%AC-%EC%97%B0%EC%82%B0%EB%8F%99/", "workingTime": ["-", "09:00~18:00", "09:00~18:00", "09:00~18:00", "09:00~18:00", "09:00~18:00", "09:00~13:00", "-"]}, {"name": "\uc6b0\ub9ac\uc57d\uad6d", "lat": "35.178816191151", "lng": "129.10737292156665", "url": "/info/%EC%9A%B0%EB%A6%AC%EC%95%BD%EA%B5%AD-%EB%B6%80%EC%82%B0%EA%B4%91%EC%97%AD%EC%8B%9C-%EC%97%B0%EC%A0%9C%EA%B5%AC-%EC%97%B0%EC%82%B0%EB%8F%99/", "workingTime": ["-", "09:00~19:00", "09:00~19:00", "09:00~19:00", "09:00~19:00", "09:00~19:00", "09:00~13:00", "-"]}, {"name": "\uc6d4\ub4dc\uc57d\uad6d", "lat": "35.191894444444443", "lng": "129.084061111111112", "url": "/info/%EC%9B%94%EB%93%9C%EC%95%BD%EA%B5%AD-%EB%B6%80%EC%82%B0%EA%B4%91%EC%97%AD%EC%8B%9C-%EC%97%B0%EC%A0%9C%EA%B5%AC-%EC%97%B0%EC%82%B0%EB%8F%99/", "workingTime": ["-", "09:00~20:00", "09:00~20:00", "09:00~20:00", "09:00~20:00", "09:00~20:00", "09:00~17:00", "-"]}, {"name": "\uc704\ub4dc\uba54\ub514\uce7c\uc57d\uad6d", "lat": "35.186859174339034", "lng": "129.08124055230965", "url": "/info/%EC%9C%84%EB%93%9C%EB%A9%94%EB%94%94%EC%B9%BC%EC%95%BD%EA%B5%AD-%EB%B6%80%EC%82%B0%EA%B4%91%EC%97%AD%EC%8B%9C-%EC%97%B0%EC%A0%9C%EA%B5%AC-%EC%97%B0%EC%82%B0%EB%8F%99/", "workingTime": ["-", "08:30~19:30", "08:30~19:30", "08:30~19:30", "08:30~19:30", "08:30~19:30", "08:30~14:00", "-"]}, {"name": "\uc774\ud31c\uc57d\uad6d", "lat": "35.176155374670756", "lng": "129.08131618307672", "url": "/info/%EC%9D%B4%ED%8C%9C%EC%95%BD%EA%B5%AD-%EB%B6%80%EC%82%B0%EA%B4%91%EC%97%AD%EC%8B%9C-%EC%97%B0%EC%A0%9C%EA%B5%AC-%EC%97%B0%EC%82%B0%EB%8F%99/", "workingTime": ["1,3,5\uc9f8\uc8fc10:00~22:30", "10:00~22:30", "10:00~22:30", "10:00~22:30", "10:00~22:30", "10:00~22:30", "10:00~22:30", "10:00~22:30"]}, {"name": "\uc774\ud654\uc57d\uad6d", "lat": "35.1809310558", "lng": "129.0771441248", "url": "/info/%EC%9D%B4%ED%99%94%EC%95%BD%EA%B5%AD-%EB%B6%80%EC%82%B0%EA%B4%91%EC%97%AD%EC%8B%9C-%EC%97%B0%EC%A0%9C%EA%B5%AC-%EC%97%B0%EC%82%B0%EB%8F%99/", "workingTime": ["-", "09:00~20:00", "09:00~20:00", "09:00~20:00", "09:00~20:00", "09:00~20:00", "09:00~15:00", "-"]}, {"name": "\uc5f0\uc0b0\uc628\ub204\ub9ac\uc57d\uad6d", "lat": "35.1876847412241", "lng": "129.0842028003175", "url": "/info/%EC%97%B0%EC%82%B0%EC%98%A8%EB%88%84%EB%A6%AC%EC%95%BD%EA%B5%AD-%EB%B6%80%EC%82%B0%EA%B4%91%EC%97%AD%EC%8B%9C-%EC%97%B0%EC%A0%9C%EA%B5%AC-%EC%97%B0%EC%82%B0%EB%8F%99/", "workingTime": ["1,2,3,4,5\uc9f8\uc8fc09:00~23:00", "09:00~23:00", "09:00~23:00", "09:00~23:00", "09:00~23:00", "09:00~23:00", "09:00~23:00", "09:00~23:00"]}, {"name": "\uc5f0\uc0b0\uc911\uc559\uc57d\uad6d", "lat": "35.188227777777776", "lng": "129.097411111111114", "url": "/info/%EC%97%B0%EC%82%B0%EC%A4%91%EC%95%99%EC%95%BD%EA%B5%AD-%EB%B6%80%EC%82%B0%EA%B4%91%EC%97%AD%EC%8B%9C-%EC%97%B0%EC%A0%9C%EA%B5%AC-%EC%97%B0%EC%82%B0%EB%8F%99/", "workingTime": ["-", "09:00~19:00", "09:00~19:00", "09:00~19:00", "09:00~19:00", "09:00~19:00", "09:00~15:00", "-"]}, {"name": "\uc5f0\uc0b0\ud2b8\ub808\uc774\ub354\uc2a4\uc57d\uad6d", "lat": "35.1850939786146", "lng": "129.111950912034", "url": "/info/%EC%97%B0%EC%82%B0%ED%8A%B8%EB%A0%88%EC%9D%B4%EB%8D%94%EC%8A%A4%EC%95%BD%EA%B5%AD-%EB%B6%80%EC%82%B0%EA%B4%91%EC%97%AD%EC%8B%9C-%EC%97%B0%EC%A0%9C%EA%B5%AC-%EC%97%B0%EC%82%B0%EB%8F%99/", "workingTime": ["1,3,5\uc9f8\uc8fc10:00~21:00", "10:00~21:00", "10:00~21:00", "10:00~21:00", "10:00~21:00", "10:00~21:00", "10:00~21:00", "10:00~21:00"]}, {"name": "\uc5f0\uc0b0\ud604\uc57d\uad6d", "lat": "35.18675059228252", "lng": "129.08208257551456", "url": "/info/%EC%97%B0%EC%82%B0%ED%98%84%EC%95%BD%EA%B5%AD-%EB%B6%80%EC%82%B0%EA%B4%91%EC%97%AD%EC%8B%9C-%EC%97%B0%EC%A0%9C%EA%B5%AC-%EC%97%B0%EC%82%B0%EB%8F%99/", "workingTime": ["-", "09:00~19:00", "09:00~19:00", "09:00~19:00", "09:00~19:00", "09:00~19:00", "09:00~14:00", "-"]}, {"name": "\uc544\ub984\ub2e4\uc6b4\uc57d\uad6d", "lat": "35.1733962975347", "lng": "129.088679794656", "url": "/info/%EC%95%84%EB%A6%84%EB%8B%A4%EC%9A%B4%EC%95%BD%EA%B5%AD-%EB%B6%80%EC%82%B0%EA%B4%91%EC%97%AD%EC%8B%9C-%EC%97%B0%EC%A0%9C%EA%B5%AC-%EC%97%B0%EC%82%B0%EB%8F%99/", "workingTime": ["-", "09:00~19:00", "09:00~19:00", "09:00~19:00", "09:00~14:00", "09:00~19:00", "09:00~14:00", "-"]}, {"name": "\uc560\ub2c8\ud31c\uc57d\uad6d", "lat": "35.1883662449", "lng": "129.0814080999", "url": "/info/%EC%95%A0%EB%8B%88%ED%8C%9C%EC%95%BD%EA%B5%AD-%EB%B6%80%EC%82%B0%EA%B4%91%EC%97%AD%EC%8B%9C-%EC%97%B0%EC%A0%9C%EA%B5%AC-%EC%97%B0%EC%82%B0%EB%8F%99/", "workingTime": ["-", "09:00~19:30", "09:00~19:30", "09:00~19:30", "09:00~19:30", "09:00~19:30", "09:00~19:30", "-"]}, {"name": "\uc5f0\ub3d9\uc2dc\uc7a5\uc57d\uad6d", "lat": "35.188008333333336", "lng": "129.093108333333333", "url": "/info/%EC%97%B0%EB%8F%99%EC%8B%9C%EC%9E%A5%EC%95%BD%EA%B5%AD-%EB%B6%80%EC%82%B0%EA%B4%91%EC%97%AD%EC%8B%9C-%EC%97%B0%EC%A0%9C%EA%B5%AC-%EC%97%B0%EC%82%B0%EB%8F%99/", "workingTime": ["-", "09:00~19:30", "09:00~19:30", "09:00~19:30", "09:00~19:30", "09:00~19:30", "09:00~17:00", "-"]}, {"name": "\uc5f0\uc0b0\ub2e4\uc628\uc57d\uad6d", "lat": "35.191538058945", "lng": "129.088297824307", "url": "/info/%EC%97%B0%EC%82%B0%EB%8B%A4%EC%98%A8%EC%95%BD%EA%B5%AD-%EB%B6%80%EC%82%B0%EA%B4%91%EC%97%AD%EC%8B%9C-%EC%97%B0%EC%A0%9C%EA%B5%AC-%EC%97%B0%EC%82%B0%EB%8F%99/", "workingTime": ["-", "09:00~19:00", "09:00~19:00", "09:00~19:00", "09:00~19:00", "09:00~19:00", "09:00~14:00", "-"]}, {"name": "\uc5f0\uc0b0\uc0bc\ubcf4\uc57d\uad6d", "lat": "35.17443396617913", "lng": "129.08690760192877", "url": "/info/%EC%97%B0%EC%82%B0%EC%82%BC%EB%B3%B4%EC%95%BD%EA%B5%AD-%EB%B6%80%EC%82%B0%EA%B4%91%EC%97%AD%EC%8B%9C-%EC%97%B0%EC%A0%9C%EA%B5%AC-%EC%97%B0%EC%82%B0%EB%8F%99/", "workingTime": ["-", "09:00~19:00", "09:00~19:00", "09:00~19:00", "09:00~19:00", "09:00~19:00", "09:00~14:00", "-"]}, {"name": "\uc5f0\uc0b0\uc2dc\uc7a5\uc57d\uad6d", "lat": "35.176162806162296", "lng": "129.0857021588352", "url": "/info/%EC%97%B0%EC%82%B0%EC%8B%9C%EC%9E%A5%EC%95%BD%EA%B5%AD-%EB%B6%80%EC%82%B0%EA%B4%91%EC%97%AD%EC%8B%9C-%EC%97%B0%EC%A0%9C%EA%B5%AC-%EC%97%B0%EC%82%B0%EB%8F%99/", "workingTime": ["-", "08:30~19:00", "08:30~19:00", "08:30~19:00", "08:30~19:00", "08:30~19:00", "08:30~17:00", "-"]}, {"name": "\uc218\ubcf4\ub9ac\uc57d\uad6d", "lat": "35.18650180707498", "lng": "129.0809324552091", "url": "/info/%EC%88%98%EB%B3%B4%EB%A6%AC%EC%95%BD%EA%B5%AD-%EB%B6%80%EC%82%B0%EA%B4%91%EC%97%AD%EC%8B%9C-%EC%97%B0%EC%A0%9C%EA%B5%AC-%EC%97%B0%EC%82%B0%EB%8F%99/", "workingTime": ["-", "09:00~19:00", "09:00~19:00", "09:00~19:00", "09:00~19:00", "09:00~19:00", "09:00~13:00", "-"]}, {"name": "\uc2a4\ud0c0\uc57d\uad6d", "lat": "35.1815014928546", "lng": "129.078498505385", "url": "/info/%EC%8A%A4%ED%83%80%EC%95%BD%EA%B5%AD-%EB%B6%80%EC%82%B0%EA%B4%91%EC%97%AD%EC%8B%9C-%EC%97%B0%EC%A0%9C%EA%B5%AC-%EC%97%B0%EC%82%B0%EB%8F%99/", "workingTime": ["-", "09:00~19:00", "09:00~19:00", "09:00~19:00", "09:00~19:00", "09:00~19:00", "09:00~14:00", "-"]}, {"name": "\uc0c8\uc2dc\ub300\uc57d\uad6d", "lat": "35.181748587085806", "lng": "129.07867799322622", "url": "/info/%EC%83%88%EC%8B%9C%EB%8C%80%EC%95%BD%EA%B5%AD-%EB%B6%80%EC%82%B0%EA%B4%91%EC%97%AD%EC%8B%9C-%EC%97%B0%EC%A0%9C%EA%B5%AC-%EC%97%B0%EC%82%B0%EB%8F%99/", "workingTime": ["-", "09:00~20:00", "09:00~20:00", "09:00~20:00", "09:00~20:00", "09:00~20:00", "09:00~18:00", "-"]}, {"name": "\uc0c8\ud558\ub098\uc57d\uad6d", "lat": "35.18268852306329", "lng": "129.1073147852702", "url": "/info/%EC%83%88%ED%95%98%EB%82%98%EC%95%BD%EA%B5%AD-%EB%B6%80%EC%82%B0%EA%B4%91%EC%97%AD%EC%8B%9C-%EC%97%B0%EC%A0%9C%EA%B5%AC-%EC%97%B0%EC%82%B0%EB%8F%99/", "workingTime": ["-", "09:00~19:00", "09:00~19:00", "09:00~19:00", "09:00~19:00", "09:00~19:00", "09:00~13:00", "09:00~13:00"]}, {"name": "\uc11c\ubb38\uc57d\uad6d", "lat": "35.1893300131464", "lng": "129.091494835336", "url": "/info/%EC%84%9C%EB%AC%B8%EC%95%BD%EA%B5%AD-%EB%B6%80%EC%82%B0%EA%B4%91%EC%97%AD%EC%8B%9C-%EC%97%B0%EC%A0%9C%EA%B5%AC-%EC%97%B0%EC%82%B0%EB%8F%99/", "workingTime": ["-", "10:00~20:00", "10:00~20:00", "10:00~20:00", "10:00~20:00", "10:00~20:00", "10:00~20:00", "-"]}, {"name": "\ube44\ube44\ube44\uc57d\uad6d", "lat": "35.188897222222224", "lng": "129.085586111111098", "url": "/info/%EB%B9%84%EB%B9%84%EB%B9%84%EC%95%BD%EA%B5%AD-%EB%B6%80%EC%82%B0%EA%B4%91%EC%97%AD%EC%8B%9C-%EC%97%B0%EC%A0%9C%EA%B5%AC-%EC%97%B0%EC%82%B0%EB%8F%99/", "workingTime": ["-", "08:30~17:30", "08:30~17:30", "08:30~17:30", "08:30~17:30", "08:30~17:30", "08:30~12:30", "-"]}, {"name": "\uc0ac\ub791\uc57d\uad6d", "lat": "35.1753710743622", "lng": "129.082580628436", "url": "/info/%EC%82%AC%EB%9E%91%EC%95%BD%EA%B5%AD-%EB%B6%80%EC%82%B0%EA%B4%91%EC%97%AD%EC%8B%9C-%EC%97%B0%EC%A0%9C%EA%B5%AC-%EC%97%B0%EC%82%B0%EB%8F%99/", "workingTime": ["-", "09:00~20:00", "09:00~20:00", "09:00~20:00", "09:00~20:00", "09:00~20:00", "09:00~17:00", "-"]}, {"name": "\uc0b0\ub4e4\uc57d\uad6d", "lat": "35.186746921065534", "lng": "129.08418125888707", "url": "/info/%EC%82%B0%EB%93%A4%EC%95%BD%EA%B5%AD-%EB%B6%80%EC%82%B0%EA%B4%91%EC%97%AD%EC%8B%9C-%EC%97%B0%EC%A0%9C%EA%B5%AC-%EC%97%B0%EC%82%B0%EB%8F%99/", "workingTime": ["-", "09:00~18:30", "09:00~18:30", "09:00~18:30", "09:00~18:30", "09:00~18:30", "09:00~13:00", "-"]}, {"name": "\uc0bc\ud654\uc57d\uad6d", "lat": "35.186619444444446", "lng": "129.082747222222224", "url": "/info/%EC%82%BC%ED%99%94%EC%95%BD%EA%B5%AD-%EB%B6%80%EC%82%B0%EA%B4%91%EC%97%AD%EC%8B%9C-%EC%97%B0%EC%A0%9C%EA%B5%AC-%EC%97%B0%EC%82%B0%EB%8F%99/", "workingTime": ["-", "09:00~20:30", "09:00~20:30", "09:00~20:30", "09:00~20:30", "09:00~20:30", "09:00~13:30", "-"]}, {"name": "\uc0c8\ub300\ud55c\uc57d\uad6d", "lat": "35.17939273493273", "lng": "129.0848539450816", "url": "/info/%EC%83%88%EB%8C%80%ED%95%9C%EC%95%BD%EA%B5%AD-%EB%B6%80%EC%82%B0%EA%B4%91%EC%97%AD%EC%8B%9C-%EC%97%B0%EC%A0%9C%EA%B5%AC-%EC%97%B0%EC%82%B0%EB%8F%99/", "workingTime": ["-", "08:40~19:00", "08:40~19:00", "08:40~19:00", "08:40~19:00", "08:40~19:00", "08:40~15:00", "-"]}, {"name": "\uc0c8\ub3d9\uc9c4\uc57d\uad6d", "lat": "35.173366666666666", "lng": "129.09524444444753", "url": "/info/%EC%83%88%EB%8F%99%EC%A7%84%EC%95%BD%EA%B5%AD-%EB%B6%80%EC%82%B0%EA%B4%91%EC%97%AD%EC%8B%9C-%EC%97%B0%EC%A0%9C%EA%B5%AC-%EC%97%B0%EC%82%B0%EB%8F%99/", "workingTime": ["-", "09:00~18:30", "09:00~18:30", "09:00~13:00", "09:00~18:30", "09:00~18:30", "09:00~13:00", "-"]}, {"name": "\ubc14\ub978\uc628\ub204\ub9ac\uc57d\uad6d", "lat": "35.1838322051031", "lng": "129.107368312022", "url": "/info/%EB%B0%94%EB%A5%B8%EC%98%A8%EB%88%84%EB%A6%AC%EC%95%BD%EA%B5%AD-%EB%B6%80%EC%82%B0%EA%B4%91%EC%97%AD%EC%8B%9C-%EC%97%B0%EC%A0%9C%EA%B5%AC-%EC%97%B0%EC%82%B0%EB%8F%99/", "workingTime": ["1,2,3,4,5\uc9f8\uc8fc09:00~14:00", "09:00~20:00", "09:00~20:00", "09:00~20:00", "09:00~20:00", "09:00~20:00", "09:00~14:00", "-"]}, {"name": "\ubc15\ud558\uc57d\uad6d", "lat": "35.179133696254", "lng": "129.084987489308", "url": "/info/%EB%B0%95%ED%95%98%EC%95%BD%EA%B5%AD-%EB%B6%80%EC%82%B0%EA%B4%91%EC%97%AD%EC%8B%9C-%EC%97%B0%EC%A0%9C%EA%B5%AC-%EC%97%B0%EC%82%B0%EB%8F%99/", "workingTime": ["-", "09:00~19:30", "09:00~19:30", "09:00~19:30", "09:00~19:30", "09:00~19:30", "09:00~14:00", "-"]}, {"name": "\ubcc4\ube5b\uc57d\uad6d", "lat": "35.19160304492666", "lng": "129.09437388883197", "url": "/info/%EB%B3%84%EB%B9%9B%EC%95%BD%EA%B5%AD-%EB%B6%80%EC%82%B0%EA%B4%91%EC%97%AD%EC%8B%9C-%EC%97%B0%EC%A0%9C%EA%B5%AC-%EC%97%B0%EC%82%B0%EB%8F%99/", "workingTime": ["-", "13:00~20:00", "10:00~20:00", "10:00~20:00", "10:00~20:00", "10:00~20:00", "-", "-"]}, {"name": "\ubcf4\uac74\ub2f9\uc57d\uad6d", "lat": "35.185036111111110", "lng": "129.081161111111101", "url": "/info/%EB%B3%B4%EA%B1%B4%EB%8B%B9%EC%95%BD%EA%B5%AD-%EB%B6%80%EC%82%B0%EA%B4%91%EC%97%AD%EC%8B%9C-%EC%97%B0%EC%A0%9C%EA%B5%AC-%EC%97%B0%EC%82%B0%EB%8F%99/", "workingTime": ["1,2,3,4,5\uc9f8\uc8fc13:00~19:00", "09:30~21:00", "09:30~21:00", "09:30~21:00", "09:30~21:00", "09:30~21:00", "09:30~19:00", "09:30~19:00"]}, {"name": "\ubcf4\uac74\uc57d\uad6d", "lat": "35.177375806118754", "lng": "129.07954133767947", "url": "/info/%EB%B3%B4%EA%B1%B4%EC%95%BD%EA%B5%AD-%EB%B6%80%EC%82%B0%EA%B4%91%EC%97%AD%EC%8B%9C-%EC%97%B0%EC%A0%9C%EA%B5%AC-%EC%97%B0%EC%82%B0%EB%8F%99/", "workingTime": ["-", "09:00~18:00", "09:00~18:00", "09:00~18:00", "09:00~18:00", "09:00~18:00", "-", "-"]}, {"name": "\ubcf4\uad11\uc57d\uad6d", "lat": "35.173779325537595", "lng": "129.0947286443734", "url": "/info/%EB%B3%B4%EA%B4%91%EC%95%BD%EA%B5%AD-%EB%B6%80%EC%82%B0%EA%B4%91%EC%97%AD%EC%8B%9C-%EC%97%B0%EC%A0%9C%EA%B5%AC-%EC%97%B0%EC%82%B0%EB%8F%99/", "workingTime": ["-", "09:00~19:30", "09:00~19:30", "09:00~19:30", "09:00~19:00", "09:00~19:30", "09:00~14:30", "-"]}, {"name": "\ubaa9\ud654\uc57d\uad6d", "lat": "35.188508333333331", "lng": "129.080641666666679", "url": "/info/%EB%AA%A9%ED%99%94%EC%95%BD%EA%B5%AD-%EB%B6%80%EC%82%B0%EA%B4%91%EC%97%AD%EC%8B%9C-%EC%97%B0%EC%A0%9C%EA%B5%AC-%EC%97%B0%EC%82%B0%EB%8F%99/", "workingTime": ["-", "09:00~19:00", "09:00~19:00", "09:00~19:00", "09:00~19:00", "09:00~19:00", "09:00~14:00", "-"]}, {"name": "\ubb34\uc9c4\uc57d\uad6d", "lat": "35.184659343818424", "lng": "129.10736564357026", "url": "/info/%EB%AC%B4%EC%A7%84%EC%95%BD%EA%B5%AD-%EB%B6%80%EC%82%B0%EA%B4%91%EC%97%AD%EC%8B%9C-%EC%97%B0%EC%A0%9C%EA%B5%AC-%EC%97%B0%EC%82%B0%EB%8F%99/", "workingTime": ["-", "09:00~19:00", "09:00~19:00", "09:00~19:00", "09:00~19:00", "09:00~19:00", "09:00~14:00", "-"]}, {"name": "\ubbf8\ub798\uc57d\uad6d", "lat": "35.181372706613224", "lng": "129.10686553439075", "url": "/info/%EB%AF%B8%EB%9E%98%EC%95%BD%EA%B5%AD-%EB%B6%80%EC%82%B0%EA%B4%91%EC%97%AD%EC%8B%9C-%EC%97%B0%EC%A0%9C%EA%B5%AC-%EC%97%B0%EC%82%B0%EB%8F%99/", "workingTime": ["-", "09:00~19:00", "09:00~19:00", "09:00~19:00", "09:00~19:00", "09:00~19:00", "09:00~13:00", "-"]}, {"name": "\ubbf8\uc18c\uc57d\uad6d", "lat": "35.18434166666666", "lng": "129.10730000000163", "url": "/info/%EB%AF%B8%EC%86%8C%EC%95%BD%EA%B5%AD-%EB%B6%80%EC%82%B0%EA%B4%91%EC%97%AD%EC%8B%9C-%EC%97%B0%EC%A0%9C%EA%B5%AC-%EC%97%B0%EC%82%B0%EB%8F%99/", "workingTime": ["-", "09:00~19:00", "09:00~19:00", "09:00~19:00", "09:00~19:00", "09:00~19:00", "09:00~14:00", "-"]}, {"name": "\ubbf8\uc18c\uc57d\uad6d", "lat": "35.181869444444445", "lng": "129.077911111111121", "url": "/info/%EB%AF%B8%EC%86%8C%EC%95%BD%EA%B5%AD-%EB%B6%80%EC%82%B0%EA%B4%91%EC%97%AD%EC%8B%9C-%EC%97%B0%EC%A0%9C%EA%B5%AC-%EC%97%B0%EC%82%B0%EB%8F%99/", "workingTime": ["-", "09:00~18:40", "09:00~18:40", "09:00~18:40", "09:00~18:40", "09:00~18:40", "09:00~13:00", "-"]}, {"name": "\uba85\uc778\uc57d\uad6d", "lat": "35.17333237194945", "lng": "129.09518094128885", "url": "/info/%EB%AA%85%EC%9D%B8%EC%95%BD%EA%B5%AD-%EB%B6%80%EC%82%B0%EA%B4%91%EC%97%AD%EC%8B%9C-%EC%97%B0%EC%A0%9C%EA%B5%AC-%EC%97%B0%EC%82%B0%EB%8F%99/", "workingTime": ["-", "09:00~19:00", "09:00~19:00", "09:00~19:00", "09:00~19:00", "09:00~19:00", "09:00~14:00", "-"]}, {"name": "\ubaa8\ubc94\uc57d\uad6d", "lat": "35.173713455024476", "lng": "129.09523900501154", "url": "/info/%EB%AA%A8%EB%B2%94%EC%95%BD%EA%B5%AD-%EB%B6%80%EC%82%B0%EA%B4%91%EC%97%AD%EC%8B%9C-%EC%97%B0%EC%A0%9C%EA%B5%AC-%EC%97%B0%EC%82%B0%EB%8F%99/", "workingTime": ["-", "09:00~20:00", "09:00~20:00", "09:00~20:00", "09:00~20:00", "09:00~20:00", "09:00~15:00", "-"]}, {"name": "\ub808\ubaac\uc57d\uad6d", "lat": "35.184855408341676", "lng": "129.08014623749145", "url": "/info/%EB%A0%88%EB%AA%AC%EC%95%BD%EA%B5%AD-%EB%B6%80%EC%82%B0%EA%B4%91%EC%97%AD%EC%8B%9C-%EC%97%B0%EC%A0%9C%EA%B5%AC-%EC%97%B0%EC%82%B0%EB%8F%99/", "workingTime": ["-", "09:00~19:00", "09:00~19:00", "09:00~19:00", "09:00~19:00", "09:00~19:00", "09:00~13:30", "10:00~13:00"]}, {"name": "\uba54\ub514\uce7c\uc0ac\ub791\uc57d\uad6d", "lat": "35.1806975371", "lng": "129.1075505674", "url": "/info/%EB%A9%94%EB%94%94%EC%B9%BC%EC%82%AC%EB%9E%91%EC%95%BD%EA%B5%AD-%EB%B6%80%EC%82%B0%EA%B4%91%EC%97%AD%EC%8B%9C-%EC%97%B0%EC%A0%9C%EA%B5%AC-%EC%97%B0%EC%82%B0%EB%8F%99/", "workingTime": ["1,2,3,4,5\uc9f8\uc8fc09:00~21:00", "09:00~21:00", "09:00~21:00", "09:00~21:00", "09:00~21:00", "09:00~21:00", "09:00~21:00", "09:00~21:00"]}, {"name": "\uba54\ub514\uce7c\uc57d\uad6d", "lat": "35.18428333333332", "lng": "129.0797722222237", "url": "/info/%EB%A9%94%EB%94%94%EC%B9%BC%EC%95%BD%EA%B5%AD-%EB%B6%80%EC%82%B0%EA%B4%91%EC%97%AD%EC%8B%9C-%EC%97%B0%EC%A0%9C%EA%B5%AC-%EC%97%B0%EC%82%B0%EB%8F%99/", "workingTime": ["-", "09:00~18:30", "09:00~18:30", "09:00~18:30", "09:00~18:30", "09:00~18:30", "09:00~13:00", "-"]}, {"name": "\ub3d9\ubbfc\uc57d\uad6d", "lat": "35.17706671422272", "lng": "129.07946479443856", "url": "/info/%EB%8F%99%EB%AF%BC%EC%95%BD%EA%B5%AD-%EB%B6%80%EC%82%B0%EA%B4%91%EC%97%AD%EC%8B%9C-%EC%97%B0%EC%A0%9C%EA%B5%AC-%EC%97%B0%EC%82%B0%EB%8F%99/", "workingTime": ["-", "09:00~19:00", "09:00~19:00", "09:00~19:00", "09:00~19:00", "09:00~19:00", "10:00~17:00", "10:00~18:00"]}, {"name": "\ub2e4\uc628\uc57d\uad6d", "lat": "35.173468257104375", "lng": "129.09437385040462", "url": "/info/%EB%8B%A4%EC%98%A8%EC%95%BD%EA%B5%AD-%EB%B6%80%EC%82%B0%EA%B4%91%EC%97%AD%EC%8B%9C-%EC%97%B0%EC%A0%9C%EA%B5%AC-%EC%97%B0%EC%82%B0%EB%8F%99/", "workingTime": ["-", "09:00~18:30", "09:00~18:30", "09:00~18:30", "09:00~18:30", "09:00~18:30", "09:00~13:30", "-"]}, {"name": "\ub274\uc774\uba54\ub514\uc57d\uad6d", "lat": "35.1866721003", "lng": "129.0809872772", "url": "/info/%EB%89%B4%EC%9D%B4%EB%A9%94%EB%94%94%EC%95%BD%EA%B5%AD-%EB%B6%80%EC%82%B0%EA%B4%91%EC%97%AD%EC%8B%9C-%EC%97%B0%EC%A0%9C%EA%B5%AC-%EC%97%B0%EC%82%B0%EB%8F%99/", "workingTime": ["-", "09:00~19:00", "09:00~19:00", "09:00~19:00", "09:00~20:00", "09:00~21:00", "09:00~15:00", "09:00~13:00"]}, {"name": "\uac15\uc57d\uad6d", "lat": "34.86998456490001", "lng": "126.6123525925", "url": "/info/%EA%B0%95%EC%95%BD%EA%B5%AD-%EB%B6%80%EC%82%B0%EA%B4%91%EC%97%AD%EC%8B%9C-%EC%97%B0%EC%A0%9C%EA%B5%AC-%EC%97%B0%EC%82%B0%EB%8F%99/", "workingTime": ["-", "09:00~19:30", "09:00~19:30", "09:00~19:30", "09:00~19:30", "09:00~19:30", "09:00~15:00", "09:00~13:00"]}, {"name": "\uac00\uc57c\uc57d\uad6d", "lat": "35.1862254694289", "lng": "129.0824581864677", "url": "/info/%EA%B0%80%EC%95%BC%EC%95%BD%EA%B5%AD-%EB%B6%80%EC%82%B0%EA%B4%91%EC%97%AD%EC%8B%9C-%EC%97%B0%EC%A0%9C%EA%B5%AC-%EC%97%B0%EC%82%B0%EB%8F%99/", "workingTime": ["-", "08:30~19:00", "08:30~19:00", "08:30~19:00", "08:30~19:00", "08:30~19:00", "08:30~15:30", "-"]}, {"name": "\uac10\uc0ac\uc57d\uad6d", "lat": "35.1817591198", "lng": "129.0778325548", "url": "/info/%EA%B0%90%EC%82%AC%EC%95%BD%EA%B5%AD-%EB%B6%80%EC%82%B0%EA%B4%91%EC%97%AD%EC%8B%9C-%EC%97%B0%EC%A0%9C%EA%B5%AC-%EC%97%B0%EC%82%B0%EB%8F%99/", "workingTime": ["-", "09:00~19:00", "09:00~19:00", "09:00~19:00", "09:00~19:00", "09:00~19:00", "09:00~14:00", "-"]}]