[{"name": "\ub355\ucc9c\ud504\ub77c\uc790\uc57d\uad6d", "lat": "35.2104608428795", "lng": "129.007765020583", "url": "/info/%EB%8D%95%EC%B2%9C%ED%94%84%EB%9D%BC%EC%9E%90%EC%95%BD%EA%B5%AD-%EB%B6%80%EC%82%B0%EA%B4%91%EC%97%AD%EC%8B%9C-%EB%B6%81%EA%B5%AC-%EB%8D%95%EC%B2%9C%EB%8F%99/", "workingTime": ["-", "08:00~19:00", "08:00~19:00", "08:00~19:00", "08:00~19:00", "08:00~19:00", "08:00~14:30", "-"]}, {"name": "\uc2f1\uae00\ubc99\uae00\uc57d\uad6d", "lat": "35.2103333941736", "lng": "129.007103617438", "url": "/info/%EC%8B%B1%EA%B8%80%EB%B2%99%EA%B8%80%EC%95%BD%EA%B5%AD-%EB%B6%80%EC%82%B0%EA%B4%91%EC%97%AD%EC%8B%9C-%EB%B6%81%EA%B5%AC-%EB%8D%95%EC%B2%9C%EB%8F%99/", "workingTime": ["-", "08:30~20:00", "08:30~20:00", "08:30~20:00", "08:30~20:00", "08:30~20:00", "08:30~20:00", "-"]}, {"name": "\ud3ec\ub808\ub098\uc57d\uad6d", "lat": "35.2127277626477", "lng": "129.012184959817", "url": "/info/%ED%8F%AC%EB%A0%88%EB%82%98%EC%95%BD%EA%B5%AD-%EB%B6%80%EC%82%B0%EA%B4%91%EC%97%AD%EC%8B%9C-%EB%B6%81%EA%B5%AC-%EB%8D%95%EC%B2%9C%EB%8F%99/", "workingTime": ["-", "10:00~20:00", "10:00~20:00", "10:00~20:00", "10:00~20:00", "10:00~20:00", "10:00~15:00", "-"]}, {"name": "\ud790\ub9c1\uc57d\uad6d", "lat": "35.221388066727265", "lng": "129.00780458670692", "url": "/info/%ED%9E%90%EB%A7%81%EC%95%BD%EA%B5%AD-%EB%B6%80%EC%82%B0%EA%B4%91%EC%97%AD%EC%8B%9C-%EB%B6%81%EA%B5%AC-%EB%8D%95%EC%B2%9C%EB%8F%99/", "workingTime": ["-", "09:00~18:00", "09:00~18:00", "09:00~18:00", "09:00~18:00", "09:00~18:00", "09:00~13:00", "-"]}, {"name": "\ud589\ubcf5\ud55c\uc628\ub204\ub9ac\uc57d\uad6d", "lat": "35.2111867715", "lng": "129.004114258", "url": "/info/%ED%96%89%EB%B3%B5%ED%95%9C%EC%98%A8%EB%88%84%EB%A6%AC%EC%95%BD%EA%B5%AD-%EB%B6%80%EC%82%B0%EA%B4%91%EC%97%AD%EC%8B%9C-%EB%B6%81%EA%B5%AC-%EB%8D%95%EC%B2%9C%EB%8F%99/", "workingTime": ["-", "09:00~19:00", "09:00~19:00", "09:00~19:00", "09:00~19:00", "09:00~19:00", "09:00~13:00", "-"]}, {"name": "\ud55c\ub3c5\uc57d\uad6d", "lat": "35.21356131449686", "lng": "129.0212609274577", "url": "/info/%ED%95%9C%EB%8F%85%EC%95%BD%EA%B5%AD-%EB%B6%80%EC%82%B0%EA%B4%91%EC%97%AD%EC%8B%9C-%EB%B6%81%EA%B5%AC-%EB%8D%95%EC%B2%9C%EB%8F%99/", "workingTime": ["-", "09:30~18:00", "09:30~18:00", "09:30~18:00", "09:30~18:00", "09:30~18:00", "09:30~13:00", "-"]}, {"name": "\ud55c\ube5b\uc57d\uad6d", "lat": "35.21071926304976", "lng": "129.00899339443714", "url": "/info/%ED%95%9C%EB%B9%9B%EC%95%BD%EA%B5%AD-%EB%B6%80%EC%82%B0%EA%B4%91%EC%97%AD%EC%8B%9C-%EB%B6%81%EA%B5%AC-%EB%8D%95%EC%B2%9C%EB%8F%99/", "workingTime": ["-", "08:30~20:00", "08:30~20:00", "08:30~20:00", "08:30~20:00", "08:30~20:00", "08:30~16:30", "-"]}, {"name": "\ud478\ub978\uc194\uc57d\uad6d", "lat": "35.21137170270399", "lng": "129.01143611692493", "url": "/info/%ED%91%B8%EB%A5%B8%EC%86%94%EC%95%BD%EA%B5%AD-%EB%B6%80%EC%82%B0%EA%B4%91%EC%97%AD%EC%8B%9C-%EB%B6%81%EA%B5%AC-%EB%8D%95%EC%B2%9C%EB%8F%99/", "workingTime": ["-", "09:00~18:30", "09:00~18:30", "09:00~18:30", "09:00~18:30", "09:00~18:30", "09:00~13:00", "-"]}, {"name": "\uc911\uc559\uc57d\uad6d", "lat": "35.21021577119648", "lng": "129.02990942273678", "url": "/info/%EC%A4%91%EC%95%99%EC%95%BD%EA%B5%AD-%EB%B6%80%EC%82%B0%EA%B4%91%EC%97%AD%EC%8B%9C-%EB%B6%81%EA%B5%AC-%EB%8D%95%EC%B2%9C%EB%8F%99/", "workingTime": ["-", "09:00~18:00", "09:00~18:00", "09:00~18:00", "09:00~18:00", "09:00~18:00", "09:00~20:00", "-"]}, {"name": "\uccad\uba85\uc57d\uad6d", "lat": "35.2123362637", "lng": "129.0041381261", "url": "/info/%EC%B2%AD%EB%AA%85%EC%95%BD%EA%B5%AD-%EB%B6%80%EC%82%B0%EA%B4%91%EC%97%AD%EC%8B%9C-%EB%B6%81%EA%B5%AC-%EB%8D%95%EC%B2%9C%EB%8F%99/", "workingTime": ["-", "09:00~19:00", "09:00~19:00", "09:00~19:00", "09:00~19:00", "09:00~19:00", "09:00~13:30", "-"]}, {"name": "\uc815\uc218\uc57d\uad6d", "lat": "35.20938450913417", "lng": "129.00606833059814", "url": "/info/%EC%A0%95%EC%88%98%EC%95%BD%EA%B5%AD-%EB%B6%80%EC%82%B0%EA%B4%91%EC%97%AD%EC%8B%9C-%EB%B6%81%EA%B5%AC-%EB%8D%95%EC%B2%9C%EB%8F%99/", "workingTime": ["-", "09:00~18:30", "09:00~18:30", "09:00~18:30", "09:00~18:30", "09:00~18:30", "09:00~14:00", "-"]}, {"name": "\uc5f0\uc554\uc57d\uad6d", "lat": "35.220584596242325", "lng": "129.00756515833225", "url": "/info/%EC%97%B0%EC%95%94%EC%95%BD%EA%B5%AD-%EB%B6%80%EC%82%B0%EA%B4%91%EC%97%AD%EC%8B%9C-%EB%B6%81%EA%B5%AC-%EB%8D%95%EC%B2%9C%EB%8F%99/", "workingTime": ["-", "09:00~18:00", "09:00~18:00", "09:00~18:00", "09:00~18:00", "09:00~18:00", "09:00~13:00", "-"]}, {"name": "\ubc1d\uc740\uc57d\uad6d", "lat": "35.210752777777778", "lng": "129.007177777777770", "url": "/info/%EB%B0%9D%EC%9D%80%EC%95%BD%EA%B5%AD-%EB%B6%80%EC%82%B0%EA%B4%91%EC%97%AD%EC%8B%9C-%EB%B6%81%EA%B5%AC-%EB%8D%95%EC%B2%9C%EB%8F%99/", "workingTime": ["-", "09:00~20:00", "09:00~20:00", "09:00~20:00", "09:00~20:00", "09:00~20:00", "09:00~15:00", "-"]}, {"name": "\ubcb3\uc804\ubb38\uc57d\uad6d", "lat": "35.21237353595952", "lng": "129.01531524997483", "url": "/info/%EB%B2%B3%EC%A0%84%EB%AC%B8%EC%95%BD%EA%B5%AD-%EB%B6%80%EC%82%B0%EA%B4%91%EC%97%AD%EC%8B%9C-%EB%B6%81%EA%B5%AC-%EB%8D%95%EC%B2%9C%EB%8F%99/", "workingTime": ["-", "09:00~18:00", "09:00~18:00", "09:00~18:00", "09:00~18:00", "09:00~18:00", "-", "-"]}, {"name": "\ubcf4\uc740\uc57d\uad6d", "lat": "35.2117603963", "lng": "129.0108220208", "url": "/info/%EB%B3%B4%EC%9D%80%EC%95%BD%EA%B5%AD-%EB%B6%80%EC%82%B0%EA%B4%91%EC%97%AD%EC%8B%9C-%EB%B6%81%EA%B5%AC-%EB%8D%95%EC%B2%9C%EB%8F%99/", "workingTime": ["-", "09:00~18:00", "09:00~18:00", "09:00~18:00", "09:00~18:00", "09:00~18:00", "09:00~14:00", "-"]}, {"name": "\ubd80\ubbfc\uc628\ub204\ub9ac\uc57d\uad6d", "lat": "35.2122756174", "lng": "129.0117043836012", "url": "/info/%EB%B6%80%EB%AF%BC%EC%98%A8%EB%88%84%EB%A6%AC%EC%95%BD%EA%B5%AD-%EB%B6%80%EC%82%B0%EA%B4%91%EC%97%AD%EC%8B%9C-%EB%B6%81%EA%B5%AC-%EB%8D%95%EC%B2%9C%EB%8F%99/", "workingTime": ["-", "09:00~18:00", "09:00~17:30", "09:00~17:30", "09:00~17:30", "09:00~17:30", "09:00~13:30", "-"]}, {"name": "\ubaa8\ub2dd\uc57d\uad6d", "lat": "35.210641666666668", "lng": "129.006566666666657", "url": "/info/%EB%AA%A8%EB%8B%9D%EC%95%BD%EA%B5%AD-%EB%B6%80%EC%82%B0%EA%B4%91%EC%97%AD%EC%8B%9C-%EB%B6%81%EA%B5%AC-%EB%8D%95%EC%B2%9C%EB%8F%99/", "workingTime": ["-", "09:00~19:00", "09:00~19:00", "09:00~19:00", "09:00~19:00", "09:00~19:00", "09:00~14:00", "-"]}, {"name": "\ub4dc\ub9bc\uc57d\uad6d", "lat": "35.21034026331914", "lng": "129.00755880700044", "url": "/info/%EB%93%9C%EB%A6%BC%EC%95%BD%EA%B5%AD-%EB%B6%80%EC%82%B0%EA%B4%91%EC%97%AD%EC%8B%9C-%EB%B6%81%EA%B5%AC-%EB%8D%95%EC%B2%9C%EB%8F%99/", "workingTime": ["-", "09:00~21:00", "09:00~21:00", "09:00~21:00", "09:00~21:00", "09:00~21:00", "09:00~21:00", "-"]}, {"name": "\ub85c\ub380\uc57d\uad6d", "lat": "35.21194017211775", "lng": "129.01182459127273", "url": "/info/%EB%A1%9C%EB%8E%80%EC%95%BD%EA%B5%AD-%EB%B6%80%EC%82%B0%EA%B4%91%EC%97%AD%EC%8B%9C-%EB%B6%81%EA%B5%AC-%EB%8D%95%EC%B2%9C%EB%8F%99/", "workingTime": ["-", "09:00~18:00", "09:00~18:00", "09:00~18:00", "09:00~18:00", "09:00~18:00", "09:00~13:00", "-"]}, {"name": "\ub9c8\ud2b8\uc57d\uad6d", "lat": "35.2141725153598", "lng": "129.02243562838294", "url": "/info/%EB%A7%88%ED%8A%B8%EC%95%BD%EA%B5%AD-%EB%B6%80%EC%82%B0%EA%B4%91%EC%97%AD%EC%8B%9C-%EB%B6%81%EA%B5%AC-%EB%8D%95%EC%B2%9C%EB%8F%99/", "workingTime": ["-", "09:00~18:10", "09:00~18:10", "09:00~18:10", "09:00~18:10", "09:00~18:10", "09:00~12:10", "-"]}, {"name": "\uba54\ub514\uce7c\uc57d\uad6d", "lat": "35.21022340081374", "lng": "129.0065622352701", "url": "/info/%EB%A9%94%EB%94%94%EC%B9%BC%EC%95%BD%EA%B5%AD-%EB%B6%80%EC%82%B0%EA%B4%91%EC%97%AD%EC%8B%9C-%EB%B6%81%EA%B5%AC-%EB%8D%95%EC%B2%9C%EB%8F%99/", "workingTime": ["-", "09:00~20:00", "09:00~20:00", "09:00~20:00", "09:00~20:00", "09:00~20:00", "09:00~16:00", "09:00~13:00"]}, {"name": "\ub355\ucc9c\uc628\ub204\ub9ac\uc57d\uad6d", "lat": "35.210756673039", "lng": "129.006945930698", "url": "/info/%EB%8D%95%EC%B2%9C%EC%98%A8%EB%88%84%EB%A6%AC%EC%95%BD%EA%B5%AD-%EB%B6%80%EC%82%B0%EA%B4%91%EC%97%AD%EC%8B%9C-%EB%B6%81%EA%B5%AC-%EB%8D%95%EC%B2%9C%EB%8F%99/", "workingTime": ["-", "09:00~20:30", "09:00~20:30", "09:00~20:30", "09:00~20:30", "09:00~20:30", "09:00~17:00", "-"]}, {"name": "\ub355\ucc9c\uc6b0\ub9ac\uc57d\uad6d", "lat": "35.2096176555413", "lng": "129.00565938473358", "url": "/info/%EB%8D%95%EC%B2%9C%EC%9A%B0%EB%A6%AC%EC%95%BD%EA%B5%AD-%EB%B6%80%EC%82%B0%EA%B4%91%EC%97%AD%EC%8B%9C-%EB%B6%81%EA%B5%AC-%EB%8D%95%EC%B2%9C%EB%8F%99/", "workingTime": ["-", "09:00~20:30", "09:00~20:30", "09:00~20:30", "09:00~20:30", "09:00~20:30", "09:00~19:30", "09:00~13:00"]}, {"name": "\ub355\ucc9c\uc870\uc57d\uad6d", "lat": "35.21068803272379", "lng": "129.0065421546294", "url": "/info/%EB%8D%95%EC%B2%9C%EC%A1%B0%EC%95%BD%EA%B5%AD-%EB%B6%80%EC%82%B0%EA%B4%91%EC%97%AD%EC%8B%9C-%EB%B6%81%EA%B5%AC-%EB%8D%95%EC%B2%9C%EB%8F%99/", "workingTime": ["-", "09:00~18:30", "09:00~18:30", "09:00~18:30", "09:00~18:30", "09:00~18:30", "09:00~14:00", "-"]}, {"name": "\ub3d9\uc544\uc57d\uad6d", "lat": "35.210104311245765", "lng": "129.00609298529469", "url": "/info/%EB%8F%99%EC%95%84%EC%95%BD%EA%B5%AD-%EB%B6%80%EC%82%B0%EA%B4%91%EC%97%AD%EC%8B%9C-%EB%B6%81%EA%B5%AC-%EB%8D%95%EC%B2%9C%EB%8F%99/", "workingTime": ["1,2,3,4,5\uc9f8\uc8fc13:00~19:00", "09:00~19:00", "09:00~19:00", "09:00~19:00", "09:00~19:00", "09:00~19:00", "09:00~19:00", "13:00~19:00"]}, {"name": "\ub2e4\uc628\uc628\ub204\ub9ac\uc57d\uad6d", "lat": "35.211053566610374", "lng": "129.0081937920216", "url": "/info/%EB%8B%A4%EC%98%A8%EC%98%A8%EB%88%84%EB%A6%AC%EC%95%BD%EA%B5%AD-%EB%B6%80%EC%82%B0%EA%B4%91%EC%97%AD%EC%8B%9C-%EB%B6%81%EA%B5%AC-%EB%8D%95%EC%B2%9C%EB%8F%99/", "workingTime": ["-", "09:00~19:30", "09:00~19:30", "09:00~19:30", "09:00~19:30", "09:00~19:30", "09:00~15:00", "-"]}, {"name": "\ub0a8\uc740\uc57d\uad6d", "lat": "35.20880379962555", "lng": "129.013198749102", "url": "/info/%EB%82%A8%EC%9D%80%EC%95%BD%EA%B5%AD-%EB%B6%80%EC%82%B0%EA%B4%91%EC%97%AD%EC%8B%9C-%EB%B6%81%EA%B5%AC-%EB%8D%95%EC%B2%9C%EB%8F%99/", "workingTime": ["-", "09:00~19:00", "09:00~19:00", "09:00~19:00", "09:00~19:00", "09:00~19:00", "09:00~13:00", "-"]}, {"name": "\uac74\uac15\ubc31\uc138\uc57d\uad6d", "lat": "35.210141666666665", "lng": "129.006750000000011", "url": "/info/%EA%B1%B4%EA%B0%95%EB%B0%B1%EC%84%B8%EC%95%BD%EA%B5%AD-%EB%B6%80%EC%82%B0%EA%B4%91%EC%97%AD%EC%8B%9C-%EB%B6%81%EA%B5%AC-%EB%8D%95%EC%B2%9C%EB%8F%99/", "workingTime": ["-", "09:00~18:30", "09:00~18:30", "09:00~18:30", "09:00~18:30", "09:00~18:30", "09:00~14:00", "09:00~13:00"]}, {"name": "\uad6c\ud3ec\ud070\uc57d\uad6d", "lat": "35.2105436606105", "lng": "129.005384235795", "url": "/info/%EA%B5%AC%ED%8F%AC%ED%81%B0%EC%95%BD%EA%B5%AD-%EB%B6%80%EC%82%B0%EA%B4%91%EC%97%AD%EC%8B%9C-%EB%B6%81%EA%B5%AC-%EB%8D%95%EC%B2%9C%EB%8F%99/", "workingTime": ["1,2,3,4,5\uc9f8\uc8fc08:30~21:00", "08:30~21:00", "08:30~21:00", "08:30~21:00", "08:30~21:00", "08:30~21:00", "08:30~21:00", "-"]}, {"name": "\uad6d\ubbfc\uc57d\uad6d", "lat": "35.2106993105", "lng": "129.0061226451", "url": "/info/%EA%B5%AD%EB%AF%BC%EC%95%BD%EA%B5%AD-%EB%B6%80%EC%82%B0%EA%B4%91%EC%97%AD%EC%8B%9C-%EB%B6%81%EA%B5%AC-%EB%8D%95%EC%B2%9C%EB%8F%99/", "workingTime": ["-", "09:00~19:00", "09:00~19:00", "09:00~19:00", "09:00~19:00", "09:00~19:00", "09:00~14:00", "09:00~13:00"]}]