[{"name": "\uc0c8\ud604\ub300\uc57d\uad6d", "lat": "35.15595131359343", "lng": "129.04193911546548", "url": "/info/%EC%83%88%ED%98%84%EB%8C%80%EC%95%BD%EA%B5%AD-%EB%B6%80%EC%82%B0%EA%B4%91%EC%97%AD%EC%8B%9C-%EB%B6%80%EC%82%B0%EC%A7%84%EA%B5%AC-%EA%B0%80%EC%95%BC%EB%8F%99/", "workingTime": ["-", "09:00~20:30", "09:00~20:30", "09:00~20:30", "09:00~20:30", "09:00~20:30", "09:00~19:00", "10:00~17:00"]}, {"name": "\uc138\ud654\uc57d\uad6d", "lat": "35.15448165862479", "lng": "129.03802342799582", "url": "/info/%EC%84%B8%ED%99%94%EC%95%BD%EA%B5%AD-%EB%B6%80%EC%82%B0%EA%B4%91%EC%97%AD%EC%8B%9C-%EB%B6%80%EC%82%B0%EC%A7%84%EA%B5%AC-%EA%B0%80%EC%95%BC%EB%8F%99/", "workingTime": ["-", "09:00~18:30", "09:00~18:30", "09:00~18:30", "09:00~18:30", "09:00~18:30", "09:00~13:00", "-"]}, {"name": "\uc628\ub204\ub9ac\uc8fc\ubbfc\uc57d\uad6d", "lat": "35.154513888888886", "lng": "129.036916666666656", "url": "/info/%EC%98%A8%EB%88%84%EB%A6%AC%EC%A3%BC%EB%AF%BC%EC%95%BD%EA%B5%AD-%EB%B6%80%EC%82%B0%EA%B4%91%EC%97%AD%EC%8B%9C-%EB%B6%80%EC%82%B0%EC%A7%84%EA%B5%AC-%EA%B0%80%EC%95%BC%EB%8F%99/", "workingTime": ["-", "09:00~19:30", "09:00~19:30", "09:00~19:30", "09:00~19:30", "09:00~19:30", "09:00~13:30", "-"]}, {"name": "\uc9c0\uc131\uc57d\uad6d", "lat": "35.1541797729", "lng": "129.037326818", "url": "/info/%EC%A7%80%EC%84%B1%EC%95%BD%EA%B5%AD-%EB%B6%80%EC%82%B0%EA%B4%91%EC%97%AD%EC%8B%9C-%EB%B6%80%EC%82%B0%EC%A7%84%EA%B5%AC-%EA%B0%80%EC%95%BC%EB%8F%99/", "workingTime": ["-", "09:00~19:30", "09:00~19:30", "09:00~19:30", "09:00~19:30", "09:00~19:30", "09:00~15:00", "-"]}, {"name": "\uc9c0\uc601\uc57d\uad6d", "lat": "35.1559919774008", "lng": "129.041856281004", "url": "/info/%EC%A7%80%EC%98%81%EC%95%BD%EA%B5%AD-%EB%B6%80%EC%82%B0%EA%B4%91%EC%97%AD%EC%8B%9C-%EB%B6%80%EC%82%B0%EC%A7%84%EA%B5%AC-%EA%B0%80%EC%95%BC%EB%8F%99/", "workingTime": ["-", "08:30~18:30", "08:30~18:30", "08:30~18:30", "08:30~18:30", "08:30~18:30", "08:30~13:30", "-"]}, {"name": "\ud070\uae38\uc57d\uad6d", "lat": "35.1561762242103", "lng": "129.042622950815", "url": "/info/%ED%81%B0%EA%B8%B8%EC%95%BD%EA%B5%AD-%EB%B6%80%EC%82%B0%EA%B4%91%EC%97%AD%EC%8B%9C-%EB%B6%80%EC%82%B0%EC%A7%84%EA%B5%AC-%EA%B0%80%EC%95%BC%EB%8F%99/", "workingTime": ["1,2,3,4,5\uc9f8\uc8fc09:00~13:00", "09:00~20:00", "09:00~20:00", "09:00~20:00", "09:00~20:00", "09:00~20:00", "09:00~15:00", "-"]}, {"name": "\uac00\uc57c\ub298\ud478\ub978\uc57d\uad6d", "lat": "35.154296177156524", "lng": "129.0370488369935", "url": "/info/%EA%B0%80%EC%95%BC%EB%8A%98%ED%91%B8%EB%A5%B8%EC%95%BD%EA%B5%AD-%EB%B6%80%EC%82%B0%EA%B4%91%EC%97%AD%EC%8B%9C-%EB%B6%80%EC%82%B0%EC%A7%84%EA%B5%AC-%EA%B0%80%EC%95%BC%EB%8F%99/", "workingTime": ["-", "08:30~19:30", "08:30~19:30", "08:30~19:30", "08:30~19:30", "08:30~19:30", "08:30~14:00", "08:30~13:00"]}, {"name": "\ub274\uc0bc\uc131\uc57d\uad6d", "lat": "35.15246603251114", "lng": "129.02732116675523", "url": "/info/%EB%89%B4%EC%82%BC%EC%84%B1%EC%95%BD%EA%B5%AD-%EB%B6%80%EC%82%B0%EA%B4%91%EC%97%AD%EC%8B%9C-%EB%B6%80%EC%82%B0%EC%A7%84%EA%B5%AC-%EA%B0%80%EC%95%BC%EB%8F%99/", "workingTime": ["1,3,5\uc9f8\uc8fc10:00~22:00", "10:00~22:00", "10:00~22:00", "10:00~22:00", "10:00~22:00", "10:00~22:00", "10:00~22:00", "10:00~22:00"]}]