[{"name": "\ud604\ub300\uc57d\uad6d", "lat": "35.1694536213237", "lng": "129.1208345897", "url": "/info/%ED%98%84%EB%8C%80%EC%95%BD%EA%B5%AD-%EB%B6%80%EC%82%B0%EA%B4%91%EC%97%AD%EC%8B%9C-%EC%88%98%EC%98%81%EA%B5%AC-%EC%88%98%EC%98%81%EB%8F%99/", "workingTime": ["-", "09:00~18:30", "09:00~18:30", "09:00~18:30", "09:00~18:30", "09:00~18:30", "09:00~15:30", "-"]}, {"name": "\ud314\ub3c4\uc0c8\uc2dc\uc7a5\uc57d\uad6d", "lat": "35.17011596176432", "lng": "129.1168148352256", "url": "/info/%ED%8C%94%EB%8F%84%EC%83%88%EC%8B%9C%EC%9E%A5%EC%95%BD%EA%B5%AD-%EB%B6%80%EC%82%B0%EA%B4%91%EC%97%AD%EC%8B%9C-%EC%88%98%EC%98%81%EA%B5%AC-%EC%88%98%EC%98%81%EB%8F%99/", "workingTime": ["-", "09:00~19:00", "09:00~19:00", "09:00~19:00", "09:00~19:00", "09:00~19:00", "09:00~18:00", "-"]}, {"name": "\uc5f4\ub9b0\uc57d\uad6d", "lat": "35.1678248956", "lng": "129.1148211995", "url": "/info/%EC%97%B4%EB%A6%B0%EC%95%BD%EA%B5%AD-%EB%B6%80%EC%82%B0%EA%B4%91%EC%97%AD%EC%8B%9C-%EC%88%98%EC%98%81%EA%B5%AC-%EC%88%98%EC%98%81%EB%8F%99/", "workingTime": ["-", "09:00~20:00", "09:00~21:00", "09:00~20:00", "09:00~21:00", "09:00~20:00", "09:00~16:00", "-"]}, {"name": "\uc601\uc9c4\uc57d\uad6d", "lat": "35.16800992227892", "lng": "129.11666370007435", "url": "/info/%EC%98%81%EC%A7%84%EC%95%BD%EA%B5%AD-%EB%B6%80%EC%82%B0%EA%B4%91%EC%97%AD%EC%8B%9C-%EC%88%98%EC%98%81%EA%B5%AC-%EC%88%98%EC%98%81%EB%8F%99/", "workingTime": ["-", "09:00~19:00", "09:00~19:00", "09:00~19:00", "09:00~19:00", "09:00~19:00", "09:00~19:00", "-"]}, {"name": "\uc218\uc601\uc57d\uad6d", "lat": "35.1677963257645", "lng": "129.11573353094354", "url": "/info/%EC%88%98%EC%98%81%EC%95%BD%EA%B5%AD-%EB%B6%80%EC%82%B0%EA%B4%91%EC%97%AD%EC%8B%9C-%EC%88%98%EC%98%81%EA%B5%AC-%EC%88%98%EC%98%81%EB%8F%99/", "workingTime": ["-", "09:00~19:00", "09:00~20:00", "09:00~19:00", "09:00~19:00", "09:00~20:00", "09:00~14:00", "-"]}, {"name": "\ubaa9\ub3d9\uc57d\uad6d", "lat": "35.17023439666014", "lng": "129.11622528023113", "url": "/info/%EB%AA%A9%EB%8F%99%EC%95%BD%EA%B5%AD-%EB%B6%80%EC%82%B0%EA%B4%91%EC%97%AD%EC%8B%9C-%EC%88%98%EC%98%81%EA%B5%AC-%EC%88%98%EC%98%81%EB%8F%99/", "workingTime": ["-", "09:00~19:00", "09:00~19:00", "09:00~19:00", "09:00~19:00", "09:00~19:00", "09:00~18:00", "10:00~18:00"]}, {"name": "\ub514\uc628\uc57d\uad6d", "lat": "35.1678898275", "lng": "129.1158500713", "url": "/info/%EB%94%94%EC%98%A8%EC%95%BD%EA%B5%AD-%EB%B6%80%EC%82%B0%EA%B4%91%EC%97%AD%EC%8B%9C-%EC%88%98%EC%98%81%EA%B5%AC-%EC%88%98%EC%98%81%EB%8F%99/", "workingTime": ["-", "09:00~18:30", "09:00~18:30", "09:00~18:30", "09:00~18:30", "09:00~18:30", "09:00~14:00", "-"]}, {"name": "\ub300\uc601\uc57d\uad6d", "lat": "35.16783647531038", "lng": "129.1151375724507", "url": "/info/%EB%8C%80%EC%98%81%EC%95%BD%EA%B5%AD-%EB%B6%80%EC%82%B0%EA%B4%91%EC%97%AD%EC%8B%9C-%EC%88%98%EC%98%81%EA%B5%AC-%EC%88%98%EC%98%81%EB%8F%99/", "workingTime": ["1,2,4,5\uc9f8\uc8fc15:00~19:00", "09:00~21:00", "09:00~21:00", "09:00~21:00", "09:00~21:00", "09:00~21:00", "09:00~21:00", "10:30~20:30"]}, {"name": "\uace0\uc740\uc57d\uad6d", "lat": "35.16870198789038", "lng": "129.11852092105408", "url": "/info/%EA%B3%A0%EC%9D%80%EC%95%BD%EA%B5%AD-%EB%B6%80%EC%82%B0%EA%B4%91%EC%97%AD%EC%8B%9C-%EC%88%98%EC%98%81%EA%B5%AC-%EC%88%98%EC%98%81%EB%8F%99/", "workingTime": ["-", "09:00~18:30", "09:00~18:30", "09:00~18:30", "09:00~18:30", "09:00~18:30", "09:00~13:00", "-"]}]