[{"name": "\uc9c4\uc2ec\uc57d\uad6d", "lat": "35.1246029450989", "lng": "129.044437554914", "url": "/info/%EC%A7%84%EC%8B%AC%EC%95%BD%EA%B5%AD-%EB%B6%80%EC%82%B0%EA%B4%91%EC%97%AD%EC%8B%9C-%EB%8F%99%EA%B5%AC-%EC%B4%88%EB%9F%89%EB%8F%99/", "workingTime": ["-", "09:00~18:00", "09:00~18:00", "09:00~18:00", "09:00~18:00", "09:00~18:00", "09:00~13:00", "-"]}, {"name": "\ud6c4\ubb38\uc57d\uad6d", "lat": "35.1252530377258", "lng": "129.044502288301", "url": "/info/%ED%9B%84%EB%AC%B8%EC%95%BD%EA%B5%AD-%EB%B6%80%EC%82%B0%EA%B4%91%EC%97%AD%EC%8B%9C-%EB%8F%99%EA%B5%AC-%EC%B4%88%EB%9F%89%EB%8F%99/", "workingTime": ["-", "09:00~18:30", "09:00~18:30", "09:00~18:30", "09:00~18:30", "09:00~18:30", "09:00~13:30", "-"]}, {"name": "\ud61c\ubbfc\uc57d\uad6d", "lat": "35.1199261162", "lng": "129.0387326878", "url": "/info/%ED%98%9C%EB%AF%BC%EC%95%BD%EA%B5%AD-%EB%B6%80%EC%82%B0%EA%B4%91%EC%97%AD%EC%8B%9C-%EB%8F%99%EA%B5%AC-%EC%B4%88%EB%9F%89%EB%8F%99/", "workingTime": ["-", "09:00~19:00", "09:00~19:00", "09:00~19:00", "09:00~19:00", "09:00~19:00", "09:00~15:00", "09:00~13:00"]}, {"name": "\ud574\uc815\uc57d\uad6d", "lat": "35.11815", "lng": "129.04063888889146", "url": "/info/%ED%95%B4%EC%A0%95%EC%95%BD%EA%B5%AD-%EB%B6%80%EC%82%B0%EA%B4%91%EC%97%AD%EC%8B%9C-%EB%8F%99%EA%B5%AC-%EC%B4%88%EB%9F%89%EB%8F%99/", "workingTime": ["-", "09:00~19:00", "09:00~19:00", "09:00~19:00", "09:00~19:00", "09:00~19:00", "09:00~14:00", "09:00~14:00"]}, {"name": "\ucc38\uc88b\uc740\uc57d\uad6d", "lat": "35.122122222222224", "lng": "129.042425000000009", "url": "/info/%EC%B0%B8%EC%A2%8B%EC%9D%80%EC%95%BD%EA%B5%AD-%EB%B6%80%EC%82%B0%EA%B4%91%EC%97%AD%EC%8B%9C-%EB%8F%99%EA%B5%AC-%EC%B4%88%EB%9F%89%EB%8F%99/", "workingTime": ["-", "09:00~19:00", "09:00~19:00", "09:00~19:00", "09:00~19:00", "09:00~19:00", "-", "-"]}, {"name": "\uc81c\uc77c\uc57d\uad6d", "lat": "35.125934996665606", "lng": "129.0346660740221", "url": "/info/%EC%A0%9C%EC%9D%BC%EC%95%BD%EA%B5%AD-%EB%B6%80%EC%82%B0%EA%B4%91%EC%97%AD%EC%8B%9C-%EB%8F%99%EA%B5%AC-%EC%B4%88%EB%9F%89%EB%8F%99/", "workingTime": ["-", "09:00~19:00", "09:00~19:00", "09:00~19:00", "09:00~19:00", "09:00~19:00", "09:00~13:00", "-"]}, {"name": "\uc740\uc628\ub204\ub9ac\uc57d\uad6d", "lat": "35.111864299702304", "lng": "129.0392643790636", "url": "/info/%EC%9D%80%EC%98%A8%EB%88%84%EB%A6%AC%EC%95%BD%EA%B5%AD-%EB%B6%80%EC%82%B0%EA%B4%91%EC%97%AD%EC%8B%9C-%EB%8F%99%EA%B5%AC-%EC%B4%88%EB%9F%89%EB%8F%99/", "workingTime": ["-", "09:00~18:30", "09:00~18:30", "09:00~18:30", "09:00~18:30", "09:00~18:30", "09:00~13:00", "-"]}, {"name": "\uc138\uc885\uc57d\uad6d", "lat": "35.119597222222225", "lng": "129.039449999999988", "url": "/info/%EC%84%B8%EC%A2%85%EC%95%BD%EA%B5%AD-%EB%B6%80%EC%82%B0%EA%B4%91%EC%97%AD%EC%8B%9C-%EB%8F%99%EA%B5%AC-%EC%B4%88%EB%9F%89%EB%8F%99/", "workingTime": ["1,2,3,4,5\uc9f8\uc8fc11:00~20:00", "09:00~21:00", "09:00~21:00", "09:00~21:00", "09:00~21:00", "09:00~21:00", "09:00~20:30", "09:00~20:00"]}, {"name": "\uc18c\ub9bc\uc57d\uad6d", "lat": "35.117455555555559", "lng": "129.037694444444440", "url": "/info/%EC%86%8C%EB%A6%BC%EC%95%BD%EA%B5%AD-%EB%B6%80%EC%82%B0%EA%B4%91%EC%97%AD%EC%8B%9C-%EB%8F%99%EA%B5%AC-%EC%B4%88%EB%9F%89%EB%8F%99/", "workingTime": ["1,2,3,4,5\uc9f8\uc8fc09:00~16:00", "09:00~21:00", "09:00~21:00", "09:00~21:00", "09:00~21:00", "09:00~21:00", "09:00~21:00", "09:00~16:00"]}, {"name": "\uc194\uc57d\uad6d", "lat": "35.11842712846187", "lng": "129.0391381998443", "url": "/info/%EC%86%94%EC%95%BD%EA%B5%AD-%EB%B6%80%EC%82%B0%EA%B4%91%EC%97%AD%EC%8B%9C-%EB%8F%99%EA%B5%AC-%EC%B4%88%EB%9F%89%EB%8F%99/", "workingTime": ["-", "09:00~18:30", "09:00~18:30", "09:00~18:30", "09:00~18:30", "09:00~18:30", "09:00~13:30", "-"]}, {"name": "\uc0c8\ubd80\uc0b0\uc57d\uad6d", "lat": "35.11536516067123", "lng": "129.0424850323913", "url": "/info/%EC%83%88%EB%B6%80%EC%82%B0%EC%95%BD%EA%B5%AD-%EB%B6%80%EC%82%B0%EA%B4%91%EC%97%AD%EC%8B%9C-%EB%8F%99%EA%B5%AC-%EC%B4%88%EB%9F%89%EB%8F%99/", "workingTime": ["1,2,3,4,5\uc9f8\uc8fc08:00~21:00", "08:00~21:00", "08:00~21:00", "08:00~21:00", "08:00~21:00", "08:00~21:00", "08:00~21:00", "08:00~21:00"]}, {"name": "\uc0c8\ubd80\uc0b0\uc57d\uad6d", "lat": "35.1177462516", "lng": "129.0491459122", "url": "/info/%EC%83%88%EB%B6%80%EC%82%B0%EC%95%BD%EA%B5%AD-%EB%B6%80%EC%82%B0%EA%B4%91%EC%97%AD%EC%8B%9C-%EB%8F%99%EA%B5%AC-%EC%B4%88%EB%9F%89%EB%8F%99/", "workingTime": ["-", "09:00~17:30", "09:00~17:30", "09:00~17:30", "09:00~17:30", "09:00~17:30", "09:00~17:30", "-"]}, {"name": "\ubd80\uc0b0\uc5ed\uc628\ub204\ub9ac\uc57d\uad6d", "lat": "35.1151165783653", "lng": "129.03921383624126", "url": "/info/%EB%B6%80%EC%82%B0%EC%97%AD%EC%98%A8%EB%88%84%EB%A6%AC%EC%95%BD%EA%B5%AD-%EB%B6%80%EC%82%B0%EA%B4%91%EC%97%AD%EC%8B%9C-%EB%8F%99%EA%B5%AC-%EC%B4%88%EB%9F%89%EB%8F%99/", "workingTime": ["-", "08:30~17:00", "08:30~17:00", "08:30~17:00", "08:30~17:00", "08:30~17:00", "08:30~14:30", "-"]}, {"name": "\ubc31\uad11\uc57d\uad6d", "lat": "35.120038888888885", "lng": "129.03873333333593", "url": "/info/%EB%B0%B1%EA%B4%91%EC%95%BD%EA%B5%AD-%EB%B6%80%EC%82%B0%EA%B4%91%EC%97%AD%EC%8B%9C-%EB%8F%99%EA%B5%AC-%EC%B4%88%EB%9F%89%EB%8F%99/", "workingTime": ["-", "09:00~19:00", "09:00~19:00", "09:00~19:00", "09:00~19:00", "09:00~19:00", "09:00~14:00", "-"]}, {"name": "\ubbf8\ubcf4\uc57d\uad6d", "lat": "35.116288888888889", "lng": "129.039891666666676", "url": "/info/%EB%AF%B8%EB%B3%B4%EC%95%BD%EA%B5%AD-%EB%B6%80%EC%82%B0%EA%B4%91%EC%97%AD%EC%8B%9C-%EB%8F%99%EA%B5%AC-%EC%B4%88%EB%9F%89%EB%8F%99/", "workingTime": ["-", "09:00~20:00", "09:00~20:00", "09:00~20:00", "09:00~20:00", "09:00~20:00", "09:00~18:00", "09:00~21:00"]}, {"name": "\ubbfc\uc0dd\uc57d\uad6d", "lat": "35.118083333333331", "lng": "129.039908333333329", "url": "/info/%EB%AF%BC%EC%83%9D%EC%95%BD%EA%B5%AD-%EB%B6%80%EC%82%B0%EA%B4%91%EC%97%AD%EC%8B%9C-%EB%8F%99%EA%B5%AC-%EC%B4%88%EB%9F%89%EB%8F%99/", "workingTime": ["1,2,3,4,5\uc9f8\uc8fc12:00~21:00", "09:00~22:00", "09:00~22:00", "09:00~22:00", "09:00~22:00", "09:00~22:00", "09:00~22:00", "09:00~21:00"]}, {"name": "\ub300\ub9bc\uc57d\uad6d", "lat": "35.120122222222221", "lng": "129.037619444444431", "url": "/info/%EB%8C%80%EB%A6%BC%EC%95%BD%EA%B5%AD-%EB%B6%80%EC%82%B0%EA%B4%91%EC%97%AD%EC%8B%9C-%EB%8F%99%EA%B5%AC-%EC%B4%88%EB%9F%89%EB%8F%99/", "workingTime": ["2,4\uc9f8\uc8fc10:00~21:00", "09:00~21:30", "09:00~21:30", "09:00~21:30", "09:00~21:30", "09:00~21:30", "09:00~21:00", "10:00~21:00"]}, {"name": "\ub178\ub9c8\uc57d\uad6d", "lat": "35.12027840716116", "lng": "129.03450756751585", "url": "/info/%EB%85%B8%EB%A7%88%EC%95%BD%EA%B5%AD-%EB%B6%80%EC%82%B0%EA%B4%91%EC%97%AD%EC%8B%9C-%EB%8F%99%EA%B5%AC-%EC%B4%88%EB%9F%89%EB%8F%99/", "workingTime": ["-", "09:00~18:30", "09:00~18:30", "09:00~18:30", "09:00~18:30", "09:00~18:30", "09:00~13:00", "-"]}]