[{"name": "\ud638\uc57d\uad6d", "lat": "35.049853219250956", "lng": "128.96965468781283", "url": "/info/%ED%98%B8%EC%95%BD%EA%B5%AD-%EB%B6%80%EC%82%B0%EA%B4%91%EC%97%AD%EC%8B%9C-%EC%82%AC%ED%95%98%EA%B5%AC-%EB%8B%A4%EB%8C%80%EB%8F%99/", "workingTime": ["-", "08:30~18:30", "13:00~21:00", "08:30~18:30", "13:00~21:00", "08:30~18:30", "08:30~13:30", "-"]}, {"name": "\uc911\uc559\uc57d\uad6d", "lat": "35.066261595286264", "lng": "128.98075117954176", "url": "/info/%EC%A4%91%EC%95%99%EC%95%BD%EA%B5%AD-%EB%B6%80%EC%82%B0%EA%B4%91%EC%97%AD%EC%8B%9C-%EC%82%AC%ED%95%98%EA%B5%AC-%EB%8B%A4%EB%8C%80%EB%8F%99/", "workingTime": ["-", "09:00~20:00", "09:00~20:00", "09:00~20:00", "09:00~20:00", "09:00~20:00", "09:00~13:00", "09:00~13:00"]}, {"name": "\uc815\uc57d\uad6d", "lat": "35.0640964685", "lng": "128.9804489555", "url": "/info/%EC%A0%95%EC%95%BD%EA%B5%AD-%EB%B6%80%EC%82%B0%EA%B4%91%EC%97%AD%EC%8B%9C-%EC%82%AC%ED%95%98%EA%B5%AC-%EB%8B%A4%EB%8C%80%EB%8F%99/", "workingTime": ["-", "09:00~21:00", "09:00~21:00", "09:00~19:00", "09:00~21:00", "09:00~21:00", "09:00~15:00", "-"]}, {"name": "\uc774\ud654\uc57d\uad6d", "lat": "35.050058887844045", "lng": "128.9658386626953", "url": "/info/%EC%9D%B4%ED%99%94%EC%95%BD%EA%B5%AD-%EB%B6%80%EC%82%B0%EA%B4%91%EC%97%AD%EC%8B%9C-%EC%82%AC%ED%95%98%EA%B5%AC-%EB%8B%A4%EB%8C%80%EB%8F%99/", "workingTime": ["-", "09:00~19:30", "09:00~19:30", "09:00~19:30", "09:00~19:30", "09:00~19:30", "09:00~14:00", "-"]}, {"name": "\uc5f4\ub9b0\uc57d\uad6d", "lat": "35.0614810237866", "lng": "128.979312755324", "url": "/info/%EC%97%B4%EB%A6%B0%EC%95%BD%EA%B5%AD-%EB%B6%80%EC%82%B0%EA%B4%91%EC%97%AD%EC%8B%9C-%EC%82%AC%ED%95%98%EA%B5%AC-%EB%8B%A4%EB%8C%80%EB%8F%99/", "workingTime": ["-", "09:00~19:00", "09:00~19:00", "09:00~19:00", "09:00~19:00", "09:00~19:00", "09:00~13:00", "09:00~13:00"]}, {"name": "\uc601\ud654\uc57d\uad6d", "lat": "35.06748581411019", "lng": "128.97971201848947", "url": "/info/%EC%98%81%ED%99%94%EC%95%BD%EA%B5%AD-%EB%B6%80%EC%82%B0%EA%B4%91%EC%97%AD%EC%8B%9C-%EC%82%AC%ED%95%98%EA%B5%AC-%EB%8B%A4%EB%8C%80%EB%8F%99/", "workingTime": ["-", "09:00~19:00", "09:00~19:00", "09:00~19:00", "09:00~19:00", "09:00~19:00", "09:00~16:00", "-"]}, {"name": "\uc608\uc57d\uad6d", "lat": "35.0567928861227", "lng": "128.970529160508", "url": "/info/%EC%98%88%EC%95%BD%EA%B5%AD-%EB%B6%80%EC%82%B0%EA%B4%91%EC%97%AD%EC%8B%9C-%EC%82%AC%ED%95%98%EA%B5%AC-%EB%8B%A4%EB%8C%80%EB%8F%99/", "workingTime": ["-", "09:00~19:00", "09:00~19:00", "09:00~19:00", "09:00~19:00", "09:00~19:00", "09:00~13:00", "-"]}, {"name": "\uc2e0\ub2e4\ub300\ud3ec\uc57d\uad6d", "lat": "35.05663297453861", "lng": "128.97101126008798", "url": "/info/%EC%8B%A0%EB%8B%A4%EB%8C%80%ED%8F%AC%EC%95%BD%EA%B5%AD-%EB%B6%80%EC%82%B0%EA%B4%91%EC%97%AD%EC%8B%9C-%EC%82%AC%ED%95%98%EA%B5%AC-%EB%8B%A4%EB%8C%80%EB%8F%99/", "workingTime": ["-", "09:00~21:00", "09:00~21:00", "09:00~21:00", "09:00~21:00", "09:00~21:00", "-", "10:00~18:00"]}, {"name": "\uc11c\ud638\uc57d\uad6d", "lat": "35.0556444795095", "lng": "128.96327642856642", "url": "/info/%EC%84%9C%ED%98%B8%EC%95%BD%EA%B5%AD-%EB%B6%80%EC%82%B0%EA%B4%91%EC%97%AD%EC%8B%9C-%EC%82%AC%ED%95%98%EA%B5%AC-%EB%8B%A4%EB%8C%80%EB%8F%99/", "workingTime": ["-", "09:00~19:00", "09:00~19:00", "09:00~19:00", "09:00~19:00", "09:00~19:00", "09:00~14:00", "-"]}, {"name": "\uc0ac\uac70\ub9ac\uc57d\uad6d", "lat": "35.05723053368881", "lng": "128.97128426211307", "url": "/info/%EC%82%AC%EA%B1%B0%EB%A6%AC%EC%95%BD%EA%B5%AD-%EB%B6%80%EC%82%B0%EA%B4%91%EC%97%AD%EC%8B%9C-%EC%82%AC%ED%95%98%EA%B5%AC-%EB%8B%A4%EB%8C%80%EB%8F%99/", "workingTime": ["-", "09:00~20:00", "09:00~20:00", "09:00~20:00", "09:00~20:00", "09:00~20:00", "09:00~15:00", "-"]}, {"name": "\uc0bc\uc815\uc57d\uad6d", "lat": "35.0579052974", "lng": "128.9717112813", "url": "/info/%EC%82%BC%EC%A0%95%EC%95%BD%EA%B5%AD-%EB%B6%80%EC%82%B0%EA%B4%91%EC%97%AD%EC%8B%9C-%EC%82%AC%ED%95%98%EA%B5%AC-%EB%8B%A4%EB%8C%80%EB%8F%99/", "workingTime": ["-", "09:00~19:00", "09:00~19:00", "09:00~19:00", "09:00~19:00", "09:00~19:00", "09:00~14:00", "-"]}, {"name": "\uc0bc\ud658\uc57d\uad6d", "lat": "35.06374214860883", "lng": "128.9807341384748", "url": "/info/%EC%82%BC%ED%99%98%EC%95%BD%EA%B5%AD-%EB%B6%80%EC%82%B0%EA%B4%91%EC%97%AD%EC%8B%9C-%EC%82%AC%ED%95%98%EA%B5%AC-%EB%8B%A4%EB%8C%80%EB%8F%99/", "workingTime": ["-", "09:00~20:00", "09:00~20:00", "09:00~20:00", "09:00~20:00", "09:00~20:00", "09:00~14:00", "-"]}, {"name": "\uc0c8\uac74\uac15\uc57d\uad6d", "lat": "35.06496526230607", "lng": "128.97998439167665", "url": "/info/%EC%83%88%EA%B1%B4%EA%B0%95%EC%95%BD%EA%B5%AD-%EB%B6%80%EC%82%B0%EA%B4%91%EC%97%AD%EC%8B%9C-%EC%82%AC%ED%95%98%EA%B5%AC-%EB%8B%A4%EB%8C%80%EB%8F%99/", "workingTime": ["-", "09:00~21:00", "09:00~21:00", "09:00~19:00", "09:00~21:00", "09:00~21:00", "09:00~15:30", "-"]}, {"name": "\ubc14\ub978\uc57d\uad6d", "lat": "35.05780488784361", "lng": "128.970980587074", "url": "/info/%EB%B0%94%EB%A5%B8%EC%95%BD%EA%B5%AD-%EB%B6%80%EC%82%B0%EA%B4%91%EC%97%AD%EC%8B%9C-%EC%82%AC%ED%95%98%EA%B5%AC-%EB%8B%A4%EB%8C%80%EB%8F%99/", "workingTime": ["-", "09:00~19:00", "09:00~19:00", "09:00~19:00", "09:00~19:00", "09:00~19:00", "09:00~14:00", "-"]}, {"name": "\ubc31\uc57d\uad6d", "lat": "35.0576279405", "lng": "128.97147664760107", "url": "/info/%EB%B0%B1%EC%95%BD%EA%B5%AD-%EB%B6%80%EC%82%B0%EA%B4%91%EC%97%AD%EC%8B%9C-%EC%82%AC%ED%95%98%EA%B5%AC-%EB%8B%A4%EB%8C%80%EB%8F%99/", "workingTime": ["-", "09:00~22:00", "09:00~22:00", "09:00~22:00", "09:00~22:00", "09:00~22:00", "09:00~22:00", "-"]}, {"name": "\ubbf8\uc18c\uc57d\uad6d", "lat": "35.04930461518438", "lng": "128.9650300984265", "url": "/info/%EB%AF%B8%EC%86%8C%EC%95%BD%EA%B5%AD-%EB%B6%80%EC%82%B0%EA%B4%91%EC%97%AD%EC%8B%9C-%EC%82%AC%ED%95%98%EA%B5%AC-%EB%8B%A4%EB%8C%80%EB%8F%99/", "workingTime": ["-", "09:00~19:00", "09:00~19:00", "09:00~19:00", "09:00~19:00", "09:00~19:00", "09:00~13:00", "-"]}, {"name": "\ubc14\ub2e4\uc628\ub204\ub9ac\uc57d\uad6d", "lat": "35.0572865647", "lng": "128.970745096", "url": "/info/%EB%B0%94%EB%8B%A4%EC%98%A8%EB%88%84%EB%A6%AC%EC%95%BD%EA%B5%AD-%EB%B6%80%EC%82%B0%EA%B4%91%EC%97%AD%EC%8B%9C-%EC%82%AC%ED%95%98%EA%B5%AC-%EB%8B%A4%EB%8C%80%EB%8F%99/", "workingTime": ["-", "09:00~19:00", "09:00~19:00", "09:00~19:00", "09:00~19:00", "09:00~19:00", "09:00~14:00", "-"]}, {"name": "\ub9d8\ubaa8\uc2a4\uc57d\uad6d", "lat": "35.061491082144286", "lng": "128.97684044517356", "url": "/info/%EB%A7%98%EB%AA%A8%EC%8A%A4%EC%95%BD%EA%B5%AD-%EB%B6%80%EC%82%B0%EA%B4%91%EC%97%AD%EC%8B%9C-%EC%82%AC%ED%95%98%EA%B5%AC-%EB%8B%A4%EB%8C%80%EB%8F%99/", "workingTime": ["-", "09:30~21:00", "09:30~21:00", "09:30~20:00", "09:30~21:00", "09:30~21:00", "09:30~20:00", "10:00~20:00"]}, {"name": "\ub3d9\uc0b0\uc57d\uad6d", "lat": "35.062604859860784", "lng": "128.98611784094692", "url": "/info/%EB%8F%99%EC%82%B0%EC%95%BD%EA%B5%AD-%EB%B6%80%EC%82%B0%EA%B4%91%EC%97%AD%EC%8B%9C-%EC%82%AC%ED%95%98%EA%B5%AC-%EB%8B%A4%EB%8C%80%EB%8F%99/", "workingTime": ["1,2,3,4,5\uc9f8\uc8fc09:00~21:00", "09:00~21:00", "09:00~21:00", "09:00~21:00", "09:00~21:00", "09:00~21:00", "09:00~21:00", "09:00~21:00"]}, {"name": "\ub2e4\uc1a1\uc57d\uad6d", "lat": "35.06867077378755", "lng": "128.97844719845696", "url": "/info/%EB%8B%A4%EC%86%A1%EC%95%BD%EA%B5%AD-%EB%B6%80%EC%82%B0%EA%B4%91%EC%97%AD%EC%8B%9C-%EC%82%AC%ED%95%98%EA%B5%AC-%EB%8B%A4%EB%8C%80%EB%8F%99/", "workingTime": ["-", "09:00~18:30", "09:00~18:30", "14:00~18:30", "09:00~18:30", "09:00~18:30", "09:00~14:00", "-"]}, {"name": "\ub2e4\ub300\ud3ec\ud558\ub098\uc57d\uad6d", "lat": "35.05617665825138", "lng": "128.97072280207075", "url": "/info/%EB%8B%A4%EB%8C%80%ED%8F%AC%ED%95%98%EB%82%98%EC%95%BD%EA%B5%AD-%EB%B6%80%EC%82%B0%EA%B4%91%EC%97%AD%EC%8B%9C-%EC%82%AC%ED%95%98%EA%B5%AC-%EB%8B%A4%EB%8C%80%EB%8F%99/", "workingTime": ["-", "09:00~19:00", "09:00~19:00", "09:00~19:00", "09:00~19:00", "09:00~19:00", "09:00~14:00", "-"]}, {"name": "\ub2e4\uc0ac\ub791\uc57d\uad6d", "lat": "35.05514226208456", "lng": "128.9702433664617", "url": "/info/%EB%8B%A4%EC%82%AC%EB%9E%91%EC%95%BD%EA%B5%AD-%EB%B6%80%EC%82%B0%EA%B4%91%EC%97%AD%EC%8B%9C-%EC%82%AC%ED%95%98%EA%B5%AC-%EB%8B%A4%EB%8C%80%EB%8F%99/", "workingTime": ["-", "09:00~20:00", "09:00~20:00", "09:00~20:00", "09:00~20:00", "09:00~20:00", "09:00~17:00", "09:00~13:00"]}, {"name": "\uac74\uac15\uc655\uc57d\uad6d", "lat": "35.057383697887346", "lng": "128.9713975387259", "url": "/info/%EA%B1%B4%EA%B0%95%EC%99%95%EC%95%BD%EA%B5%AD-%EB%B6%80%EC%82%B0%EA%B4%91%EC%97%AD%EC%8B%9C-%EC%82%AC%ED%95%98%EA%B5%AC-%EB%8B%A4%EB%8C%80%EB%8F%99/", "workingTime": ["-", "09:00~20:00", "09:00~20:00", "09:00~20:00", "09:00~20:00", "09:00~20:00", "09:00~15:00", "-"]}]