[{"name": "\ubbfc\uc628\ub204\ub9ac\uc57d\uad6d", "lat": "35.1572044551", "lng": "129.1448178866", "url": "/info/%EB%AF%BC%EC%98%A8%EB%88%84%EB%A6%AC%EC%95%BD%EA%B5%AD-%EB%B6%80%EC%82%B0%EA%B4%91%EC%97%AD%EC%8B%9C-%ED%95%B4%EC%9A%B4%EB%8C%80%EA%B5%AC-%EC%9A%B0%EB%8F%99/", "workingTime": ["2,4\uc9f8\uc8fc10:00~18:00", "09:00~21:00", "09:00~21:00", "09:00~21:00", "09:00~21:00", "09:00~21:00", "09:00~21:00", "09:00~21:00"]}, {"name": "\ub86f\ub370\uc13c\ud140\uc57d\uad6d", "lat": "35.1678450471667", "lng": "129.130962834729", "url": "/info/%EB%A1%AF%EB%8D%B0%EC%84%BC%ED%85%80%EC%95%BD%EA%B5%AD-%EB%B6%80%EC%82%B0%EA%B4%91%EC%97%AD%EC%8B%9C-%ED%95%B4%EC%9A%B4%EB%8C%80%EA%B5%AC-%EC%9A%B0%EB%8F%99/", "workingTime": ["-", "10:00~19:00", "10:00~19:00", "10:00~19:00", "10:00~19:00", "10:00~19:00", "10:00~15:00", "-"]}, {"name": "\uc548\ub155\uc57d\uad6d", "lat": "35.1669070222942", "lng": "129.141145005951", "url": "/info/%EC%95%88%EB%85%95%EC%95%BD%EA%B5%AD-%EB%B6%80%EC%82%B0%EA%B4%91%EC%97%AD%EC%8B%9C-%ED%95%B4%EC%9A%B4%EB%8C%80%EA%B5%AC-%EC%9A%B0%EB%8F%99/", "workingTime": ["-", "09:00~21:00", "09:00~19:00", "09:00~19:00", "09:00~21:00", "09:00~19:00", "09:00~17:00", "-"]}, {"name": "\ud070\uc194\uc57d\uad6d", "lat": "35.16229064018156", "lng": "129.15698710062142", "url": "/info/%ED%81%B0%EC%86%94%EC%95%BD%EA%B5%AD-%EB%B6%80%EC%82%B0%EA%B4%91%EC%97%AD%EC%8B%9C-%ED%95%B4%EC%9A%B4%EB%8C%80%EA%B5%AC-%EC%9A%B0%EB%8F%99/", "workingTime": ["-", "09:00~18:30", "09:00~18:30", "09:00~18:30", "14:00~18:30", "09:00~18:30", "-", "-"]}, {"name": "\ud558\ub098\uc57d\uad6d", "lat": "35.167511111111111", "lng": "129.140713888888882", "url": "/info/%ED%95%98%EB%82%98%EC%95%BD%EA%B5%AD-%EB%B6%80%EC%82%B0%EA%B4%91%EC%97%AD%EC%8B%9C-%ED%95%B4%EC%9A%B4%EB%8C%80%EA%B5%AC-%EC%9A%B0%EB%8F%99/", "workingTime": ["-", "09:00~18:30", "09:00~18:30", "09:00~18:30", "09:00~18:30", "09:00~18:30", "09:00~15:00", "-"]}, {"name": "\ud574\uc131\uc57d\uad6d", "lat": "35.1634571708135", "lng": "129.159272429547", "url": "/info/%ED%95%B4%EC%84%B1%EC%95%BD%EA%B5%AD-%EB%B6%80%EC%82%B0%EA%B4%91%EC%97%AD%EC%8B%9C-%ED%95%B4%EC%9A%B4%EB%8C%80%EA%B5%AC-%EC%9A%B0%EB%8F%99/", "workingTime": ["-", "09:00~20:00", "09:00~20:00", "09:00~20:00", "09:00~20:00", "09:00~20:00", "09:00~20:00", "09:00~17:00"]}, {"name": "\ud574\uc6b4\uba54\ub514\uc57d\uad6d", "lat": "35.1622240272164", "lng": "129.157215782294", "url": "/info/%ED%95%B4%EC%9A%B4%EB%A9%94%EB%94%94%EC%95%BD%EA%B5%AD-%EB%B6%80%EC%82%B0%EA%B4%91%EC%97%AD%EC%8B%9C-%ED%95%B4%EC%9A%B4%EB%8C%80%EA%B5%AC-%EC%9A%B0%EB%8F%99/", "workingTime": ["-", "09:00~19:00", "09:00~19:00", "09:00~19:00", "09:00~19:00", "09:00~19:00", "09:00~15:00", "-"]}, {"name": "\ud589\ubcf5\ud55c\uc57d\uad6d", "lat": "35.173023731031826", "lng": "129.1326430609866", "url": "/info/%ED%96%89%EB%B3%B5%ED%95%9C%EC%95%BD%EA%B5%AD-%EB%B6%80%EC%82%B0%EA%B4%91%EC%97%AD%EC%8B%9C-%ED%95%B4%EC%9A%B4%EB%8C%80%EA%B5%AC-%EC%9A%B0%EB%8F%99/", "workingTime": ["-", "09:00~19:00", "09:00~19:00", "09:00~19:00", "09:00~19:00", "09:00~19:00", "09:00~14:00", "-"]}, {"name": "\ubc14\ub978\uc57d\uad6d", "lat": "35.1636310004", "lng": "129.1614646071", "url": "/info/%EB%B0%94%EB%A5%B8%EC%95%BD%EA%B5%AD-%EB%B6%80%EC%82%B0%EA%B4%91%EC%97%AD%EC%8B%9C-%ED%95%B4%EC%9A%B4%EB%8C%80%EA%B5%AC-%EC%9A%B0%EB%8F%99/", "workingTime": ["-", "08:50~19:30", "08:50~19:30", "08:50~19:30", "08:50~19:30", "08:50~19:30", "08:50~17:00", "-"]}, {"name": "\uc131\uc2ec\uc57d\uad6d", "lat": "35.165286111111108", "lng": "129.159586111111111", "url": "/info/%EC%84%B1%EC%8B%AC%EC%95%BD%EA%B5%AD-%EB%B6%80%EC%82%B0%EA%B4%91%EC%97%AD%EC%8B%9C-%ED%95%B4%EC%9A%B4%EB%8C%80%EA%B5%AC-%EC%9A%B0%EB%8F%99/", "workingTime": ["-", "09:00~18:30", "09:00~18:30", "09:00~18:30", "09:00~18:30", "09:00~18:30", "09:00~14:30", "-"]}, {"name": "\uc138\uc5f0\uc57d\uad6d", "lat": "35.17042300863898", "lng": "129.13744781873083", "url": "/info/%EC%84%B8%EC%97%B0%EC%95%BD%EA%B5%AD-%EB%B6%80%EC%82%B0%EA%B4%91%EC%97%AD%EC%8B%9C-%ED%95%B4%EC%9A%B4%EB%8C%80%EA%B5%AC-%EC%9A%B0%EB%8F%99/", "workingTime": ["-", "09:00~21:00", "09:00~21:00", "09:00~21:00", "09:00~21:00", "09:00~21:00", "09:00~21:00", "-"]}, {"name": "\uc13c\ud140\uac74\uac15\uc57d\uad6d", "lat": "35.16878810898165", "lng": "129.1290321411477", "url": "/info/%EC%84%BC%ED%85%80%EA%B1%B4%EA%B0%95%EC%95%BD%EA%B5%AD-%EB%B6%80%EC%82%B0%EA%B4%91%EC%97%AD%EC%8B%9C-%ED%95%B4%EC%9A%B4%EB%8C%80%EA%B5%AC-%EC%9A%B0%EB%8F%99/", "workingTime": ["1,2,3,4,5\uc9f8\uc8fc11:00~20:30", "11:00~20:00", "11:00~20:00", "11:00~20:00", "11:00~20:00", "11:00~20:00", "11:00~20:30", "11:00~20:30"]}, {"name": "\uc13c\ud140\ub4dc\ub9bc\uc57d\uad6d", "lat": "35.16694452849038", "lng": "129.13295395442094", "url": "/info/%EC%84%BC%ED%85%80%EB%93%9C%EB%A6%BC%EC%95%BD%EA%B5%AD-%EB%B6%80%EC%82%B0%EA%B4%91%EC%97%AD%EC%8B%9C-%ED%95%B4%EC%9A%B4%EB%8C%80%EA%B5%AC-%EC%9A%B0%EB%8F%99/", "workingTime": ["-", "09:00~19:30", "09:00~19:30", "09:00~19:30", "09:00~19:30", "09:00~19:30", "09:00~15:30", "-"]}, {"name": "\uc13c\ud140\ub9d1\uc740\uc57d\uad6d", "lat": "35.16813450142113", "lng": "129.13135480833208", "url": "/info/%EC%84%BC%ED%85%80%EB%A7%91%EC%9D%80%EC%95%BD%EA%B5%AD-%EB%B6%80%EC%82%B0%EA%B4%91%EC%97%AD%EC%8B%9C-%ED%95%B4%EC%9A%B4%EB%8C%80%EA%B5%AC-%EC%9A%B0%EB%8F%99/", "workingTime": ["-", "09:00~20:10", "09:00~21:00", "09:00~20:10", "09:00~20:10", "09:00~21:00", "09:00~16:30", "-"]}, {"name": "\uc13c\ud140\uc57d\uad6d", "lat": "35.167691603466736", "lng": "129.1323528754002", "url": "/info/%EC%84%BC%ED%85%80%EC%95%BD%EA%B5%AD-%EB%B6%80%EC%82%B0%EA%B4%91%EC%97%AD%EC%8B%9C-%ED%95%B4%EC%9A%B4%EB%8C%80%EA%B5%AC-%EC%9A%B0%EB%8F%99/", "workingTime": ["-", "09:00~21:00", "09:00~21:00", "09:00~21:00", "09:00~21:00", "09:00~21:00", "09:00~17:00", "09:00~13:00"]}, {"name": "\uc13c\ud140\uc720\ub85c\uc57d\uad6d", "lat": "35.1659324519479", "lng": "129.132411521392", "url": "/info/%EC%84%BC%ED%85%80%EC%9C%A0%EB%A1%9C%EC%95%BD%EA%B5%AD-%EB%B6%80%EC%82%B0%EA%B4%91%EC%97%AD%EC%8B%9C-%ED%95%B4%EC%9A%B4%EB%8C%80%EA%B5%AC-%EC%9A%B0%EB%8F%99/", "workingTime": ["-", "10:00~20:00", "10:00~20:00", "10:00~20:00", "10:00~20:00", "10:00~20:00", "10:00~15:00", "-"]}, {"name": "\uc13c\ud140\uc911\uc559\uc57d\uad6d", "lat": "35.1701945154", "lng": "129.1377315634", "url": "/info/%EC%84%BC%ED%85%80%EC%A4%91%EC%95%99%EC%95%BD%EA%B5%AD-%EB%B6%80%EC%82%B0%EA%B4%91%EC%97%AD%EC%8B%9C-%ED%95%B4%EC%9A%B4%EB%8C%80%EA%B5%AC-%EC%9A%B0%EB%8F%99/", "workingTime": ["-", "08:30~19:00", "08:30~19:00", "08:30~19:00", "08:30~19:00", "08:30~19:00", "08:30~14:30", "-"]}, {"name": "\uc13c\ud140\ud64d\uc740\uc57d\uad6d", "lat": "35.16783120274623", "lng": "129.13152413324286", "url": "/info/%EC%84%BC%ED%85%80%ED%99%8D%EC%9D%80%EC%95%BD%EA%B5%AD-%EB%B6%80%EC%82%B0%EA%B4%91%EC%97%AD%EC%8B%9C-%ED%95%B4%EC%9A%B4%EB%8C%80%EA%B5%AC-%EC%9A%B0%EB%8F%99/", "workingTime": ["-", "09:00~19:30", "09:00~19:30", "09:00~19:30", "09:00~19:30", "09:00~19:30", "09:00~15:00", "-"]}, {"name": "\uc2a4\ud380\uc9c0\uc57d\uad6d", "lat": "35.16448979553609", "lng": "129.1598834551299", "url": "/info/%EC%8A%A4%ED%8E%80%EC%A7%80%EC%95%BD%EA%B5%AD-%EB%B6%80%EC%82%B0%EA%B4%91%EC%97%AD%EC%8B%9C-%ED%95%B4%EC%9A%B4%EB%8C%80%EA%B5%AC-%EC%9A%B0%EB%8F%99/", "workingTime": ["-", "09:00~18:30", "09:00~18:30", "09:00~18:30", "09:00~18:30", "09:00~18:30", "09:00~14:00", "-"]}, {"name": "\uc2e0\uc138\uacc4\uc57d\uad6d", "lat": "35.1681592423", "lng": "129.1401057725", "url": "/info/%EC%8B%A0%EC%84%B8%EA%B3%84%EC%95%BD%EA%B5%AD-%EB%B6%80%EC%82%B0%EA%B4%91%EC%97%AD%EC%8B%9C-%ED%95%B4%EC%9A%B4%EB%8C%80%EA%B5%AC-%EC%9A%B0%EB%8F%99/", "workingTime": ["1,2,3,4,5\uc9f8\uc8fc09:30~17:00", "09:00~20:00", "09:00~20:00", "09:00~20:00", "09:00~20:00", "09:00~20:00", "09:30~17:00", "09:30~17:00"]}, {"name": "\uc544\uc778\uc2a4\uc57d\uad6d", "lat": "35.1611067332", "lng": "129.155862896", "url": "/info/%EC%95%84%EC%9D%B8%EC%8A%A4%EC%95%BD%EA%B5%AD-%EB%B6%80%EC%82%B0%EA%B4%91%EC%97%AD%EC%8B%9C-%ED%95%B4%EC%9A%B4%EB%8C%80%EA%B5%AC-%EC%9A%B0%EB%8F%99/", "workingTime": ["-", "09:00~18:30", "09:00~18:30", "09:00~18:30", "09:00~18:30", "09:00~18:30", "09:00~13:30", "-"]}, {"name": "\uc6b0\ub9ac\uc57d\uad6d", "lat": "35.163591666666669", "lng": "129.160913888888899", "url": "/info/%EC%9A%B0%EB%A6%AC%EC%95%BD%EA%B5%AD-%EB%B6%80%EC%82%B0%EA%B4%91%EC%97%AD%EC%8B%9C-%ED%95%B4%EC%9A%B4%EB%8C%80%EA%B5%AC-%EC%9A%B0%EB%8F%99/", "workingTime": ["-", "09:00~19:00", "09:00~19:00", "09:00~19:00", "09:00~19:00", "09:00~19:00", "09:00~14:00", "-"]}, {"name": "\uc6b0\uc774\uc57d\uad6d", "lat": "35.168063888888888", "lng": "129.140394444444439", "url": "/info/%EC%9A%B0%EC%9D%B4%EC%95%BD%EA%B5%AD-%EB%B6%80%EC%82%B0%EA%B4%91%EC%97%AD%EC%8B%9C-%ED%95%B4%EC%9A%B4%EB%8C%80%EA%B5%AC-%EC%9A%B0%EB%8F%99/", "workingTime": ["-", "08:40~18:30", "08:40~18:30", "08:40~18:30", "08:40~18:30", "08:40~18:30", "08:40~14:00", "-"]}, {"name": "\uc815 \uc628\ub204\ub9ac\uc57d\uad6d", "lat": "35.158393645574414", "lng": "129.14654178997614", "url": "/info/%EC%A0%95+%EC%98%A8%EB%88%84%EB%A6%AC%EC%95%BD%EA%B5%AD-%EB%B6%80%EC%82%B0%EA%B4%91%EC%97%AD%EC%8B%9C-%ED%95%B4%EC%9A%B4%EB%8C%80%EA%B5%AC-%EC%9A%B0%EB%8F%99/", "workingTime": ["1,3,5\uc9f8\uc8fc10:00~22:00", "10:00~22:00", "10:00~22:00", "10:00~22:00", "10:00~22:00", "10:00~22:00", "10:00~22:00", "10:00~22:00"]}, {"name": "\uc81c\ub2c8\uc2a4\uc57d\uad6d", "lat": "35.157204455063585", "lng": "129.1448178866254", "url": "/info/%EC%A0%9C%EB%8B%88%EC%8A%A4%EC%95%BD%EA%B5%AD-%EB%B6%80%EC%82%B0%EA%B4%91%EC%97%AD%EC%8B%9C-%ED%95%B4%EC%9A%B4%EB%8C%80%EA%B5%AC-%EC%9A%B0%EB%8F%99/", "workingTime": ["-", "09:00~19:30", "09:00~19:30", "09:00~19:30", "09:00~19:30", "09:00~19:30", "09:00~15:00", "-"]}, {"name": "\uac00\uae4c\uc6b4\uc57d\uad6d", "lat": "35.160951955424004", "lng": "129.15564812433138", "url": "/info/%EA%B0%80%EA%B9%8C%EC%9A%B4%EC%95%BD%EA%B5%AD-%EB%B6%80%EC%82%B0%EA%B4%91%EC%97%AD%EC%8B%9C-%ED%95%B4%EC%9A%B4%EB%8C%80%EA%B5%AC-%EC%9A%B0%EB%8F%99/", "workingTime": ["-", "09:00~18:30", "09:00~18:30", "09:00~18:30", "09:00~18:30", "09:00~18:30", "09:00~14:00", "-"]}, {"name": "\ub2f4\uc740\uc57d\uad6d", "lat": "35.16362167791793", "lng": "129.16097713401854", "url": "/info/%EB%8B%B4%EC%9D%80%EC%95%BD%EA%B5%AD-%EB%B6%80%EC%82%B0%EA%B4%91%EC%97%AD%EC%8B%9C-%ED%95%B4%EC%9A%B4%EB%8C%80%EA%B5%AC-%EC%9A%B0%EB%8F%99/", "workingTime": ["-", "09:00~18:30", "09:00~18:30", "09:00~18:30", "09:00~18:30", "09:00~18:30", "09:00~14:30", "-"]}, {"name": "\ub355\uc778\uc57d\uad6d", "lat": "35.166153547538215", "lng": "129.16049105539798", "url": "/info/%EB%8D%95%EC%9D%B8%EC%95%BD%EA%B5%AD-%EB%B6%80%EC%82%B0%EA%B4%91%EC%97%AD%EC%8B%9C-%ED%95%B4%EC%9A%B4%EB%8C%80%EA%B5%AC-%EC%9A%B0%EB%8F%99/", "workingTime": ["-", "09:00~19:00", "09:00~19:00", "09:00~19:00", "09:00~19:00", "09:00~19:00", "09:00~13:00", "-"]}, {"name": "\ub3d9\ubc31\uc57d\uad6d", "lat": "35.1597295871407", "lng": "129.150704866293", "url": "/info/%EB%8F%99%EB%B0%B1%EC%95%BD%EA%B5%AD-%EB%B6%80%EC%82%B0%EA%B4%91%EC%97%AD%EC%8B%9C-%ED%95%B4%EC%9A%B4%EB%8C%80%EA%B5%AC-%EC%9A%B0%EB%8F%99/", "workingTime": ["-", "09:00~20:00", "09:00~20:00", "09:00~20:00", "09:00~20:00", "09:00~20:00", "09:00~14:00", "-"]}, {"name": "\ub3d9\uc2e0\uc57d\uad6d", "lat": "35.1632660142", "lng": "129.1613144852", "url": "/info/%EB%8F%99%EC%8B%A0%EC%95%BD%EA%B5%AD-%EB%B6%80%EC%82%B0%EA%B4%91%EC%97%AD%EC%8B%9C-%ED%95%B4%EC%9A%B4%EB%8C%80%EA%B5%AC-%EC%9A%B0%EB%8F%99/", "workingTime": ["-", "08:30~19:00", "08:30~19:00", "08:30~19:00", "08:30~19:00", "08:30~19:00", "08:30~18:30", "08:30~18:30"]}, {"name": "\ub9c8\ub9ac\ub098\uc57d\uad6d", "lat": "35.15698189468342", "lng": "129.14850612778625", "url": "/info/%EB%A7%88%EB%A6%AC%EB%82%98%EC%95%BD%EA%B5%AD-%EB%B6%80%EC%82%B0%EA%B4%91%EC%97%AD%EC%8B%9C-%ED%95%B4%EC%9A%B4%EB%8C%80%EA%B5%AC-%EC%9A%B0%EB%8F%99/", "workingTime": ["-", "09:30~19:30", "09:30~19:30", "09:30~19:30", "09:30~19:30", "09:30~19:30", "09:30~15:30", "-"]}, {"name": "\ub9c8\ub9b0\ud30c\ud06c\uc57d\uad6d", "lat": "35.15932694584647", "lng": "129.1442415779247", "url": "/info/%EB%A7%88%EB%A6%B0%ED%8C%8C%ED%81%AC%EC%95%BD%EA%B5%AD-%EB%B6%80%EC%82%B0%EA%B4%91%EC%97%AD%EC%8B%9C-%ED%95%B4%EC%9A%B4%EB%8C%80%EA%B5%AC-%EC%9A%B0%EB%8F%99/", "workingTime": ["-", "09:00~19:00", "09:00~19:00", "09:00~19:00", "09:00~19:00", "09:00~19:00", "09:30~16:00", "-"]}, {"name": "\ubbf8\uc220\uad00\uc606\uc57d\uad6d", "lat": "35.1671059362", "lng": "129.1409648699", "url": "/info/%EB%AF%B8%EC%88%A0%EA%B4%80%EC%98%86%EC%95%BD%EA%B5%AD-%EB%B6%80%EC%82%B0%EA%B4%91%EC%97%AD%EC%8B%9C-%ED%95%B4%EC%9A%B4%EB%8C%80%EA%B5%AC-%EC%9A%B0%EB%8F%99/", "workingTime": ["-", "09:00~19:00", "09:00~19:00", "09:00~19:00", "09:00~19:00", "09:00~19:00", "-", "09:00~13:30"]}]