[{"name": "\uac00\uae4c\uc6b4\ud3b8\ud55c\uc57d\uad6d", "lat": "35.1510426876361", "lng": "128.990102370903", "url": "/info/%EA%B0%80%EA%B9%8C%EC%9A%B4%ED%8E%B8%ED%95%9C%EC%95%BD%EA%B5%AD-%EB%B6%80%EC%82%B0%EA%B4%91%EC%97%AD%EC%8B%9C-%EC%82%AC%EC%83%81%EA%B5%AC-%EA%B0%90%EC%A0%84%EB%8F%99/", "workingTime": ["-", "08:15~17:15", "08:15~17:15", "08:15~17:15", "08:15~17:15", "08:15~17:15", "08:15~13:00", "-"]}, {"name": "\ud587\uc0b4\uc57d\uad6d", "lat": "35.1507410785721", "lng": "128.990375694224", "url": "/info/%ED%96%87%EC%82%B4%EC%95%BD%EA%B5%AD-%EB%B6%80%EC%82%B0%EA%B4%91%EC%97%AD%EC%8B%9C-%EC%82%AC%EC%83%81%EA%B5%AC-%EA%B0%90%EC%A0%84%EB%8F%99/", "workingTime": ["-", "-", "-", "-", "-", "-", "-", "-"]}, {"name": "\ud734\ubca0\uc774\uc2a4\uac74\uac15\uc57d\uad6d", "lat": "35.1515821222881", "lng": "128.990256505202", "url": "/info/%ED%9C%B4%EB%B2%A0%EC%9D%B4%EC%8A%A4%EA%B1%B4%EA%B0%95%EC%95%BD%EA%B5%AD-%EB%B6%80%EC%82%B0%EA%B4%91%EC%97%AD%EC%8B%9C-%EC%82%AC%EC%83%81%EA%B5%AC-%EA%B0%90%EC%A0%84%EB%8F%99/", "workingTime": ["-", "08:30~18:00", "08:30~18:00", "08:30~18:00", "08:30~18:00", "08:30~18:00", "08:30~13:30", "-"]}, {"name": "\uc911\uc559\uc57d\uad6d", "lat": "35.1561723378", "lng": "128.9830825008", "url": "/info/%EC%A4%91%EC%95%99%EC%95%BD%EA%B5%AD-%EB%B6%80%EC%82%B0%EA%B4%91%EC%97%AD%EC%8B%9C-%EC%82%AC%EC%83%81%EA%B5%AC-%EA%B0%90%EC%A0%84%EB%8F%99/", "workingTime": ["-", "08:30~19:00", "08:30~19:00", "08:30~19:00", "08:30~19:00", "08:30~19:00", "08:30~13:00", "-"]}, {"name": "\uc81c\uc77c\uc57d\uad6d", "lat": "35.1548602824", "lng": "128.9813169462", "url": "/info/%EC%A0%9C%EC%9D%BC%EC%95%BD%EA%B5%AD-%EB%B6%80%EC%82%B0%EA%B4%91%EC%97%AD%EC%8B%9C-%EC%82%AC%EC%83%81%EA%B5%AC-%EA%B0%90%EC%A0%84%EB%8F%99/", "workingTime": ["-", "08:30~22:00", "08:30~22:00", "08:30~22:00", "08:30~22:00", "08:30~22:00", "08:30~19:00", "08:30~19:00"]}, {"name": "\uc6b0\ub9ac\uc57d\uad6d", "lat": "35.15590217387178", "lng": "128.98346590559623", "url": "/info/%EC%9A%B0%EB%A6%AC%EC%95%BD%EA%B5%AD-%EB%B6%80%EC%82%B0%EA%B4%91%EC%97%AD%EC%8B%9C-%EC%82%AC%EC%83%81%EA%B5%AC-%EA%B0%90%EC%A0%84%EB%8F%99/", "workingTime": ["-", "08:30~19:00", "08:30~19:00", "08:30~19:00", "08:30~19:00", "08:30~19:00", "08:30~13:30", "-"]}, {"name": "\ubcf4\ubbfc\ub2f9\uc57d\uad6d", "lat": "35.1559877805", "lng": "128.9831263015", "url": "/info/%EB%B3%B4%EB%AF%BC%EB%8B%B9%EC%95%BD%EA%B5%AD-%EB%B6%80%EC%82%B0%EA%B4%91%EC%97%AD%EC%8B%9C-%EC%82%AC%EC%83%81%EA%B5%AC-%EA%B0%90%EC%A0%84%EB%8F%99/", "workingTime": ["-", "08:20~19:00", "08:20~19:00", "08:20~19:00", "08:20~19:00", "08:20~19:00", "08:20~15:00", "-"]}, {"name": "\ub85c\ub380\uc57d\uad6d", "lat": "35.15561593423948", "lng": "128.98618421578416", "url": "/info/%EB%A1%9C%EB%8E%80%EC%95%BD%EA%B5%AD-%EB%B6%80%EC%82%B0%EA%B4%91%EC%97%AD%EC%8B%9C-%EC%82%AC%EC%83%81%EA%B5%AC-%EA%B0%90%EC%A0%84%EB%8F%99/", "workingTime": ["-", "09:00~19:00", "09:00~19:00", "09:00~19:00", "09:00~19:00", "09:00~19:00", "09:00~13:00", "-"]}, {"name": "\ub300\uba85\ubb38\uc57d\uad6d", "lat": "35.1516411511", "lng": "128.9920927404", "url": "/info/%EB%8C%80%EB%AA%85%EB%AC%B8%EC%95%BD%EA%B5%AD-%EB%B6%80%EC%82%B0%EA%B4%91%EC%97%AD%EC%8B%9C-%EC%82%AC%EC%83%81%EA%B5%AC-%EA%B0%90%EC%A0%84%EB%8F%99/", "workingTime": ["-", "08:30~18:00", "08:30~18:00", "08:30~18:00", "08:30~18:00", "08:30~18:00", "08:50~12:00", "-"]}]