[{"name": "\uc6b0\uc815\uc57d\uad6d", "lat": "35.210983310234646", "lng": "129.02432422143568", "url": "/info/%EC%9A%B0%EC%A0%95%EC%95%BD%EA%B5%AD-%EB%B6%80%EC%82%B0%EA%B4%91%EC%97%AD%EC%8B%9C-%EB%B6%81%EA%B5%AC-%EB%A7%8C%EB%8D%95%EB%8F%99/", "workingTime": ["-", "09:00~20:00", "09:00~20:00", "09:00~20:00", "09:00~20:00", "09:00~20:00", "09:00~16:00", "-"]}, {"name": "\uc0c8\uc911\uc559\uc57d\uad6d", "lat": "35.2144295465407", "lng": "129.034761200072", "url": "/info/%EC%83%88%EC%A4%91%EC%95%99%EC%95%BD%EA%B5%AD-%EB%B6%80%EC%82%B0%EA%B4%91%EC%97%AD%EC%8B%9C-%EB%B6%81%EA%B5%AC-%EB%A7%8C%EB%8D%95%EB%8F%99/", "workingTime": ["-", "08:30~19:30", "08:30~19:30", "08:30~19:30", "08:30~19:30", "08:30~19:30", "08:30~14:00", "-"]}, {"name": "\ubbf8\uc18c\uc57d\uad6d", "lat": "35.209634332100656", "lng": "129.03702408709287", "url": "/info/%EB%AF%B8%EC%86%8C%EC%95%BD%EA%B5%AD-%EB%B6%80%EC%82%B0%EA%B4%91%EC%97%AD%EC%8B%9C-%EB%B6%81%EA%B5%AC-%EB%A7%8C%EB%8D%95%EB%8F%99/", "workingTime": ["-", "09:00~19:00", "09:00~19:00", "09:00~19:00", "09:00~19:00", "09:00~19:00", "09:00~14:00", "-"]}, {"name": "\ud558\ub098\uc57d\uad6d", "lat": "35.21083037015237", "lng": "129.0300408861344", "url": "/info/%ED%95%98%EB%82%98%EC%95%BD%EA%B5%AD-%EB%B6%80%EC%82%B0%EA%B4%91%EC%97%AD%EC%8B%9C-%EB%B6%81%EA%B5%AC-%EB%A7%8C%EB%8D%95%EB%8F%99/", "workingTime": ["-", "09:00~19:30", "09:00~19:30", "09:00~19:30", "09:00~19:30", "09:00~19:30", "09:00~16:00", "-"]}, {"name": "\uc6b0\uc2e0\uc57d\uad6d", "lat": "37.4501477097", "lng": "126.9030742307", "url": "/info/%EC%9A%B0%EC%8B%A0%EC%95%BD%EA%B5%AD-%EB%B6%80%EC%82%B0%EA%B4%91%EC%97%AD%EC%8B%9C-%EB%B6%81%EA%B5%AC-%EB%A7%8C%EB%8D%95%EB%8F%99/", "workingTime": ["-", "09:00~19:00", "09:00~19:00", "09:00~19:00", "09:00~19:00", "09:00~19:00", "09:00~15:00", "-"]}, {"name": "\uc138\uc77c\uc57d\uad6d", "lat": "35.21393829820657", "lng": "129.0364343558791", "url": "/info/%EC%84%B8%EC%9D%BC%EC%95%BD%EA%B5%AD-%EB%B6%80%EC%82%B0%EA%B4%91%EC%97%AD%EC%8B%9C-%EB%B6%81%EA%B5%AC-%EB%A7%8C%EB%8D%95%EB%8F%99/", "workingTime": ["-", "09:00~19:00", "09:00~21:00", "09:00~19:00", "09:00~21:00", "09:00~19:00", "09:00~13:30", "-"]}, {"name": "\ubbf8\ub798\uc57d\uad6d", "lat": "35.2091061225517", "lng": "129.037311176716", "url": "/info/%EB%AF%B8%EB%9E%98%EC%95%BD%EA%B5%AD-%EB%B6%80%EC%82%B0%EA%B4%91%EC%97%AD%EC%8B%9C-%EB%B6%81%EA%B5%AC-%EB%A7%8C%EB%8D%95%EB%8F%99/", "workingTime": ["-", "09:00~19:00", "09:00~19:00", "09:00~19:00", "09:00~19:00", "09:00~19:00", "09:00~15:00", "-"]}, {"name": "\ub9c8\uc74c\uc560\uc57d\uad6d", "lat": "35.2092945030423", "lng": "129.03670923860008", "url": "/info/%EB%A7%88%EC%9D%8C%EC%95%A0%EC%95%BD%EA%B5%AD-%EB%B6%80%EC%82%B0%EA%B4%91%EC%97%AD%EC%8B%9C-%EB%B6%81%EA%B5%AC-%EB%A7%8C%EB%8D%95%EB%8F%99/", "workingTime": ["-", "09:00~18:30", "09:00~18:30", "09:00~18:30", "09:00~18:30", "09:00~18:30", "09:00~14:00", "-"]}, {"name": "\ub9cc\ub355\uc57d\uad6d", "lat": "35.2142182336", "lng": "129.0365072338", "url": "/info/%EB%A7%8C%EB%8D%95%EC%95%BD%EA%B5%AD-%EB%B6%80%EC%82%B0%EA%B4%91%EC%97%AD%EC%8B%9C-%EB%B6%81%EA%B5%AC-%EB%A7%8C%EB%8D%95%EB%8F%99/", "workingTime": ["-", "09:00~20:30", "09:00~20:30", "09:00~20:30", "09:00~20:30", "09:00~20:30", "09:00~17:00", "-"]}, {"name": "\ub3d9\ubb38\uad7f\ubaa8\ub2dd\uc57d\uad6d", "lat": "35.20805013438246", "lng": "129.03351840559077", "url": "/info/%EB%8F%99%EB%AC%B8%EA%B5%BF%EB%AA%A8%EB%8B%9D%EC%95%BD%EA%B5%AD-%EB%B6%80%EC%82%B0%EA%B4%91%EC%97%AD%EC%8B%9C-%EB%B6%81%EA%B5%AC-%EB%A7%8C%EB%8D%95%EB%8F%99/", "workingTime": ["-", "08:30~20:00", "08:30~20:00", "08:30~20:00", "08:30~20:00", "08:30~20:00", "08:30~17:00", "-"]}, {"name": "\ub3d9\uc11c\uc57d\uad6d", "lat": "35.21021269206532", "lng": "129.02990252703557", "url": "/info/%EB%8F%99%EC%84%9C%EC%95%BD%EA%B5%AD-%EB%B6%80%EC%82%B0%EA%B4%91%EC%97%AD%EC%8B%9C-%EB%B6%81%EA%B5%AC-%EB%A7%8C%EB%8D%95%EB%8F%99/", "workingTime": ["-", "09:00~20:00", "09:00~20:00", "09:00~20:00", "09:00~20:00", "09:00~20:00", "09:00~14:00", "-"]}, {"name": "\uac74\uac15\ub4dc\ub9bc\uc57d\uad6d", "lat": "35.20974770092261", "lng": "129.0365536637059", "url": "/info/%EA%B1%B4%EA%B0%95%EB%93%9C%EB%A6%BC%EC%95%BD%EA%B5%AD-%EB%B6%80%EC%82%B0%EA%B4%91%EC%97%AD%EC%8B%9C-%EB%B6%81%EA%B5%AC-%EB%A7%8C%EB%8D%95%EB%8F%99/", "workingTime": ["-", "09:00~19:00", "09:00~19:00", "09:00~19:00", "09:00~19:00", "09:00~19:00", "09:00~14:00", "-"]}]