[{"name": "\uc9c0\ub9ac\uc0b0\uc57d\uad6d", "lat": "35.19993100102304", "lng": "129.13126058472125", "url": "/info/%EC%A7%80%EB%A6%AC%EC%82%B0%EC%95%BD%EA%B5%AD-%EB%B6%80%EC%82%B0%EA%B4%91%EC%97%AD%EC%8B%9C-%ED%95%B4%EC%9A%B4%EB%8C%80%EA%B5%AC-%EB%B0%98%EC%97%AC%EB%8F%99/", "workingTime": ["-", "09:00~21:00", "09:00~21:00", "09:00~21:00", "09:00~21:00", "09:00~21:00", "09:00~21:00", "11:00~19:00"]}, {"name": "\ud30c\ub791\uc57d\uad6d", "lat": "35.2021098517564", "lng": "129.119541834876", "url": "/info/%ED%8C%8C%EB%9E%91%EC%95%BD%EA%B5%AD-%EB%B6%80%EC%82%B0%EA%B4%91%EC%97%AD%EC%8B%9C-%ED%95%B4%EC%9A%B4%EB%8C%80%EA%B5%AC-%EB%B0%98%EC%97%AC%EB%8F%99/", "workingTime": ["-", "09:00~19:00", "09:00~19:00", "09:00~19:00", "09:00~19:00", "09:00~19:00", "09:00~13:00", "-"]}, {"name": "\ud3b8\ud55c\uc774\uc6c3\uc57d\uad6d", "lat": "35.194450000000003", "lng": "129.118497222222231", "url": "/info/%ED%8E%B8%ED%95%9C%EC%9D%B4%EC%9B%83%EC%95%BD%EA%B5%AD-%EB%B6%80%EC%82%B0%EA%B4%91%EC%97%AD%EC%8B%9C-%ED%95%B4%EC%9A%B4%EB%8C%80%EA%B5%AC-%EB%B0%98%EC%97%AC%EB%8F%99/", "workingTime": ["1\uc9f8\uc8fc08:00~12:00", "08:00~20:00", "08:00~20:00", "08:00~20:00", "08:00~20:00", "08:00~20:00", "08:00~20:00", "-"]}, {"name": "\ud3c9\ud654\uc57d\uad6d", "lat": "35.19700496817673", "lng": "129.13080206589183", "url": "/info/%ED%8F%89%ED%99%94%EC%95%BD%EA%B5%AD-%EB%B6%80%EC%82%B0%EA%B4%91%EC%97%AD%EC%8B%9C-%ED%95%B4%EC%9A%B4%EB%8C%80%EA%B5%AC-%EB%B0%98%EC%97%AC%EB%8F%99/", "workingTime": ["-", "09:00~19:00", "09:00~19:00", "09:00~19:00", "09:00~19:00", "09:00~19:00", "09:00~14:00", "-"]}, {"name": "\ud558\ub298\uc628\ub204\ub9ac\uc57d\uad6d", "lat": "35.1971190021357", "lng": "129.130820304775", "url": "/info/%ED%95%98%EB%8A%98%EC%98%A8%EB%88%84%EB%A6%AC%EC%95%BD%EA%B5%AD-%EB%B6%80%EC%82%B0%EA%B4%91%EC%97%AD%EC%8B%9C-%ED%95%B4%EC%9A%B4%EB%8C%80%EA%B5%AC-%EB%B0%98%EC%97%AC%EB%8F%99/", "workingTime": ["-", "09:00~20:00", "09:00~20:00", "09:00~20:00", "09:00~20:00", "09:00~20:00", "09:00~16:00", "-"]}, {"name": "\ud55c\ub9c8\uc74c\uc57d\uad6d", "lat": "35.20211613724832", "lng": "129.11956367127428", "url": "/info/%ED%95%9C%EB%A7%88%EC%9D%8C%EC%95%BD%EA%B5%AD-%EB%B6%80%EC%82%B0%EA%B4%91%EC%97%AD%EC%8B%9C-%ED%95%B4%EC%9A%B4%EB%8C%80%EA%B5%AC-%EB%B0%98%EC%97%AC%EB%8F%99/", "workingTime": ["-", "09:00~20:30", "09:00~20:30", "09:00~20:30", "09:00~20:30", "09:00~20:30", "09:00~19:00", "09:00~14:00"]}, {"name": "\ud589\ubcf5\uc628\ub204\ub9ac\uc57d\uad6d", "lat": "35.1975229288451", "lng": "129.11897075744", "url": "/info/%ED%96%89%EB%B3%B5%EC%98%A8%EB%88%84%EB%A6%AC%EC%95%BD%EA%B5%AD-%EB%B6%80%EC%82%B0%EA%B4%91%EC%97%AD%EC%8B%9C-%ED%95%B4%EC%9A%B4%EB%8C%80%EA%B5%AC-%EB%B0%98%EC%97%AC%EB%8F%99/", "workingTime": ["-", "09:00~18:30", "09:00~18:30", "09:00~18:30", "09:00~18:30", "09:00~18:30", "09:00~13:00", "-"]}, {"name": "\ud6a8\uc6d0\uc57d\uad6d", "lat": "35.20003611111112", "lng": "129.13247500000176", "url": "/info/%ED%9A%A8%EC%9B%90%EC%95%BD%EA%B5%AD-%EB%B6%80%EC%82%B0%EA%B4%91%EC%97%AD%EC%8B%9C-%ED%95%B4%EC%9A%B4%EB%8C%80%EA%B5%AC-%EB%B0%98%EC%97%AC%EB%8F%99/", "workingTime": ["-", "09:00~20:00", "09:00~20:00", "09:00~20:00", "09:00~20:00", "09:00~20:00", "09:00~20:00", "09:00~20:00"]}, {"name": "\ubc18\uc0b0\uc6b0\ub9ac\uc57d\uad6d", "lat": "35.19639159363199", "lng": "129.1306872293946", "url": "/info/%EB%B0%98%EC%82%B0%EC%9A%B0%EB%A6%AC%EC%95%BD%EA%B5%AD-%EB%B6%80%EC%82%B0%EA%B4%91%EC%97%AD%EC%8B%9C-%ED%95%B4%EC%9A%B4%EB%8C%80%EA%B5%AC-%EB%B0%98%EC%97%AC%EB%8F%99/", "workingTime": ["-", "09:00~19:00", "09:00~19:00", "09:00~19:00", "09:00~19:00", "09:00~19:00", "09:00~12:00", "-"]}, {"name": "\ubc18\uc5ec\uc57d\uad6d", "lat": "35.1996940129847", "lng": "129.117531563165", "url": "/info/%EB%B0%98%EC%97%AC%EC%95%BD%EA%B5%AD-%EB%B6%80%EC%82%B0%EA%B4%91%EC%97%AD%EC%8B%9C-%ED%95%B4%EC%9A%B4%EB%8C%80%EA%B5%AC-%EB%B0%98%EC%97%AC%EB%8F%99/", "workingTime": ["1,2,3,4,5\uc9f8\uc8fc09:00~13:30", "09:00~19:30", "09:00~19:30", "09:00~19:30", "09:00~19:30", "-", "09:00~16:00", "-"]}, {"name": "\ubc18\uc5ec\ucf54\ub07c\ub9ac\uc57d\uad6d", "lat": "35.19793603701858", "lng": "129.13094495681094", "url": "/info/%EB%B0%98%EC%97%AC%EC%BD%94%EB%81%BC%EB%A6%AC%EC%95%BD%EA%B5%AD-%EB%B6%80%EC%82%B0%EA%B4%91%EC%97%AD%EC%8B%9C-%ED%95%B4%EC%9A%B4%EB%8C%80%EA%B5%AC-%EB%B0%98%EC%97%AC%EB%8F%99/", "workingTime": ["-", "08:30~20:00", "08:30~20:00", "08:30~20:00", "08:30~20:00", "08:30~20:00", "08:30~16:00", "10:00~17:00"]}, {"name": "\ubd04\uc57d\uad6d", "lat": "35.1985164797908", "lng": "129.131056622831", "url": "/info/%EB%B4%84%EC%95%BD%EA%B5%AD-%EB%B6%80%EC%82%B0%EA%B4%91%EC%97%AD%EC%8B%9C-%ED%95%B4%EC%9A%B4%EB%8C%80%EA%B5%AC-%EB%B0%98%EC%97%AC%EB%8F%99/", "workingTime": ["-", "09:00~19:00", "09:00~19:00", "09:00~19:00", "09:00~19:00", "09:00~19:00", "09:00~14:00", "-"]}, {"name": "\ubd80\uc6d0\uc57d\uad6d", "lat": "35.2027775366", "lng": "129.1196226484", "url": "/info/%EB%B6%80%EC%9B%90%EC%95%BD%EA%B5%AD-%EB%B6%80%EC%82%B0%EA%B4%91%EC%97%AD%EC%8B%9C-%ED%95%B4%EC%9A%B4%EB%8C%80%EA%B5%AC-%EB%B0%98%EC%97%AC%EB%8F%99/", "workingTime": ["-", "09:00~18:30", "09:00~18:30", "09:00~18:30", "09:00~20:00", "09:00~18:30", "09:00~14:00", "-"]}, {"name": "\uc138\uc778\uc57d\uad6d", "lat": "35.20800555555556", "lng": "129.12333333333504", "url": "/info/%EC%84%B8%EC%9D%B8%EC%95%BD%EA%B5%AD-%EB%B6%80%EC%82%B0%EA%B4%91%EC%97%AD%EC%8B%9C-%ED%95%B4%EC%9A%B4%EB%8C%80%EA%B5%AC-%EB%B0%98%EC%97%AC%EB%8F%99/", "workingTime": ["-", "09:00~20:30", "09:00~20:30", "09:00~20:30", "09:00~20:30", "09:00~20:30", "09:00~16:00", "09:00~13:00"]}, {"name": "\uc628\uc815\uc57d\uad6d", "lat": "35.2031613028", "lng": "129.1193208209", "url": "/info/%EC%98%A8%EC%A0%95%EC%95%BD%EA%B5%AD-%EB%B6%80%EC%82%B0%EA%B4%91%EC%97%AD%EC%8B%9C-%ED%95%B4%EC%9A%B4%EB%8C%80%EA%B5%AC-%EB%B0%98%EC%97%AC%EB%8F%99/", "workingTime": ["-", "09:00~19:00", "09:00~19:00", "09:00~19:00", "09:00~19:00", "09:00~19:00", "09:00~14:00", "-"]}, {"name": "\uc6d0\uc628\ub204\ub9ac\uc57d\uad6d", "lat": "35.1946532234", "lng": "129.1298667932", "url": "/info/%EC%9B%90%EC%98%A8%EB%88%84%EB%A6%AC%EC%95%BD%EA%B5%AD-%EB%B6%80%EC%82%B0%EA%B4%91%EC%97%AD%EC%8B%9C-%ED%95%B4%EC%9A%B4%EB%8C%80%EA%B5%AC-%EB%B0%98%EC%97%AC%EB%8F%99/", "workingTime": ["1,2,3,4,5\uc9f8\uc8fc09:00~13:00", "09:00~18:45", "09:00~18:45", "09:00~18:45", "09:00~18:45", "09:00~18:45", "09:00~15:00", "-"]}, {"name": "\uc815\ub2f4\uc57d\uad6d", "lat": "35.1965885608", "lng": "129.1157028888", "url": "/info/%EC%A0%95%EB%8B%B4%EC%95%BD%EA%B5%AD-%EB%B6%80%EC%82%B0%EA%B4%91%EC%97%AD%EC%8B%9C-%ED%95%B4%EC%9A%B4%EB%8C%80%EA%B5%AC-%EB%B0%98%EC%97%AC%EB%8F%99/", "workingTime": ["1,3,5\uc9f8\uc8fc10:00~22:00", "10:00~22:00", "10:00~22:00", "10:00~22:00", "10:00~22:00", "10:00~22:00", "10:00~22:00", "10:00~22:00"]}, {"name": "\uc9c0\uc131\uadfc\uc57d\uad6d", "lat": "35.195972536499994", "lng": "129.12965972860172", "url": "/info/%EC%A7%80%EC%84%B1%EA%B7%BC%EC%95%BD%EA%B5%AD-%EB%B6%80%EC%82%B0%EA%B4%91%EC%97%AD%EC%8B%9C-%ED%95%B4%EC%9A%B4%EB%8C%80%EA%B5%AC-%EB%B0%98%EC%97%AC%EB%8F%99/", "workingTime": ["-", "09:00~20:00", "09:00~20:00", "09:00~20:00", "09:00~20:00", "09:00~20:00", "09:00~17:00", "-"]}, {"name": "\uc9c4\uc57d\uad6d", "lat": "35.19509684107768", "lng": "129.1304667915859", "url": "/info/%EC%A7%84%EC%95%BD%EA%B5%AD-%EB%B6%80%EC%82%B0%EA%B4%91%EC%97%AD%EC%8B%9C-%ED%95%B4%EC%9A%B4%EB%8C%80%EA%B5%AC-%EB%B0%98%EC%97%AC%EB%8F%99/", "workingTime": ["-", "09:00~19:30", "09:00~19:30", "09:00~19:30", "09:00~19:30", "09:00~19:30", "09:00~17:00", "09:00~13:00"]}, {"name": "\ucc38\uc57d\uad6d", "lat": "35.199287736746406", "lng": "129.13155993791733", "url": "/info/%EC%B0%B8%EC%95%BD%EA%B5%AD-%EB%B6%80%EC%82%B0%EA%B4%91%EC%97%AD%EC%8B%9C-%ED%95%B4%EC%9A%B4%EB%8C%80%EA%B5%AC-%EB%B0%98%EC%97%AC%EB%8F%99/", "workingTime": ["-", "09:00~20:00", "09:00~20:00", "09:00~20:00", "09:00~20:00", "09:00~20:00", "09:00~18:00", "-"]}, {"name": "\ucd08\ub85d\uc57d\uad6d", "lat": "35.203613572068114", "lng": "129.11963559789032", "url": "/info/%EC%B4%88%EB%A1%9D%EC%95%BD%EA%B5%AD-%EB%B6%80%EC%82%B0%EA%B4%91%EC%97%AD%EC%8B%9C-%ED%95%B4%EC%9A%B4%EB%8C%80%EA%B5%AC-%EB%B0%98%EC%97%AC%EB%8F%99/", "workingTime": ["-", "09:00~20:00", "09:00~20:00", "09:00~20:00", "09:00~20:00", "09:00~20:00", "09:00~16:00", "-"]}, {"name": "\uac74\uac15\ud55c\uc628\ub204\ub9ac\uc57d\uad6d", "lat": "35.10283203679772", "lng": "129.0276044106636", "url": "/info/%EA%B1%B4%EA%B0%95%ED%95%9C%EC%98%A8%EB%88%84%EB%A6%AC%EC%95%BD%EA%B5%AD-%EB%B6%80%EC%82%B0%EA%B4%91%EC%97%AD%EC%8B%9C-%ED%95%B4%EC%9A%B4%EB%8C%80%EA%B5%AC-%EB%B0%98%EC%97%AC%EB%8F%99/", "workingTime": ["-", "09:00~20:00", "09:00~20:00", "09:00~20:00", "09:00~20:00", "09:00~20:00", "09:00~15:00", "-"]}, {"name": "\ub2e4\uc19c\uc57d\uad6d", "lat": "35.1993839501931", "lng": "129.119157440393", "url": "/info/%EB%8B%A4%EC%86%9C%EC%95%BD%EA%B5%AD-%EB%B6%80%EC%82%B0%EA%B4%91%EC%97%AD%EC%8B%9C-%ED%95%B4%EC%9A%B4%EB%8C%80%EA%B5%AC-%EB%B0%98%EC%97%AC%EB%8F%99/", "workingTime": ["-", "09:00~18:30", "09:00~18:30", "09:00~18:30", "09:00~18:30", "09:00~18:30", "09:00~14:00", "-"]}, {"name": "\ub3d9\ubbfc\uc57d\uad6d", "lat": "35.19484091020446", "lng": "129.13082458596233", "url": "/info/%EB%8F%99%EB%AF%BC%EC%95%BD%EA%B5%AD-%EB%B6%80%EC%82%B0%EA%B4%91%EC%97%AD%EC%8B%9C-%ED%95%B4%EC%9A%B4%EB%8C%80%EA%B5%AC-%EB%B0%98%EC%97%AC%EB%8F%99/", "workingTime": ["-", "09:00~20:00", "09:00~20:00", "09:00~20:00", "09:00~20:00", "09:00~20:00", "09:00~16:00", "09:00~16:00"]}]