[{"name": "\ud604\ub300\uc57d\uad6d", "lat": "35.10954444444445", "lng": "129.01520555555675", "url": "/info/%ED%98%84%EB%8C%80%EC%95%BD%EA%B5%AD-%EB%B6%80%EC%82%B0%EA%B4%91%EC%97%AD%EC%8B%9C-%EC%84%9C%EA%B5%AC-%EC%84%9C%EB%8C%80%EC%8B%A0%EB%8F%992%EA%B0%80/", "workingTime": ["1,2,3,4,5\uc9f8\uc8fc09:00~21:00", "09:00~21:00", "09:00~21:00", "09:00~21:00", "09:00~21:00", "09:00~21:00", "09:00~21:00", "09:00~21:00"]}, {"name": "\ucd5c\uc57d\uad6d", "lat": "35.11162020355111", "lng": "129.01680249673035", "url": "/info/%EC%B5%9C%EC%95%BD%EA%B5%AD-%EB%B6%80%EC%82%B0%EA%B4%91%EC%97%AD%EC%8B%9C-%EC%84%9C%EA%B5%AC-%EC%84%9C%EB%8C%80%EC%8B%A0%EB%8F%992%EA%B0%80/", "workingTime": ["-", "09:00~19:00", "09:00~19:00", "09:00~19:00", "09:00~19:00", "09:00~19:00", "09:00~14:00", "-"]}, {"name": "\uc704\uc0dd\uc57d\uad6d", "lat": "35.11213889922912", "lng": "129.01161255773087", "url": "/info/%EC%9C%84%EC%83%9D%EC%95%BD%EA%B5%AD-%EB%B6%80%EC%82%B0%EA%B4%91%EC%97%AD%EC%8B%9C-%EC%84%9C%EA%B5%AC-%EC%84%9C%EB%8C%80%EC%8B%A0%EB%8F%992%EA%B0%80/", "workingTime": ["1,2,3,4,5\uc9f8\uc8fc09:00~18:00", "09:00~19:00", "09:00~19:00", "09:00~19:00", "09:00~18:00", "09:00~13:00", "-", "09:00~18:00"]}, {"name": "\uc6b0\ub9ac\ub4e4\uc57d\uad6d", "lat": "35.111650342456535", "lng": "129.01173651783205", "url": "/info/%EC%9A%B0%EB%A6%AC%EB%93%A4%EC%95%BD%EA%B5%AD-%EB%B6%80%EC%82%B0%EA%B4%91%EC%97%AD%EC%8B%9C-%EC%84%9C%EA%B5%AC-%EC%84%9C%EB%8C%80%EC%8B%A0%EB%8F%992%EA%B0%80/", "workingTime": ["1,2,3,4,5\uc9f8\uc8fc09:00~18:00", "09:00~19:00", "09:00~19:00", "09:00~19:00", "09:00~19:00", "09:00~19:00", "09:00~15:00", "09:00~18:00"]}, {"name": "\ub3d9\uc778\ub2f9\uc57d\uad6d", "lat": "35.10956898359529", "lng": "129.01594045431744", "url": "/info/%EB%8F%99%EC%9D%B8%EB%8B%B9%EC%95%BD%EA%B5%AD-%EB%B6%80%EC%82%B0%EA%B4%91%EC%97%AD%EC%8B%9C-%EC%84%9C%EA%B5%AC-%EC%84%9C%EB%8C%80%EC%8B%A0%EB%8F%992%EA%B0%80/", "workingTime": ["-", "09:00~18:00", "09:00~18:00", "09:00~18:00", "09:00~18:00", "09:00~18:00", "09:00~13:00", "-"]}]