[{"name": "\ud76c\ub9dd\uc628\ub204\ub9ac\uc57d\uad6d", "lat": "35.119384781439216", "lng": "129.0183099201344", "url": "/info/%ED%9D%AC%EB%A7%9D%EC%98%A8%EB%88%84%EB%A6%AC%EC%95%BD%EA%B5%AD-%EB%B6%80%EC%82%B0%EA%B4%91%EC%97%AD%EC%8B%9C-%EC%84%9C%EA%B5%AC-%EB%8F%99%EB%8C%80%EC%8B%A0%EB%8F%993%EA%B0%80/", "workingTime": ["-", "08:30~18:30", "08:30~18:30", "08:30~18:30", "08:30~18:30", "08:30~18:30", "-", "-"]}, {"name": "\uc6b4\ub3d9\uc7a5\uc57d\uad6d", "lat": "35.1133487378", "lng": "129.0162572506", "url": "/info/%EC%9A%B4%EB%8F%99%EC%9E%A5%EC%95%BD%EA%B5%AD-%EB%B6%80%EC%82%B0%EA%B4%91%EC%97%AD%EC%8B%9C-%EC%84%9C%EA%B5%AC-%EB%8F%99%EB%8C%80%EC%8B%A0%EB%8F%993%EA%B0%80/", "workingTime": ["1,2,3,4,5\uc9f8\uc8fc09:00~13:00", "09:00~19:00", "09:00~19:00", "09:00~19:00", "09:00~19:00", "09:00~19:00", "09:00~13:00", "-"]}, {"name": "\uc2e0\ub3d9\uc544\uc57d\uad6d", "lat": "35.119195646230715", "lng": "129.01755081476776", "url": "/info/%EC%8B%A0%EB%8F%99%EC%95%84%EC%95%BD%EA%B5%AD-%EB%B6%80%EC%82%B0%EA%B4%91%EC%97%AD%EC%8B%9C-%EC%84%9C%EA%B5%AC-%EB%8F%99%EB%8C%80%EC%8B%A0%EB%8F%993%EA%B0%80/", "workingTime": ["-", "08:30~18:30", "08:30~18:30", "08:30~18:30", "08:30~18:30", "08:30~18:30", "-", "-"]}, {"name": "\ubc1d\uc740\ubbf8\ub798\uc57d\uad6d", "lat": "35.11928766699965", "lng": "129.01830327737556", "url": "/info/%EB%B0%9D%EC%9D%80%EB%AF%B8%EB%9E%98%EC%95%BD%EA%B5%AD-%EB%B6%80%EC%82%B0%EA%B4%91%EC%97%AD%EC%8B%9C-%EC%84%9C%EA%B5%AC-%EB%8F%99%EB%8C%80%EC%8B%A0%EB%8F%993%EA%B0%80/", "workingTime": ["-", "09:00~18:00", "09:00~18:00", "09:00~18:00", "09:00~18:00", "09:00~18:00", "-", "-"]}, {"name": "\ubbff\uc74c\uc57d\uad6d", "lat": "35.115788888888886", "lng": "129.017983333333319", "url": "/info/%EB%AF%BF%EC%9D%8C%EC%95%BD%EA%B5%AD-%EB%B6%80%EC%82%B0%EA%B4%91%EC%97%AD%EC%8B%9C-%EC%84%9C%EA%B5%AC-%EB%8F%99%EB%8C%80%EC%8B%A0%EB%8F%993%EA%B0%80/", "workingTime": ["-", "09:00~20:00", "09:00~20:00", "09:00~20:00", "09:00~20:00", "09:00~20:00", "09:00~18:00", "09:00~19:00"]}, {"name": "\uba54\ub514\ud31c\ub300\ud559\uc57d\uad6d", "lat": "35.119816666666665", "lng": "129.016030555555545", "url": "/info/%EB%A9%94%EB%94%94%ED%8C%9C%EB%8C%80%ED%95%99%EC%95%BD%EA%B5%AD-%EB%B6%80%EC%82%B0%EA%B4%91%EC%97%AD%EC%8B%9C-%EC%84%9C%EA%B5%AC-%EB%8F%99%EB%8C%80%EC%8B%A0%EB%8F%993%EA%B0%80/", "workingTime": ["-", "08:30~18:00", "08:30~18:00", "08:30~18:00", "08:30~18:00", "08:30~18:00", "-", "-"]}, {"name": "\ub3d9\ub300\uc81c\uc77c\uc57d\uad6d", "lat": "35.1191619193", "lng": "129.0176289374", "url": "/info/%EB%8F%99%EB%8C%80%EC%A0%9C%EC%9D%BC%EC%95%BD%EA%B5%AD-%EB%B6%80%EC%82%B0%EA%B4%91%EC%97%AD%EC%8B%9C-%EC%84%9C%EA%B5%AC-%EB%8F%99%EB%8C%80%EC%8B%A0%EB%8F%993%EA%B0%80/", "workingTime": ["-", "09:00~18:00", "09:00~18:00", "09:00~18:00", "09:00~18:00", "09:00~18:00", "-", "-"]}, {"name": "\ub3d9\uc544\uc57d\uad6d", "lat": "35.120705555555553", "lng": "129.016730555555569", "url": "/info/%EB%8F%99%EC%95%84%EC%95%BD%EA%B5%AD-%EB%B6%80%EC%82%B0%EA%B4%91%EC%97%AD%EC%8B%9C-%EC%84%9C%EA%B5%AC-%EB%8F%99%EB%8C%80%EC%8B%A0%EB%8F%993%EA%B0%80/", "workingTime": ["-", "08:30~18:30", "08:30~18:30", "08:30~18:30", "08:30~18:30", "08:30~18:30", "-", "-"]}, {"name": "\ub3d9\uc544\ud6c4\ubb38\uc57d\uad6d", "lat": "35.1184561607383", "lng": "129.019216891509", "url": "/info/%EB%8F%99%EC%95%84%ED%9B%84%EB%AC%B8%EC%95%BD%EA%B5%AD-%EB%B6%80%EC%82%B0%EA%B4%91%EC%97%AD%EC%8B%9C-%EC%84%9C%EA%B5%AC-%EB%8F%99%EB%8C%80%EC%8B%A0%EB%8F%993%EA%B0%80/", "workingTime": ["-", "08:30~18:00", "08:30~18:00", "08:30~18:00", "08:30~18:00", "08:30~18:00", "-", "-"]}, {"name": "\uac74\uac15\uc81c\uc774\ub4dc\uc57d\uad6d", "lat": "35.1190386421949", "lng": "129.017937166032", "url": "/info/%EA%B1%B4%EA%B0%95%EC%A0%9C%EC%9D%B4%EB%93%9C%EC%95%BD%EA%B5%AD-%EB%B6%80%EC%82%B0%EA%B4%91%EC%97%AD%EC%8B%9C-%EC%84%9C%EA%B5%AC-%EB%8F%99%EB%8C%80%EC%8B%A0%EB%8F%993%EA%B0%80/", "workingTime": ["-", "08:30~20:00", "08:30~20:00", "08:30~20:00", "08:30~20:00", "08:30~20:00", "-", "-"]}]