[{"name": "\uc790\uc720\uc57d\uad6d", "lat": "35.12522682569505", "lng": "129.07959743703609", "url": "/info/%EC%9E%90%EC%9C%A0%EC%95%BD%EA%B5%AD-%EB%B6%80%EC%82%B0%EA%B4%91%EC%97%AD%EC%8B%9C-%EB%82%A8%EA%B5%AC-%EC%9A%B0%EC%95%94%EB%8F%99/", "workingTime": ["-", "09:00~19:00", "09:00~19:00", "09:00~19:00", "09:00~19:00", "09:00~19:00", "09:00~13:00", "-"]}, {"name": "\uc6b0\uc554\uc13c\ud140\uc57d\uad6d", "lat": "35.12559969996939", "lng": "129.07967440247668", "url": "/info/%EC%9A%B0%EC%95%94%EC%84%BC%ED%85%80%EC%95%BD%EA%B5%AD-%EB%B6%80%EC%82%B0%EA%B4%91%EC%97%AD%EC%8B%9C-%EB%82%A8%EA%B5%AC-%EC%9A%B0%EC%95%94%EB%8F%99/", "workingTime": ["-", "08:30~19:00", "08:30~19:00", "08:30~19:00", "08:30~19:00", "08:30~19:00", "08:30~13:00", "-"]}, {"name": "\uc6b0\uc554\uc57d\uad6d", "lat": "35.124599698030934", "lng": "129.0787133428862", "url": "/info/%EC%9A%B0%EC%95%94%EC%95%BD%EA%B5%AD-%EB%B6%80%EC%82%B0%EA%B4%91%EC%97%AD%EC%8B%9C-%EB%82%A8%EA%B5%AC-%EC%9A%B0%EC%95%94%EB%8F%99/", "workingTime": ["-", "08:30~18:00", "08:30~18:00", "08:30~18:00", "08:30~18:00", "08:30~18:00", "08:30~12:30", "-"]}, {"name": "\ubcf4\uc740\uc57d\uad6d", "lat": "35.12583660932108", "lng": "129.07110618571798", "url": "/info/%EB%B3%B4%EC%9D%80%EC%95%BD%EA%B5%AD-%EB%B6%80%EC%82%B0%EA%B4%91%EC%97%AD%EC%8B%9C-%EB%82%A8%EA%B5%AC-%EC%9A%B0%EC%95%94%EB%8F%99/", "workingTime": ["-", "09:00~18:00", "09:00~18:00", "09:00~18:00", "09:00~18:00", "09:00~18:00", "09:00~13:00", "-"]}, {"name": "\uace0\uc740\uc57d\uad6d", "lat": "35.12461043372985", "lng": "129.07854635162613", "url": "/info/%EA%B3%A0%EC%9D%80%EC%95%BD%EA%B5%AD-%EB%B6%80%EC%82%B0%EA%B4%91%EC%97%AD%EC%8B%9C-%EB%82%A8%EA%B5%AC-%EC%9A%B0%EC%95%94%EB%8F%99/", "workingTime": ["-", "09:00~18:00", "09:00~18:00", "09:00~18:00", "09:00~18:00", "09:00~18:00", "09:00~12:30", "-"]}]