[{"name": "\uc9c0\ud558\ucca0\ub3d9\uc758\uc57d\uad6d", "lat": "35.172966889552", "lng": "129.071221709878", "url": "/info/%EC%A7%80%ED%95%98%EC%B2%A0%EB%8F%99%EC%9D%98%EC%95%BD%EA%B5%AD-%EB%B6%80%EC%82%B0%EA%B4%91%EC%97%AD%EC%8B%9C-%EB%B6%80%EC%82%B0%EC%A7%84%EA%B5%AC-%EC%96%91%EC%A0%95%EB%8F%99/", "workingTime": ["-", "08:00~20:00", "08:00~20:00", "08:00~20:00", "08:00~20:00", "08:00~20:00", "09:00~20:00", "09:00~20:00"]}, {"name": "\ucc9c\uc77c\uc57d\uad6d", "lat": "35.1721133699356", "lng": "129.074718724027", "url": "/info/%EC%B2%9C%EC%9D%BC%EC%95%BD%EA%B5%AD-%EB%B6%80%EC%82%B0%EA%B4%91%EC%97%AD%EC%8B%9C-%EB%B6%80%EC%82%B0%EC%A7%84%EA%B5%AC-%EC%96%91%EC%A0%95%EB%8F%99/", "workingTime": ["-", "09:00~17:30", "09:00~17:30", "09:00~17:30", "09:00~17:30", "09:00~17:30", "09:00~12:30", "-"]}, {"name": "\uc5f4\ub9b0\uc57d\uad6d", "lat": "35.1733748942422", "lng": "129.069231740773", "url": "/info/%EC%97%B4%EB%A6%B0%EC%95%BD%EA%B5%AD-%EB%B6%80%EC%82%B0%EA%B4%91%EC%97%AD%EC%8B%9C-%EB%B6%80%EC%82%B0%EC%A7%84%EA%B5%AC-%EC%96%91%EC%A0%95%EB%8F%99/", "workingTime": ["-", "09:00~18:30", "09:00~18:30", "09:00~18:30", "09:00~18:30", "09:00~18:30", "09:00~12:30", "-"]}, {"name": "\uc0c8\ub3d9\uc758\uc57d\uad6d", "lat": "35.170792105852705", "lng": "129.07738273622147", "url": "/info/%EC%83%88%EB%8F%99%EC%9D%98%EC%95%BD%EA%B5%AD-%EB%B6%80%EC%82%B0%EA%B4%91%EC%97%AD%EC%8B%9C-%EB%B6%80%EC%82%B0%EC%A7%84%EA%B5%AC-%EC%96%91%EC%A0%95%EB%8F%99/", "workingTime": ["-", "09:00~18:00", "09:00~18:00", "09:00~18:00", "09:00~18:00", "09:00~18:00", "09:00~13:00", "-"]}, {"name": "\uc591\uc81524\uc2dc\uc57d\uad6d", "lat": "35.172712175", "lng": "129.0714825984", "url": "/info/%EC%96%91%EC%A0%9524%EC%8B%9C%EC%95%BD%EA%B5%AD-%EB%B6%80%EC%82%B0%EA%B4%91%EC%97%AD%EC%8B%9C-%EB%B6%80%EC%82%B0%EC%A7%84%EA%B5%AC-%EC%96%91%EC%A0%95%EB%8F%99/", "workingTime": ["-", "08:30~20:00", "08:30~20:00", "08:30~20:00", "08:30~20:00", "08:30~20:00", "08:30~17:00", "10:00~13:00"]}, {"name": "\uc591\uc815\uba54\ub514\uce7c\uc57d\uad6d", "lat": "35.1724870562", "lng": "129.0705242581", "url": "/info/%EC%96%91%EC%A0%95%EB%A9%94%EB%94%94%EC%B9%BC%EC%95%BD%EA%B5%AD-%EB%B6%80%EC%82%B0%EA%B4%91%EC%97%AD%EC%8B%9C-%EB%B6%80%EC%82%B0%EC%A7%84%EA%B5%AC-%EC%96%91%EC%A0%95%EB%8F%99/", "workingTime": ["-", "09:00~19:00", "09:00~19:00", "09:00~19:00", "09:00~19:00", "09:00~19:00", "09:00~13:00", "-"]}, {"name": "\uc591\uc815\uc57d\uad6d", "lat": "35.1728957056", "lng": "129.0717111461", "url": "/info/%EC%96%91%EC%A0%95%EC%95%BD%EA%B5%AD-%EB%B6%80%EC%82%B0%EA%B4%91%EC%97%AD%EC%8B%9C-%EB%B6%80%EC%82%B0%EC%A7%84%EA%B5%AC-%EC%96%91%EC%A0%95%EB%8F%99/", "workingTime": ["-", "09:00~19:00", "09:00~19:00", "09:00~19:00", "09:00~19:00", "09:00~19:00", "09:00~16:00", "-"]}, {"name": "\uc591\uc815\uc774\ud654\uc57d\uad6d", "lat": "35.1715516835", "lng": "129.0704171258", "url": "/info/%EC%96%91%EC%A0%95%EC%9D%B4%ED%99%94%EC%95%BD%EA%B5%AD-%EB%B6%80%EC%82%B0%EA%B4%91%EC%97%AD%EC%8B%9C-%EB%B6%80%EC%82%B0%EC%A7%84%EA%B5%AC-%EC%96%91%EC%A0%95%EB%8F%99/", "workingTime": ["-", "09:00~19:30", "09:00~19:30", "09:00~19:30", "09:00~19:30", "09:00~19:30", "09:00~14:00", "-"]}, {"name": "\uc628\ub204\ub9ac\uc131\uc9c4\uc57d\uad6d", "lat": "35.17511666666667", "lng": "129.07634166666813", "url": "/info/%EC%98%A8%EB%88%84%EB%A6%AC%EC%84%B1%EC%A7%84%EC%95%BD%EA%B5%AD-%EB%B6%80%EC%82%B0%EA%B4%91%EC%97%AD%EC%8B%9C-%EB%B6%80%EC%82%B0%EC%A7%84%EA%B5%AC-%EC%96%91%EC%A0%95%EB%8F%99/", "workingTime": ["-", "09:00~19:30", "09:00~19:30", "09:00~19:30", "09:00~19:30", "09:00~19:30", "09:00~17:00", "-"]}, {"name": "\uc635\ud2f0\ub9c8\uc6d0\uc57d\uad6d", "lat": "35.1749801984282", "lng": "129.076076465957", "url": "/info/%EC%98%B5%ED%8B%B0%EB%A7%88%EC%9B%90%EC%95%BD%EA%B5%AD-%EB%B6%80%EC%82%B0%EA%B4%91%EC%97%AD%EC%8B%9C-%EB%B6%80%EC%82%B0%EC%A7%84%EA%B5%AC-%EC%96%91%EC%A0%95%EB%8F%99/", "workingTime": ["-", "09:00~19:00", "09:00~19:00", "09:00~19:00", "09:00~19:00", "09:00~19:00", "09:00~15:00", "-"]}, {"name": "\uc784\uc57d\uad6d", "lat": "35.1745499124", "lng": "129.0656113737", "url": "/info/%EC%9E%84%EC%95%BD%EA%B5%AD-%EB%B6%80%EC%82%B0%EA%B4%91%EC%97%AD%EC%8B%9C-%EB%B6%80%EC%82%B0%EC%A7%84%EA%B5%AC-%EC%96%91%EC%A0%95%EB%8F%99/", "workingTime": ["-", "09:00~18:00", "09:00~18:00", "09:00~18:00", "09:00~18:00", "09:00~18:00", "09:00~16:00", "09:00~15:00"]}, {"name": "\uac74\uac15\uc57d\uad6d", "lat": "35.170066666666663", "lng": "129.075441666666677", "url": "/info/%EA%B1%B4%EA%B0%95%EC%95%BD%EA%B5%AD-%EB%B6%80%EC%82%B0%EA%B4%91%EC%97%AD%EC%8B%9C-%EB%B6%80%EC%82%B0%EC%A7%84%EA%B5%AC-%EC%96%91%EC%A0%95%EB%8F%99/", "workingTime": ["-", "09:00~18:00", "09:00~18:00", "09:00~18:00", "09:00~18:00", "09:00~18:00", "09:00~13:30", "-"]}, {"name": "\uace0\uc740\uc57d\uad6d", "lat": "35.1750234319", "lng": "129.0659570062", "url": "/info/%EA%B3%A0%EC%9D%80%EC%95%BD%EA%B5%AD-%EB%B6%80%EC%82%B0%EA%B4%91%EC%97%AD%EC%8B%9C-%EB%B6%80%EC%82%B0%EC%A7%84%EA%B5%AC-%EC%96%91%EC%A0%95%EB%8F%99/", "workingTime": ["-", "09:00~18:00", "09:00~18:00", "09:00~18:00", "09:00~18:00", "09:00~18:00", "09:00~13:00", "-"]}, {"name": "\ub124\uc628\uc6b0\ub9ac\uc57d\uad6d", "lat": "35.1705426604049", "lng": "129.076810423696", "url": "/info/%EB%84%A4%EC%98%A8%EC%9A%B0%EB%A6%AC%EC%95%BD%EA%B5%AD-%EB%B6%80%EC%82%B0%EA%B4%91%EC%97%AD%EC%8B%9C-%EB%B6%80%EC%82%B0%EC%A7%84%EA%B5%AC-%EC%96%91%EC%A0%95%EB%8F%99/", "workingTime": ["-", "09:00~18:00", "09:00~18:00", "09:00~18:00", "09:00~18:00", "09:00~18:00", "09:00~13:00", "-"]}, {"name": "\ub3d9\uc11c\uc57d\uad6d", "lat": "35.17020643943378", "lng": "129.07593181488454", "url": "/info/%EB%8F%99%EC%84%9C%EC%95%BD%EA%B5%AD-%EB%B6%80%EC%82%B0%EA%B4%91%EC%97%AD%EC%8B%9C-%EB%B6%80%EC%82%B0%EC%A7%84%EA%B5%AC-%EC%96%91%EC%A0%95%EB%8F%99/", "workingTime": ["-", "09:00~18:00", "09:00~18:00", "09:00~18:00", "09:00~18:00", "09:00~18:00", "09:00~13:00", "-"]}, {"name": "\ub3d9\uc6d0\uc57d\uad6d", "lat": "35.17011914628707", "lng": "129.07576717050472", "url": "/info/%EB%8F%99%EC%9B%90%EC%95%BD%EA%B5%AD-%EB%B6%80%EC%82%B0%EA%B4%91%EC%97%AD%EC%8B%9C-%EB%B6%80%EC%82%B0%EC%A7%84%EA%B5%AC-%EC%96%91%EC%A0%95%EB%8F%99/", "workingTime": ["-", "09:00~18:00", "09:00~18:00", "09:00~18:00", "09:00~18:00", "09:00~18:00", "09:00~13:00", "-"]}, {"name": "\ubb34\uc9c0\uac1c\uc57d\uad6d", "lat": "35.1728631273", "lng": "129.0706654969", "url": "/info/%EB%AC%B4%EC%A7%80%EA%B0%9C%EC%95%BD%EA%B5%AD-%EB%B6%80%EC%82%B0%EA%B4%91%EC%97%AD%EC%8B%9C-%EB%B6%80%EC%82%B0%EC%A7%84%EA%B5%AC-%EC%96%91%EC%A0%95%EB%8F%99/", "workingTime": ["-", "09:00~19:00", "09:00~19:00", "09:00~19:00", "09:00~19:00", "09:00~19:00", "09:00~14:30", "-"]}, {"name": "\ubbf8\uc18c\uc57d\uad6d", "lat": "35.171161633205024", "lng": "129.07024921147826", "url": "/info/%EB%AF%B8%EC%86%8C%EC%95%BD%EA%B5%AD-%EB%B6%80%EC%82%B0%EA%B4%91%EC%97%AD%EC%8B%9C-%EB%B6%80%EC%82%B0%EC%A7%84%EA%B5%AC-%EC%96%91%EC%A0%95%EB%8F%99/", "workingTime": ["-", "09:00~18:30", "09:00~18:30", "09:00~18:30", "09:00~18:30", "09:00~18:30", "09:00~13:30", "-"]}, {"name": "\ubc1d\uc740\uc57d\uad6d", "lat": "35.17007965337966", "lng": "129.0755715847313", "url": "/info/%EB%B0%9D%EC%9D%80%EC%95%BD%EA%B5%AD-%EB%B6%80%EC%82%B0%EA%B4%91%EC%97%AD%EC%8B%9C-%EB%B6%80%EC%82%B0%EC%A7%84%EA%B5%AC-%EC%96%91%EC%A0%95%EB%8F%99/", "workingTime": ["-", "09:00~18:00", "09:00~18:00", "09:00~18:00", "09:00~18:00", "09:00~18:00", "09:00~13:00", "-"]}]