[{"name": "\uc720\ucc44\uc57d\uad6d", "lat": "35.2357333783758", "lng": "129.012649816552", "url": "/info/%EC%9C%A0%EC%B1%84%EC%95%BD%EA%B5%AD-%EB%B6%80%EC%82%B0%EA%B4%91%EC%97%AD%EC%8B%9C-%EB%B6%81%EA%B5%AC-%ED%99%94%EB%AA%85%EB%8F%99/", "workingTime": ["-", "08:30~19:00", "08:30~19:00", "08:30~19:00", "08:30~19:00", "08:30~19:00", "08:30~14:00", "-"]}, {"name": "\ud589\ubcf5\uc628\ub204\ub9ac\uc57d\uad6d", "lat": "35.2240810071698", "lng": "129.008755219018", "url": "/info/%ED%96%89%EB%B3%B5%EC%98%A8%EB%88%84%EB%A6%AC%EC%95%BD%EA%B5%AD-%EB%B6%80%EC%82%B0%EA%B4%91%EC%97%AD%EC%8B%9C-%EB%B6%81%EA%B5%AC-%ED%99%94%EB%AA%85%EB%8F%99/", "workingTime": ["-", "09:00~19:00", "09:00~19:00", "09:00~19:00", "09:00~19:00", "09:00~19:00", "09:00~13:00", "-"]}, {"name": "\ud654\uba85\uba54\ub514\uce7c\uc57d\uad6d", "lat": "35.23459857410824", "lng": "129.01103753140544", "url": "/info/%ED%99%94%EB%AA%85%EB%A9%94%EB%94%94%EC%B9%BC%EC%95%BD%EA%B5%AD-%EB%B6%80%EC%82%B0%EA%B4%91%EC%97%AD%EC%8B%9C-%EB%B6%81%EA%B5%AC-%ED%99%94%EB%AA%85%EB%8F%99/", "workingTime": ["1,2,3,4,5\uc9f8\uc8fc09:00~22:30", "09:00~22:30", "09:00~22:30", "09:00~22:30", "09:00~22:30", "09:00~22:30", "09:00~22:30", "09:00~22:30"]}, {"name": "\ud654\uba85\uc0c8\ubd04\uc57d\uad6d", "lat": "35.235168557635106", "lng": "129.01301654931674", "url": "/info/%ED%99%94%EB%AA%85%EC%83%88%EB%B4%84%EC%95%BD%EA%B5%AD-%EB%B6%80%EC%82%B0%EA%B4%91%EC%97%AD%EC%8B%9C-%EB%B6%81%EA%B5%AC-%ED%99%94%EB%AA%85%EB%8F%99/", "workingTime": ["1,3,5\uc9f8\uc8fc10:00~21:00", "10:00~21:00", "10:00~21:00", "10:00~21:00", "10:00~21:00", "10:00~21:00", "10:00~21:00", "10:00~21:00"]}, {"name": "\ud654\uba85\uc218\uc57d\uad6d", "lat": "35.2341832365", "lng": "129.0133085198", "url": "/info/%ED%99%94%EB%AA%85%EC%88%98%EC%95%BD%EA%B5%AD-%EB%B6%80%EC%82%B0%EA%B4%91%EC%97%AD%EC%8B%9C-%EB%B6%81%EA%B5%AC-%ED%99%94%EB%AA%85%EB%8F%99/", "workingTime": ["-", "09:30~19:00", "09:30~19:00", "09:30~19:00", "09:30~19:00", "09:30~19:00", "09:30~14:00", "-"]}, {"name": "\ud654\uba85\uc5f4\ub9b0\uc57d\uad6d", "lat": "35.23612221050368", "lng": "129.01414927898165", "url": "/info/%ED%99%94%EB%AA%85%EC%97%B4%EB%A6%B0%EC%95%BD%EA%B5%AD-%EB%B6%80%EC%82%B0%EA%B4%91%EC%97%AD%EC%8B%9C-%EB%B6%81%EA%B5%AC-%ED%99%94%EB%AA%85%EB%8F%99/", "workingTime": ["-", "09:00~18:30", "09:00~18:30", "09:00~18:30", "09:00~18:30", "09:00~18:30", "09:00~13:00", "-"]}, {"name": "\ud654\uc778\uc57d\uad6d", "lat": "35.23367623404268", "lng": "129.01318820987206", "url": "/info/%ED%99%94%EC%9D%B8%EC%95%BD%EA%B5%AD-%EB%B6%80%EC%82%B0%EA%B4%91%EC%97%AD%EC%8B%9C-%EB%B6%81%EA%B5%AC-%ED%99%94%EB%AA%85%EB%8F%99/", "workingTime": ["-", "09:00~20:00", "09:00~19:30", "09:00~19:30", "09:00~19:30", "09:00~19:30", "09:00~14:30", "-"]}, {"name": "\ucf54\uc624\ub871\uc57d\uad6d", "lat": "35.2344403559", "lng": "129.0123702976", "url": "/info/%EC%BD%94%EC%98%A4%EB%A1%B1%EC%95%BD%EA%B5%AD-%EB%B6%80%EC%82%B0%EA%B4%91%EC%97%AD%EC%8B%9C-%EB%B6%81%EA%B5%AC-%ED%99%94%EB%AA%85%EB%8F%99/", "workingTime": ["2,4,5\uc9f8\uc8fc14:00~20:00", "09:00~22:00", "09:00~22:00", "09:00~22:00", "09:00~22:00", "09:00~22:00", "09:00~22:00", "14:00~20:00"]}, {"name": "\ucc38\uace0\uc6b4\uc57d\uad6d", "lat": "35.234520379717345", "lng": "129.01189339526593", "url": "/info/%EC%B0%B8%EA%B3%A0%EC%9A%B4%EC%95%BD%EA%B5%AD-%EB%B6%80%EC%82%B0%EA%B4%91%EC%97%AD%EC%8B%9C-%EB%B6%81%EA%B5%AC-%ED%99%94%EB%AA%85%EB%8F%99/", "workingTime": ["-", "10:00~19:00", "10:00~19:00", "10:00~19:00", "10:00~19:00", "10:00~19:00", "10:00~14:00", "-"]}, {"name": "\uc6b0\ub9ac\uc57d\uad6d", "lat": "35.2344064173", "lng": "129.0126769959", "url": "/info/%EC%9A%B0%EB%A6%AC%EC%95%BD%EA%B5%AD-%EB%B6%80%EC%82%B0%EA%B4%91%EC%97%AD%EC%8B%9C-%EB%B6%81%EA%B5%AC-%ED%99%94%EB%AA%85%EB%8F%99/", "workingTime": ["-", "08:30~19:30", "08:30~19:30", "08:30~19:30", "08:30~19:30", "08:30~19:30", "08:30~14:00", "-"]}, {"name": "\uc6c3\ub294\uc57d\uad6d", "lat": "35.23238536061592", "lng": "129.013863643884", "url": "/info/%EC%9B%83%EB%8A%94%EC%95%BD%EA%B5%AD-%EB%B6%80%EC%82%B0%EA%B4%91%EC%97%AD%EC%8B%9C-%EB%B6%81%EA%B5%AC-%ED%99%94%EB%AA%85%EB%8F%99/", "workingTime": ["-", "09:00~18:30", "09:00~18:30", "09:00~18:30", "09:00~18:30", "09:00~18:30", "09:00~21:00", "-"]}, {"name": "\uc6d0\uc57d\uad6d", "lat": "35.2263603201003", "lng": "129.012210130511", "url": "/info/%EC%9B%90%EC%95%BD%EA%B5%AD-%EB%B6%80%EC%82%B0%EA%B4%91%EC%97%AD%EC%8B%9C-%EB%B6%81%EA%B5%AC-%ED%99%94%EB%AA%85%EB%8F%99/", "workingTime": ["-", "09:00~19:00", "09:00~19:00", "09:00~19:00", "09:00~19:00", "09:00~19:00", "09:00~14:00", "-"]}, {"name": "\uc774\uce35\uc5d0\uc57d\uad6d", "lat": "35.2358273650311", "lng": "129.011989056128", "url": "/info/%EC%9D%B4%EC%B8%B5%EC%97%90%EC%95%BD%EA%B5%AD-%EB%B6%80%EC%82%B0%EA%B4%91%EC%97%AD%EC%8B%9C-%EB%B6%81%EA%B5%AC-%ED%99%94%EB%AA%85%EB%8F%99/", "workingTime": ["-", "09:00~18:30", "09:00~18:30", "09:00~18:30", "09:00~18:30", "09:00~18:30", "09:00~14:00", "-"]}, {"name": "\uc624\uc988\uc57d\uad6d", "lat": "35.23364190882568", "lng": "129.0139517995974", "url": "/info/%EC%98%A4%EC%A6%88%EC%95%BD%EA%B5%AD-%EB%B6%80%EC%82%B0%EA%B4%91%EC%97%AD%EC%8B%9C-%EB%B6%81%EA%B5%AC-%ED%99%94%EB%AA%85%EB%8F%99/", "workingTime": ["-", "09:00~20:00", "09:00~20:00", "09:00~20:00", "09:00~20:00", "09:00~20:00", "09:00~15:00", "09:00~13:00"]}, {"name": "\uc655\uc57d\uad6d", "lat": "35.22656503452116", "lng": "129.01058550781255", "url": "/info/%EC%99%95%EC%95%BD%EA%B5%AD-%EB%B6%80%EC%82%B0%EA%B4%91%EC%97%AD%EC%8B%9C-%EB%B6%81%EA%B5%AC-%ED%99%94%EB%AA%85%EB%8F%99/", "workingTime": ["-", "09:00~18:30", "09:00~18:30", "09:00~13:30", "09:00~18:30", "09:00~18:30", "09:00~13:30", "-"]}, {"name": "\uc0c8\ubd04\uc57d\uad6d", "lat": "35.239176359679256", "lng": "129.0143038402939", "url": "/info/%EC%83%88%EB%B4%84%EC%95%BD%EA%B5%AD-%EB%B6%80%EC%82%B0%EA%B4%91%EC%97%AD%EC%8B%9C-%EB%B6%81%EA%B5%AC-%ED%99%94%EB%AA%85%EB%8F%99/", "workingTime": ["-", "09:00~19:00", "09:00~19:00", "09:00~19:00", "09:00~19:00", "09:00~19:00", "09:00~13:00", "-"]}, {"name": "\ube44\ud0c0\ubbfc\uc57d\uad6d", "lat": "35.22832404599103", "lng": "129.01271338913284", "url": "/info/%EB%B9%84%ED%83%80%EB%AF%BC%EC%95%BD%EA%B5%AD-%EB%B6%80%EC%82%B0%EA%B4%91%EC%97%AD%EC%8B%9C-%EB%B6%81%EA%B5%AC-%ED%99%94%EB%AA%85%EB%8F%99/", "workingTime": ["-", "09:00~18:30", "09:00~18:30", "09:00~18:30", "09:00~18:30", "09:00~18:30", "09:00~13:00", "-"]}, {"name": "\uc0bc\ubcf4\uc628\ub204\ub9ac\uc57d\uad6d", "lat": "35.232370874999795", "lng": "129.01386767928307", "url": "/info/%EC%82%BC%EB%B3%B4%EC%98%A8%EB%88%84%EB%A6%AC%EC%95%BD%EA%B5%AD-%EB%B6%80%EC%82%B0%EA%B4%91%EC%97%AD%EC%8B%9C-%EB%B6%81%EA%B5%AC-%ED%99%94%EB%AA%85%EB%8F%99/", "workingTime": ["-", "09:00~18:30", "09:00~18:30", "09:00~18:30", "09:00~18:30", "09:00~18:30", "09:00~14:30", "-"]}, {"name": "\ubca0\uc2a4\ud2b8\uc815\uc57d\uad6d", "lat": "35.23490798000002", "lng": "129.00852443530232", "url": "/info/%EB%B2%A0%EC%8A%A4%ED%8A%B8%EC%A0%95%EC%95%BD%EA%B5%AD-%EB%B6%80%EC%82%B0%EA%B4%91%EC%97%AD%EC%8B%9C-%EB%B6%81%EA%B5%AC-%ED%99%94%EB%AA%85%EB%8F%99/", "workingTime": ["-", "09:00~19:00", "09:00~19:00", "09:00~19:00", "09:00~19:00", "09:00~19:00", "09:00~14:00", "-"]}, {"name": "\uba54\ub514\ud31c\uc774\ud654\uc57d\uad6d", "lat": "35.235621519066", "lng": "129.01346820282347", "url": "/info/%EB%A9%94%EB%94%94%ED%8C%9C%EC%9D%B4%ED%99%94%EC%95%BD%EA%B5%AD-%EB%B6%80%EC%82%B0%EA%B4%91%EC%97%AD%EC%8B%9C-%EB%B6%81%EA%B5%AC-%ED%99%94%EB%AA%85%EB%8F%99/", "workingTime": ["-", "09:00~21:00", "09:00~21:00", "09:00~21:00", "09:00~21:00", "09:00~21:00", "09:00~17:00", "09:00~13:30"]}, {"name": "\ub4dc\ub798\uace4\uc57d\uad6d", "lat": "35.23418326751", "lng": "129.013306653337", "url": "/info/%EB%93%9C%EB%9E%98%EA%B3%A4%EC%95%BD%EA%B5%AD-%EB%B6%80%EC%82%B0%EA%B4%91%EC%97%AD%EC%8B%9C-%EB%B6%81%EA%B5%AC-%ED%99%94%EB%AA%85%EB%8F%99/", "workingTime": ["-", "09:00~20:00", "09:00~19:30", "09:00~19:30", "09:00~19:30", "09:00~20:00", "09:00~15:00", "-"]}, {"name": "\ub300\ud559\ub85c\uc57d\uad6d", "lat": "35.22417946974768", "lng": "129.00767356705887", "url": "/info/%EB%8C%80%ED%95%99%EB%A1%9C%EC%95%BD%EA%B5%AD-%EB%B6%80%EC%82%B0%EA%B4%91%EC%97%AD%EC%8B%9C-%EB%B6%81%EA%B5%AC-%ED%99%94%EB%AA%85%EB%8F%99/", "workingTime": ["-", "09:30~18:30", "09:30~18:30", "09:30~18:30", "09:30~18:30", "09:30~18:30", "09:30~13:00", "-"]}, {"name": "\uadf8\ub9b0\uc57d\uad6d", "lat": "35.243982433826154", "lng": "129.02115844687822", "url": "/info/%EA%B7%B8%EB%A6%B0%EC%95%BD%EA%B5%AD-%EB%B6%80%EC%82%B0%EA%B4%91%EC%97%AD%EC%8B%9C-%EB%B6%81%EA%B5%AC-%ED%99%94%EB%AA%85%EB%8F%99/", "workingTime": ["-", "09:00~19:00", "09:00~19:00", "09:00~19:00", "09:00~19:00", "09:00~19:00", "09:00~19:00", "-"]}, {"name": "\uac74\uac15\ud55c\uc57d\uad6d", "lat": "35.2341832365", "lng": "129.0133085198", "url": "/info/%EA%B1%B4%EA%B0%95%ED%95%9C%EC%95%BD%EA%B5%AD-%EB%B6%80%EC%82%B0%EA%B4%91%EC%97%AD%EC%8B%9C-%EB%B6%81%EA%B5%AC-%ED%99%94%EB%AA%85%EB%8F%99/", "workingTime": ["-", "09:00~19:00", "09:00~19:00", "09:00~19:00", "09:00~19:00", "09:00~19:00", "09:00~15:00", "-"]}]