[{"name": "\ud589\uc6b4\uc57d\uad6d", "lat": "35.1968785069", "lng": "129.1036168583", "url": "/info/%ED%96%89%EC%9A%B4%EC%95%BD%EA%B5%AD-%EB%B6%80%EC%82%B0%EA%B4%91%EC%97%AD%EC%8B%9C-%EB%8F%99%EB%9E%98%EA%B5%AC-%EC%95%88%EB%9D%BD%EB%8F%99/", "workingTime": ["1,2,3,4,5\uc9f8\uc8fc09:00~15:00", "09:00~20:00", "09:00~20:00", "09:00~20:00", "09:00~20:00", "09:00~20:00", "09:00~15:00", "09:00~15:00"]}, {"name": "\ud558\uc580\uc57d\uad6d", "lat": "35.19544611197164", "lng": "129.1092873838179", "url": "/info/%ED%95%98%EC%96%80%EC%95%BD%EA%B5%AD-%EB%B6%80%EC%82%B0%EA%B4%91%EC%97%AD%EC%8B%9C-%EB%8F%99%EB%9E%98%EA%B5%AC-%EC%95%88%EB%9D%BD%EB%8F%99/", "workingTime": ["-", "09:00~18:00", "09:00~18:00", "09:00~18:00", "09:00~18:00", "09:00~18:00", "09:00~14:00", "-"]}, {"name": "\ub298\ud478\ub978\uc57d\uad6d", "lat": "35.1953007165363", "lng": "129.109440593798", "url": "/info/%EB%8A%98%ED%91%B8%EB%A5%B8%EC%95%BD%EA%B5%AD-%EB%B6%80%EC%82%B0%EA%B4%91%EC%97%AD%EC%8B%9C-%EB%8F%99%EB%9E%98%EA%B5%AC-%EC%95%88%EB%9D%BD%EB%8F%99/", "workingTime": ["-", "-", "-", "-", "-", "-", "-", "-"]}, {"name": "\ud558\ub098\uc57d\uad6d", "lat": "35.2007926266", "lng": "129.0984524291", "url": "/info/%ED%95%98%EB%82%98%EC%95%BD%EA%B5%AD-%EB%B6%80%EC%82%B0%EA%B4%91%EC%97%AD%EC%8B%9C-%EB%8F%99%EB%9E%98%EA%B5%AC-%EC%95%88%EB%9D%BD%EB%8F%99/", "workingTime": ["-", "09:00~20:30", "09:00~20:30", "09:00~20:30", "09:00~20:30", "09:00~20:30", "09:00~19:00", "10:30~19:00"]}, {"name": "\ucf54\ub07c\ub9ac\uc57d\uad6d", "lat": "35.19718012305101", "lng": "129.09662052502531", "url": "/info/%EC%BD%94%EB%81%BC%EB%A6%AC%EC%95%BD%EA%B5%AD-%EB%B6%80%EC%82%B0%EA%B4%91%EC%97%AD%EC%8B%9C-%EB%8F%99%EB%9E%98%EA%B5%AC-%EC%95%88%EB%9D%BD%EB%8F%99/", "workingTime": ["-", "09:00~18:00", "09:00~18:00", "09:00~18:00", "09:00~18:00", "09:00~18:00", "09:00~13:30", "-"]}, {"name": "\uc885\uadfc\ub2f9\uc57d\uad6d", "lat": "35.2007892265", "lng": "129.0994799501", "url": "/info/%EC%A2%85%EA%B7%BC%EB%8B%B9%EC%95%BD%EA%B5%AD-%EB%B6%80%EC%82%B0%EA%B4%91%EC%97%AD%EC%8B%9C-%EB%8F%99%EB%9E%98%EA%B5%AC-%EC%95%88%EB%9D%BD%EB%8F%99/", "workingTime": ["1\uc9f8\uc8fc10:00~20:00", "09:00~20:00", "09:00~20:00", "09:00~20:00", "09:00~20:00", "09:00~20:00", "09:00~20:00", "-"]}, {"name": "\uc815\ubbfc\uc57d\uad6d", "lat": "35.1972070548878", "lng": "129.096954187505", "url": "/info/%EC%A0%95%EB%AF%BC%EC%95%BD%EA%B5%AD-%EB%B6%80%EC%82%B0%EA%B4%91%EC%97%AD%EC%8B%9C-%EB%8F%99%EB%9E%98%EA%B5%AC-%EC%95%88%EB%9D%BD%EB%8F%99/", "workingTime": ["-", "08:30~18:00", "08:30~18:00", "08:30~18:00", "08:30~18:00", "08:30~18:00", "08:30~13:00", "-"]}, {"name": "\uc81c\uc77c\uc57d\uad6d", "lat": "35.200408333333336", "lng": "129.101258333333334", "url": "/info/%EC%A0%9C%EC%9D%BC%EC%95%BD%EA%B5%AD-%EB%B6%80%EC%82%B0%EA%B4%91%EC%97%AD%EC%8B%9C-%EB%8F%99%EB%9E%98%EA%B5%AC-%EC%95%88%EB%9D%BD%EB%8F%99/", "workingTime": ["-", "09:00~20:00", "09:00~20:00", "09:00~20:00", "09:00~20:00", "09:00~20:00", "09:00~19:00", "-"]}, {"name": "\uc77c\ub4f1\uc57d\uad6d", "lat": "35.1969402725", "lng": "129.096732924", "url": "/info/%EC%9D%BC%EB%93%B1%EC%95%BD%EA%B5%AD-%EB%B6%80%EC%82%B0%EA%B4%91%EC%97%AD%EC%8B%9C-%EB%8F%99%EB%9E%98%EA%B5%AC-%EC%95%88%EB%9D%BD%EB%8F%99/", "workingTime": ["-", "09:00~18:00", "09:00~18:00", "09:00~18:00", "09:00~18:00", "09:00~18:00", "09:00~13:00", "-"]}, {"name": "\uc628\ub204\ub9ac\uc720\ud55c\uc57d\uad6d", "lat": "35.2004547822", "lng": "129.0996426071", "url": "/info/%EC%98%A8%EB%88%84%EB%A6%AC%EC%9C%A0%ED%95%9C%EC%95%BD%EA%B5%AD-%EB%B6%80%EC%82%B0%EA%B4%91%EC%97%AD%EC%8B%9C-%EB%8F%99%EB%9E%98%EA%B5%AC-%EC%95%88%EB%9D%BD%EB%8F%99/", "workingTime": ["-", "09:00~20:00", "09:00~20:00", "09:00~20:00", "09:00~20:00", "09:00~20:00", "09:00~20:00", "09:00~20:00"]}, {"name": "\uc635\ud2f0\ub9c8\ub3d9\ub798\uc57d\uad6d", "lat": "35.19689790234823", "lng": "129.09688992082647", "url": "/info/%EC%98%B5%ED%8B%B0%EB%A7%88%EB%8F%99%EB%9E%98%EC%95%BD%EA%B5%AD-%EB%B6%80%EC%82%B0%EA%B4%91%EC%97%AD%EC%8B%9C-%EB%8F%99%EB%9E%98%EA%B5%AC-%EC%95%88%EB%9D%BD%EB%8F%99/", "workingTime": ["2,4,5\uc9f8\uc8fc09:00~17:00", "09:00~19:30", "09:00~19:30", "09:00~19:30", "09:00~19:30", "09:00~19:30", "09:00~17:00", "09:00~17:00"]}, {"name": "\uc548\ub77d\uace0\ub824\uc57d\uad6d", "lat": "35.19529879912798", "lng": "129.0980607795489", "url": "/info/%EC%95%88%EB%9D%BD%EA%B3%A0%EB%A0%A4%EC%95%BD%EA%B5%AD-%EB%B6%80%EC%82%B0%EA%B4%91%EC%97%AD%EC%8B%9C-%EB%8F%99%EB%9E%98%EA%B5%AC-%EC%95%88%EB%9D%BD%EB%8F%99/", "workingTime": ["-", "08:50~19:30", "08:50~19:30", "08:50~19:30", "08:50~19:30", "08:50~19:30", "08:50~16:00", "-"]}, {"name": "\uc548\ub77d\uc628\ub204\ub9ac\uc57d\uad6d", "lat": "35.1939077384242", "lng": "129.098801568379", "url": "/info/%EC%95%88%EB%9D%BD%EC%98%A8%EB%88%84%EB%A6%AC%EC%95%BD%EA%B5%AD-%EB%B6%80%EC%82%B0%EA%B4%91%EC%97%AD%EC%8B%9C-%EB%8F%99%EB%9E%98%EA%B5%AC-%EC%95%88%EB%9D%BD%EB%8F%99/", "workingTime": ["-", "08:30~18:30", "08:30~18:30", "08:30~18:30", "08:30~18:30", "08:30~18:30", "08:30~13:00", "-"]}, {"name": "\uc548\uc815\uc57d\uad6d", "lat": "35.196851938819", "lng": "129.103864828857", "url": "/info/%EC%95%88%EC%A0%95%EC%95%BD%EA%B5%AD-%EB%B6%80%EC%82%B0%EA%B4%91%EC%97%AD%EC%8B%9C-%EB%8F%99%EB%9E%98%EA%B5%AC-%EC%95%88%EB%9D%BD%EB%8F%99/", "workingTime": ["-", "09:00~19:00", "09:00~19:00", "09:00~19:00", "09:00~19:00", "09:00~19:00", "09:00~13:00", "-"]}, {"name": "\uc2a4\ud0c0\uc57d\uad6d", "lat": "35.1961135755", "lng": "129.1075975404", "url": "/info/%EC%8A%A4%ED%83%80%EC%95%BD%EA%B5%AD-%EB%B6%80%EC%82%B0%EA%B4%91%EC%97%AD%EC%8B%9C-%EB%8F%99%EB%9E%98%EA%B5%AC-%EC%95%88%EB%9D%BD%EB%8F%99/", "workingTime": ["-", "09:00~19:00", "09:00~19:00", "09:00~19:00", "09:00~19:00", "09:00~19:00", "09:00~13:30", "09:00~13:00"]}, {"name": "\uc11c\uc6b8\uc57d\uad6d", "lat": "35.1968734416067", "lng": "129.104094937326", "url": "/info/%EC%84%9C%EC%9A%B8%EC%95%BD%EA%B5%AD-%EB%B6%80%EC%82%B0%EA%B4%91%EC%97%AD%EC%8B%9C-%EB%8F%99%EB%9E%98%EA%B5%AC-%EC%95%88%EB%9D%BD%EB%8F%99/", "workingTime": ["-", "09:00~18:00", "09:00~18:00", "09:00~18:00", "09:00~18:00", "09:00~18:00", "-", "-"]}, {"name": "\uba85\uc778\uc57d\uad6d", "lat": "35.1950585534", "lng": "129.1046325841", "url": "/info/%EB%AA%85%EC%9D%B8%EC%95%BD%EA%B5%AD-%EB%B6%80%EC%82%B0%EA%B4%91%EC%97%AD%EC%8B%9C-%EB%8F%99%EB%9E%98%EA%B5%AC-%EC%95%88%EB%9D%BD%EB%8F%99/", "workingTime": ["-", "09:00~19:00", "09:00~19:00", "09:00~19:00", "09:00~19:00", "09:00~19:00", "09:00~17:00", "-"]}, {"name": "\ub3d9\ubd80\uc0b0\uc57d\uad6d", "lat": "35.1981018511", "lng": "129.0981372777", "url": "/info/%EB%8F%99%EB%B6%80%EC%82%B0%EC%95%BD%EA%B5%AD-%EB%B6%80%EC%82%B0%EA%B4%91%EC%97%AD%EC%8B%9C-%EB%8F%99%EB%9E%98%EA%B5%AC-%EC%95%88%EB%9D%BD%EB%8F%99/", "workingTime": ["1,2,3,4,5\uc9f8\uc8fc13:00~21:00", "09:00~21:00", "09:00~21:00", "09:00~21:00", "09:00~21:00", "09:00~21:00", "09:00~21:00", "09:00~21:00"]}, {"name": "\ub4dc\ub9bc\uc57d\uad6d", "lat": "35.19311331149943", "lng": "129.0991638101043", "url": "/info/%EB%93%9C%EB%A6%BC%EC%95%BD%EA%B5%AD-%EB%B6%80%EC%82%B0%EA%B4%91%EC%97%AD%EC%8B%9C-%EB%8F%99%EB%9E%98%EA%B5%AC-%EC%95%88%EB%9D%BD%EB%8F%99/", "workingTime": ["-", "08:30~19:00", "08:30~19:00", "08:30~19:00", "08:30~19:00", "08:30~19:00", "08:30~14:00", "-"]}, {"name": "\uad7f\ubaa8\ub2dd\uc57d\uad6d", "lat": "35.19861232858083", "lng": "129.09759270614745", "url": "/info/%EA%B5%BF%EB%AA%A8%EB%8B%9D%EC%95%BD%EA%B5%AD-%EB%B6%80%EC%82%B0%EA%B4%91%EC%97%AD%EC%8B%9C-%EB%8F%99%EB%9E%98%EA%B5%AC-%EC%95%88%EB%9D%BD%EB%8F%99/", "workingTime": ["-", "09:00~18:30", "09:00~18:30", "09:00~18:30", "09:00~18:30", "09:00~18:30", "09:00~14:00", "-"]}]