[{"name": "\uc704\ub4dc\ud31c\ubc31\uc138\uc57d\uad6d", "lat": "35.131177777777779", "lng": "129.049672222222227", "url": "/info/%EC%9C%84%EB%93%9C%ED%8C%9C%EB%B0%B1%EC%84%B8%EC%95%BD%EA%B5%AD-%EB%B6%80%EC%82%B0%EA%B4%91%EC%97%AD%EC%8B%9C-%EB%8F%99%EA%B5%AC-%EC%A2%8C%EC%B2%9C%EB%8F%99/", "workingTime": ["-", "08:30~18:00", "08:30~18:00", "08:30~18:00", "08:30~18:00", "08:30~18:00", "09:00~13:00", "-"]}, {"name": "\ud55c\ube5b\uc57d\uad6d", "lat": "35.13126664315273", "lng": "129.0500419612463", "url": "/info/%ED%95%9C%EB%B9%9B%EC%95%BD%EA%B5%AD-%EB%B6%80%EC%82%B0%EA%B4%91%EC%97%AD%EC%8B%9C-%EB%8F%99%EA%B5%AC-%EC%A2%8C%EC%B2%9C%EB%8F%99/", "workingTime": ["-", "08:40~17:40", "08:40~17:40", "08:40~17:40", "08:40~17:40", "08:40~17:40", "08:40~12:30", "-"]}, {"name": "\uc8fc\ucc28\uc7a5\uc57d\uad6d", "lat": "35.131347798979334", "lng": "129.0506769504543", "url": "/info/%EC%A3%BC%EC%B0%A8%EC%9E%A5%EC%95%BD%EA%B5%AD-%EB%B6%80%EC%82%B0%EA%B4%91%EC%97%AD%EC%8B%9C-%EB%8F%99%EA%B5%AC-%EC%A2%8C%EC%B2%9C%EB%8F%99/", "workingTime": ["-", "08:30~18:00", "08:30~18:00", "08:30~18:00", "08:30~18:00", "08:30~18:00", "09:00~13:00", "-"]}, {"name": "\uc77c\uc2ec\uc57d\uad6d", "lat": "35.135697075001296", "lng": "129.05449282049514", "url": "/info/%EC%9D%BC%EC%8B%AC%EC%95%BD%EA%B5%AD-%EB%B6%80%EC%82%B0%EA%B4%91%EC%97%AD%EC%8B%9C-%EB%8F%99%EA%B5%AC-%EC%A2%8C%EC%B2%9C%EB%8F%99/", "workingTime": ["-", "09:00~18:00", "09:00~18:00", "09:00~18:00", "09:00~22:00", "09:00~18:00", "09:00~13:00", "-"]}, {"name": "\uc815\uc131\uc57d\uad6d", "lat": "35.13581749841503", "lng": "129.05461871193535", "url": "/info/%EC%A0%95%EC%84%B1%EC%95%BD%EA%B5%AD-%EB%B6%80%EC%82%B0%EA%B4%91%EC%97%AD%EC%8B%9C-%EB%8F%99%EA%B5%AC-%EC%A2%8C%EC%B2%9C%EB%8F%99/", "workingTime": ["4\uc9f8\uc8fc09:00~21:00", "09:00~18:00", "09:00~24:00", "09:00~18:00", "09:00~18:00", "09:00~24:00", "09:00~21:00", "09:00~17:00"]}, {"name": "\uc5f4\ub9b0\uc57d\uad6d", "lat": "35.13116248229999", "lng": "129.04980679690135", "url": "/info/%EC%97%B4%EB%A6%B0%EC%95%BD%EA%B5%AD-%EB%B6%80%EC%82%B0%EA%B4%91%EC%97%AD%EC%8B%9C-%EB%8F%99%EA%B5%AC-%EC%A2%8C%EC%B2%9C%EB%8F%99/", "workingTime": ["-", "09:00~18:00", "09:00~18:00", "09:00~18:00", "09:00~18:00", "09:00~18:00", "09:00~13:00", "-"]}, {"name": "\uc0ac\ub791\uc57d\uad6d", "lat": "35.13122140033742", "lng": "129.04996131812848", "url": "/info/%EC%82%AC%EB%9E%91%EC%95%BD%EA%B5%AD-%EB%B6%80%EC%82%B0%EA%B4%91%EC%97%AD%EC%8B%9C-%EB%8F%99%EA%B5%AC-%EC%A2%8C%EC%B2%9C%EB%8F%99/", "workingTime": ["-", "09:00~18:00", "09:00~18:00", "09:00~18:00", "09:00~18:00", "09:00~18:00", "09:00~13:00", "-"]}, {"name": "\ubcf4\uc0dd\uc57d\uad6d", "lat": "35.13123181989675", "lng": "129.0499687042262", "url": "/info/%EB%B3%B4%EC%83%9D%EC%95%BD%EA%B5%AD-%EB%B6%80%EC%82%B0%EA%B4%91%EC%97%AD%EC%8B%9C-%EB%8F%99%EA%B5%AC-%EC%A2%8C%EC%B2%9C%EB%8F%99/", "workingTime": ["-", "08:30~19:00", "08:30~19:00", "08:30~19:00", "08:30~19:00", "08:30~19:00", "08:30~15:00", "-"]}, {"name": "\uba85\uc9c4\uc57d\uad6d", "lat": "35.13233435477458", "lng": "129.05680407813063", "url": "/info/%EB%AA%85%EC%A7%84%EC%95%BD%EA%B5%AD-%EB%B6%80%EC%82%B0%EA%B4%91%EC%97%AD%EC%8B%9C-%EB%8F%99%EA%B5%AC-%EC%A2%8C%EC%B2%9C%EB%8F%99/", "workingTime": ["-", "08:30~19:30", "08:30~19:30", "08:30~19:30", "08:30~19:30", "08:30~19:30", "08:30~16:00", "08:30~13:00"]}]