[{"name": "\uc778\ucd0c\uc57d\uad6d", "lat": "35.2010075553", "lng": "129.0862276129", "url": "/info/%EC%9D%B8%EC%B4%8C%EC%95%BD%EA%B5%AD-%EB%B6%80%EC%82%B0%EA%B4%91%EC%97%AD%EC%8B%9C-%EB%8F%99%EB%9E%98%EA%B5%AC-%EC%88%98%EC%95%88%EB%8F%99/", "workingTime": ["-", "09:00~20:00", "09:00~20:00", "09:00~20:00", "09:00~20:00", "09:00~20:00", "09:00~18:00", "-"]}, {"name": "\uc2e0\uc131\uc57d\uad6d", "lat": "35.201013635930586", "lng": "129.08526835236057", "url": "/info/%EC%8B%A0%EC%84%B1%EC%95%BD%EA%B5%AD-%EB%B6%80%EC%82%B0%EA%B4%91%EC%97%AD%EC%8B%9C-%EB%8F%99%EB%9E%98%EA%B5%AC-%EC%88%98%EC%95%88%EB%8F%99/", "workingTime": ["-", "09:00~19:00", "09:00~19:00", "09:00~19:00", "09:00~19:00", "09:00~19:00", "09:00~14:00", "-"]}, {"name": "\uc218\uc548\uba54\ub514\uceec\uc57d\uad6d", "lat": "", "lng": "", "url": "/info/%EC%88%98%EC%95%88%EB%A9%94%EB%94%94%EC%BB%AC%EC%95%BD%EA%B5%AD-%EB%B6%80%EC%82%B0%EA%B4%91%EC%97%AD%EC%8B%9C-%EB%8F%99%EB%9E%98%EA%B5%AC-%EC%88%98%EC%95%88%EB%8F%99/", "workingTime": ["-", "09:00~18:00", "09:00~18:00", "09:00~18:00", "09:00~18:00", "09:00~18:00", "-", "-"]}, {"name": "\uc120\uc77c\uc57d\uad6d", "lat": "35.2038353073495", "lng": "129.086759108331", "url": "/info/%EC%84%A0%EC%9D%BC%EC%95%BD%EA%B5%AD-%EB%B6%80%EC%82%B0%EA%B4%91%EC%97%AD%EC%8B%9C-%EB%8F%99%EB%9E%98%EA%B5%AC-%EC%88%98%EC%95%88%EB%8F%99/", "workingTime": ["-", "09:00~19:00", "09:00~19:00", "09:00~19:00", "09:00~19:00", "09:00~19:00", "09:00~15:00", "-"]}, {"name": "\uc138\uacc4\ub85c\uc57d\uad6d", "lat": "35.2014127", "lng": "129.0865629513", "url": "/info/%EC%84%B8%EA%B3%84%EB%A1%9C%EC%95%BD%EA%B5%AD-%EB%B6%80%EC%82%B0%EA%B4%91%EC%97%AD%EC%8B%9C-%EB%8F%99%EB%9E%98%EA%B5%AC-%EC%88%98%EC%95%88%EB%8F%99/", "workingTime": ["1,2,3,4,5\uc9f8\uc8fc09:00~21:00", "09:00~22:00", "09:00~22:00", "09:00~22:00", "09:00~22:00", "09:00~22:00", "08:30~22:00", "09:00~21:00"]}, {"name": "\ube44\ud0c0\ubbfc\uc57d\uad6d", "lat": "35.20114612280001", "lng": "129.0838333871015", "url": "/info/%EB%B9%84%ED%83%80%EB%AF%BC%EC%95%BD%EA%B5%AD-%EB%B6%80%EC%82%B0%EA%B4%91%EC%97%AD%EC%8B%9C-%EB%8F%99%EB%9E%98%EA%B5%AC-%EC%88%98%EC%95%88%EB%8F%99/", "workingTime": ["-", "09:00~20:00", "09:00~20:00", "09:00~20:00", "09:00~20:00", "09:00~20:00", "09:00~17:00", "-"]}, {"name": "\uc0c8\ub3d9\ub798\uc57d\uad6d", "lat": "35.202516666666668", "lng": "129.083922222222213", "url": "/info/%EC%83%88%EB%8F%99%EB%9E%98%EC%95%BD%EA%B5%AD-%EB%B6%80%EC%82%B0%EA%B4%91%EC%97%AD%EC%8B%9C-%EB%8F%99%EB%9E%98%EA%B5%AC-%EC%88%98%EC%95%88%EB%8F%99/", "workingTime": ["-", "09:00~19:00", "09:00~19:00", "09:00~19:00", "09:00~19:00", "09:00~19:00", "09:00~15:00", "-"]}, {"name": "\ubc14\ub978\uc57d\uad6d", "lat": "35.20093153138295", "lng": "129.08666481880496", "url": "/info/%EB%B0%94%EB%A5%B8%EC%95%BD%EA%B5%AD-%EB%B6%80%EC%82%B0%EA%B4%91%EC%97%AD%EC%8B%9C-%EB%8F%99%EB%9E%98%EA%B5%AC-%EC%88%98%EC%95%88%EB%8F%99/", "workingTime": ["-", "09:00~18:30", "09:00~18:30", "09:00~18:30", "09:00~18:30", "09:00~18:30", "09:00~14:30", "-"]}, {"name": "\ub4dc\ub9bc\uc57d\uad6d", "lat": "35.2026225269", "lng": "129.0851754215", "url": "/info/%EB%93%9C%EB%A6%BC%EC%95%BD%EA%B5%AD-%EB%B6%80%EC%82%B0%EA%B4%91%EC%97%AD%EC%8B%9C-%EB%8F%99%EB%9E%98%EA%B5%AC-%EC%88%98%EC%95%88%EB%8F%99/", "workingTime": ["-", "09:00~19:00", "09:00~19:00", "09:00~19:00", "09:00~19:00", "09:00~19:00", "09:00~14:00", "-"]}, {"name": "\ub3d9\ub798\uc2dc\uc7a5\uc57d\uad6d", "lat": "35.20139620780267", "lng": "129.0867053690162", "url": "/info/%EB%8F%99%EB%9E%98%EC%8B%9C%EC%9E%A5%EC%95%BD%EA%B5%AD-%EB%B6%80%EC%82%B0%EA%B4%91%EC%97%AD%EC%8B%9C-%EB%8F%99%EB%9E%98%EA%B5%AC-%EC%88%98%EC%95%88%EB%8F%99/", "workingTime": ["1,2,3,4,5\uc9f8\uc8fc09:00~15:00", "08:30~20:00", "08:30~20:00", "08:30~20:00", "08:30~20:00", "08:30~20:00", "08:30~17:00", "-"]}, {"name": "\ub0a8\uc601\uc57d\uad6d", "lat": "35.200975000000000", "lng": "129.086700000000008", "url": "/info/%EB%82%A8%EC%98%81%EC%95%BD%EA%B5%AD-%EB%B6%80%EC%82%B0%EA%B4%91%EC%97%AD%EC%8B%9C-%EB%8F%99%EB%9E%98%EA%B5%AC-%EC%88%98%EC%95%88%EB%8F%99/", "workingTime": ["-", "09:00~21:00", "09:00~21:00", "09:00~21:00", "09:00~21:00", "09:00~21:00", "09:00~21:00", "09:00~21:00"]}, {"name": "\uac15\ub9bc\uc628\ub204\ub9ac\uc57d\uad6d", "lat": "35.20170496697448", "lng": "129.08508169392604", "url": "/info/%EA%B0%95%EB%A6%BC%EC%98%A8%EB%88%84%EB%A6%AC%EC%95%BD%EA%B5%AD-%EB%B6%80%EC%82%B0%EA%B4%91%EC%97%AD%EC%8B%9C-%EB%8F%99%EB%9E%98%EA%B5%AC-%EC%88%98%EC%95%88%EB%8F%99/", "workingTime": ["-", "09:00~18:00", "09:00~18:00", "09:00~18:00", "09:00~18:00", "09:00~18:00", "09:00~17:00", "09:00~18:00"]}]