[{"name": "\uc77c\uc2e0\uc57d\uad6d", "lat": "35.3196938763", "lng": "129.1774548998", "url": "/info/%EC%9D%BC%EC%8B%A0%EC%95%BD%EA%B5%AD-%EB%B6%80%EC%82%B0%EA%B4%91%EC%97%AD%EC%8B%9C-%EA%B8%B0%EC%9E%A5%EA%B5%B0-%EC%A0%95%EA%B4%80%EC%9D%8D/", "workingTime": ["-", "09:00~19:00", "09:00~19:00", "09:00~19:00", "09:00~19:00", "09:00~19:00", "09:00~13:30", "-"]}, {"name": "\ud14c\ub77c\uc2a4\uc57d\uad6d", "lat": "35.32074396546558", "lng": "129.17904381750057", "url": "/info/%ED%85%8C%EB%9D%BC%EC%8A%A4%EC%95%BD%EA%B5%AD-%EB%B6%80%EC%82%B0%EA%B4%91%EC%97%AD%EC%8B%9C-%EA%B8%B0%EC%9E%A5%EA%B5%B0-%EC%A0%95%EA%B4%80%EC%9D%8D/", "workingTime": ["-", "09:00~18:30", "09:00~18:30", "09:00~18:30", "09:00~19:00", "09:00~18:30", "09:00~13:00", "-"]}, {"name": "\uc815\uad00\uc628\ub204\ub9ac\uc57d\uad6d", "lat": "35.3230509891", "lng": "129.1763794696", "url": "/info/%EC%A0%95%EA%B4%80%EC%98%A8%EB%88%84%EB%A6%AC%EC%95%BD%EA%B5%AD-%EB%B6%80%EC%82%B0%EA%B4%91%EC%97%AD%EC%8B%9C-%EA%B8%B0%EC%9E%A5%EA%B5%B0-%EC%A0%95%EA%B4%80%EC%9D%8D/", "workingTime": ["1,3,5\uc9f8\uc8fc10:00~21:50", "10:00~21:50", "10:00~21:50", "10:00~21:50", "10:00~21:50", "10:00~21:50", "10:00~21:50", "10:00~21:50"]}, {"name": "\uc815\ub2e4\uc6b4\uc57d\uad6d", "lat": "35.3209574887", "lng": "129.1897105756", "url": "/info/%EC%A0%95%EB%8B%A4%EC%9A%B4%EC%95%BD%EA%B5%AD-%EB%B6%80%EC%82%B0%EA%B4%91%EC%97%AD%EC%8B%9C-%EA%B8%B0%EC%9E%A5%EA%B5%B0-%EC%A0%95%EA%B4%80%EC%9D%8D/", "workingTime": ["-", "09:00~19:00", "09:00~19:00", "09:00~19:00", "09:00~19:00", "09:00~19:00", "09:00~13:00", "-"]}, {"name": "\ub9c8\ubc95\uc0ac\uc57d\uad6d", "lat": "35.32153055789144", "lng": "129.17674331837196", "url": "/info/%EB%A7%88%EB%B2%95%EC%82%AC%EC%95%BD%EA%B5%AD-%EB%B6%80%EC%82%B0%EA%B4%91%EC%97%AD%EC%8B%9C-%EA%B8%B0%EC%9E%A5%EA%B5%B0-%EC%A0%95%EA%B4%80%EC%9D%8D/", "workingTime": ["-", "09:00~20:00", "09:00~20:00", "09:00~20:00", "09:00~20:00", "09:00~20:00", "09:00~18:00", "-"]}, {"name": "\ud2bc\ud2bc\uc57d\uad6d", "lat": "35.32010077243284", "lng": "129.1806762545774", "url": "/info/%ED%8A%BC%ED%8A%BC%EC%95%BD%EA%B5%AD-%EB%B6%80%EC%82%B0%EA%B4%91%EC%97%AD%EC%8B%9C-%EA%B8%B0%EC%9E%A5%EA%B5%B0-%EC%A0%95%EA%B4%80%EC%9D%8D/", "workingTime": ["1,2,3,4,5\uc9f8\uc8fc09:30~21:30", "09:30~21:30", "09:30~21:30", "09:30~21:30", "09:30~21:30", "09:30~21:30", "09:30~21:30", "09:30~21:30"]}, {"name": "\uc815\uad00\ucf54\ub07c\ub9ac\uc57d\uad6d", "lat": "35.334147949250884", "lng": "129.16601477634842", "url": "/info/%EC%A0%95%EA%B4%80%EC%BD%94%EB%81%BC%EB%A6%AC%EC%95%BD%EA%B5%AD-%EB%B6%80%EC%82%B0%EA%B4%91%EC%97%AD%EC%8B%9C-%EA%B8%B0%EC%9E%A5%EA%B5%B0-%EC%A0%95%EA%B4%80%EC%9D%8D/", "workingTime": ["-", "08:30~19:10", "08:30~19:10", "08:30~19:10", "08:30~19:10", "08:30~19:10", "08:50~14:10", "-"]}, {"name": "\uc81c\uc77c\uc57d\uad6d", "lat": "35.32133804642122", "lng": "129.175075243896", "url": "/info/%EC%A0%9C%EC%9D%BC%EC%95%BD%EA%B5%AD-%EB%B6%80%EC%82%B0%EA%B4%91%EC%97%AD%EC%8B%9C-%EA%B8%B0%EC%9E%A5%EA%B5%B0-%EC%A0%95%EA%B4%80%EC%9D%8D/", "workingTime": ["-", "08:40~19:00", "08:40~19:00", "08:40~19:00", "08:40~19:00", "08:40~19:00", "09:00~15:00", "-"]}, {"name": "\uc778\ud654\uc57d\uad6d", "lat": "35.32246146722547", "lng": "129.18394084393898", "url": "/info/%EC%9D%B8%ED%99%94%EC%95%BD%EA%B5%AD-%EB%B6%80%EC%82%B0%EA%B4%91%EC%97%AD%EC%8B%9C-%EA%B8%B0%EC%9E%A5%EA%B5%B0-%EC%A0%95%EA%B4%80%EC%9D%8D/", "workingTime": ["-", "09:00~19:00", "09:00~19:00", "09:00~19:00", "09:00~19:00", "09:00~19:00", "09:00~18:00", "-"]}, {"name": "\uc77c\uc2e0\ub3c4\ub2f4\uc57d\uad6d", "lat": "35.3196975583", "lng": "129.17745060070402", "url": "/info/%EC%9D%BC%EC%8B%A0%EB%8F%84%EB%8B%B4%EC%95%BD%EA%B5%AD-%EB%B6%80%EC%82%B0%EA%B4%91%EC%97%AD%EC%8B%9C-%EA%B8%B0%EC%9E%A5%EA%B5%B0-%EC%A0%95%EA%B4%80%EC%9D%8D/", "workingTime": ["-", "09:00~20:00", "09:00~20:00", "09:00~20:00", "09:00~20:00", "09:00~20:00", "09:00~15:00", "-"]}, {"name": "\uc6b0\ub9ac\uc57d\uad6d", "lat": "35.322013037", "lng": "129.1753708944", "url": "/info/%EC%9A%B0%EB%A6%AC%EC%95%BD%EA%B5%AD-%EB%B6%80%EC%82%B0%EA%B4%91%EC%97%AD%EC%8B%9C-%EA%B8%B0%EC%9E%A5%EA%B5%B0-%EC%A0%95%EA%B4%80%EC%9D%8D/", "workingTime": ["-", "09:00~19:00", "09:00~19:00", "09:00~19:00", "09:00~19:00", "09:00~19:00", "09:00~14:00", "-"]}, {"name": "\uc6b0\ub9ac\uc628\ub204\ub9ac\uc57d\uad6d", "lat": "35.3217470902073", "lng": "129.17952863217084", "url": "/info/%EC%9A%B0%EB%A6%AC%EC%98%A8%EB%88%84%EB%A6%AC%EC%95%BD%EA%B5%AD-%EB%B6%80%EC%82%B0%EA%B4%91%EC%97%AD%EC%8B%9C-%EA%B8%B0%EC%9E%A5%EA%B5%B0-%EC%A0%95%EA%B4%80%EC%9D%8D/", "workingTime": ["1,2,3,4,5\uc9f8\uc8fc09:00~18:00", "09:00~23:00", "09:00~23:00", "09:00~23:00", "09:00~23:00", "09:00~23:00", "09:00~18:00", "09:00~18:00"]}, {"name": "\uc2e0\ub3c4\uc2dc\uc57d\uad6d", "lat": "35.326107434833", "lng": "129.17097687024122", "url": "/info/%EC%8B%A0%EB%8F%84%EC%8B%9C%EC%95%BD%EA%B5%AD-%EB%B6%80%EC%82%B0%EA%B4%91%EC%97%AD%EC%8B%9C-%EA%B8%B0%EC%9E%A5%EA%B5%B0-%EC%A0%95%EA%B4%80%EC%9D%8D/", "workingTime": ["-", "09:00~20:00", "09:00~20:00", "09:00~19:00", "09:00~20:00", "09:00~20:00", "09:00~13:30", "-"]}, {"name": "\uc5d4\uc824\ud31c\uc57d\uad6d", "lat": "35.3204402872", "lng": "129.1796386782", "url": "/info/%EC%97%94%EC%A0%A4%ED%8C%9C%EC%95%BD%EA%B5%AD-%EB%B6%80%EC%82%B0%EA%B4%91%EC%97%AD%EC%8B%9C-%EA%B8%B0%EC%9E%A5%EA%B5%B0-%EC%A0%95%EA%B4%80%EC%9D%8D/", "workingTime": ["1,2,3,4,5\uc9f8\uc8fc09:30~13:00", "09:30~20:00", "09:30~18:00", "09:30~20:00", "09:30~18:00", "09:30~20:00", "09:30~15:00", "09:30~13:00"]}, {"name": "\uc2a4\ub9c8\ud2b8\uc57d\uad6d", "lat": "35.320692523654316", "lng": "129.1746406412063", "url": "/info/%EC%8A%A4%EB%A7%88%ED%8A%B8%EC%95%BD%EA%B5%AD-%EB%B6%80%EC%82%B0%EA%B4%91%EC%97%AD%EC%8B%9C-%EA%B8%B0%EC%9E%A5%EA%B5%B0-%EC%A0%95%EA%B4%80%EC%9D%8D/", "workingTime": ["-", "09:30~18:30", "09:30~18:30", "09:30~18:30", "09:30~18:30", "09:30~18:30", "09:30~15:00", "-"]}, {"name": "\ub4dc\ub9bc\uc57d\uad6d", "lat": "35.325886226482304", "lng": "129.17064988595598", "url": "/info/%EB%93%9C%EB%A6%BC%EC%95%BD%EA%B5%AD-%EB%B6%80%EC%82%B0%EA%B4%91%EC%97%AD%EC%8B%9C-%EA%B8%B0%EC%9E%A5%EA%B5%B0-%EC%A0%95%EA%B4%80%EC%9D%8D/", "workingTime": ["-", "09:00~20:00", "09:00~20:00", "09:00~20:00", "09:00~20:00", "09:00~20:00", "09:00~17:00", "-"]}, {"name": "\ub204\ub9ac\uc57d\uad6d", "lat": "35.334493914407105", "lng": "129.16581727457685", "url": "/info/%EB%88%84%EB%A6%AC%EC%95%BD%EA%B5%AD-%EB%B6%80%EC%82%B0%EA%B4%91%EC%97%AD%EC%8B%9C-%EA%B8%B0%EC%9E%A5%EA%B5%B0-%EC%A0%95%EA%B4%80%EC%9D%8D/", "workingTime": ["-", "09:00~19:00", "09:00~19:00", "09:00~19:00", "09:00~19:00", "09:00~19:00", "09:00~15:00", "-"]}, {"name": "\uad11\uc7a5\uc57d\uad6d", "lat": "35.321914539033415", "lng": "129.17563653093862", "url": "/info/%EA%B4%91%EC%9E%A5%EC%95%BD%EA%B5%AD-%EB%B6%80%EC%82%B0%EA%B4%91%EC%97%AD%EC%8B%9C-%EA%B8%B0%EC%9E%A5%EA%B5%B0-%EC%A0%95%EA%B4%80%EC%9D%8D/", "workingTime": ["-", "09:00~20:00", "09:00~21:00", "09:00~21:00", "09:00~21:00", "09:00~21:00", "09:00~16:00", "-"]}]