[{"name": "\ub0a8\ucc9c\uc81c\uc77c\uc57d\uad6d", "lat": "35.1351377822791", "lng": "129.095232981287", "url": "/info/%EB%82%A8%EC%B2%9C%EC%A0%9C%EC%9D%BC%EC%95%BD%EA%B5%AD-%EB%B6%80%EC%82%B0%EA%B4%91%EC%97%AD%EC%8B%9C-%EB%82%A8%EA%B5%AC-%EB%8C%80%EC%97%B0%EB%8F%99/", "workingTime": ["-", "09:00~19:30", "09:00~19:30", "09:00~21:00", "09:00~19:30", "09:00~19:30", "09:00~14:00", "-"]}, {"name": "\ubbf8\uc18c\uc57d\uad6d", "lat": "35.1394226463934", "lng": "129.105349849143", "url": "/info/%EB%AF%B8%EC%86%8C%EC%95%BD%EA%B5%AD-%EB%B6%80%EC%82%B0%EA%B4%91%EC%97%AD%EC%8B%9C-%EB%82%A8%EA%B5%AC-%EB%8C%80%EC%97%B0%EB%8F%99/", "workingTime": ["-", "09:00~19:30", "09:00~19:30", "09:00~19:30", "09:00~19:30", "09:00~19:30", "09:00~15:30", "-"]}, {"name": "\uc2f1\uc2f1\uc57d\uad6d", "lat": "35.13525642739706", "lng": "129.0906234064244", "url": "/info/%EC%8B%B1%EC%8B%B1%EC%95%BD%EA%B5%AD-%EB%B6%80%EC%82%B0%EA%B4%91%EC%97%AD%EC%8B%9C-%EB%82%A8%EA%B5%AC-%EB%8C%80%EC%97%B0%EB%8F%99/", "workingTime": ["-", "09:00~19:00", "09:00~19:00", "09:00~19:00", "09:00~19:00", "09:00~19:00", "09:00~13:00", "-"]}, {"name": "\uacf0\uc57d\uad6d", "lat": "35.1243330068785", "lng": "129.088529817192", "url": "/info/%EA%B3%B0%EC%95%BD%EA%B5%AD-%EB%B6%80%EC%82%B0%EA%B4%91%EC%97%AD%EC%8B%9C-%EB%82%A8%EA%B5%AC-%EB%8C%80%EC%97%B0%EB%8F%99/", "workingTime": ["1,2,3,4,5\uc9f8\uc8fc09:00~15:00", "09:00~20:00", "09:00~20:00", "09:00~20:00", "09:00~20:00", "09:00~20:00", "09:00~15:00", "-"]}, {"name": "\uc6b0\ub9ac\uc57d\uad6d", "lat": "35.1351583041068", "lng": "129.097114405568", "url": "/info/%EC%9A%B0%EB%A6%AC%EC%95%BD%EA%B5%AD-%EB%B6%80%EC%82%B0%EA%B4%91%EC%97%AD%EC%8B%9C-%EB%82%A8%EA%B5%AC-%EB%8C%80%EC%97%B0%EB%8F%99/", "workingTime": ["-", "09:30~19:00", "09:30~19:00", "09:30~19:00", "09:30~19:00", "09:30~19:00", "09:30~17:00", "-"]}, {"name": "\uc0ac\uac70\ub9ac\uc57d\uad6d", "lat": "35.1353530303017", "lng": "129.092012900656", "url": "/info/%EC%82%AC%EA%B1%B0%EB%A6%AC%EC%95%BD%EA%B5%AD-%EB%B6%80%EC%82%B0%EA%B4%91%EC%97%AD%EC%8B%9C-%EB%82%A8%EA%B5%AC-%EB%8C%80%EC%97%B0%EB%8F%99/", "workingTime": ["-", "09:00~19:00", "09:00~19:00", "09:00~19:00", "09:00~19:00", "09:00~19:00", "09:00~14:00", "-"]}, {"name": "\ub2e4\uc62c\uc57d\uad6d", "lat": "35.1347736439498", "lng": "129.090114439646", "url": "/info/%EB%8B%A4%EC%98%AC%EC%95%BD%EA%B5%AD-%EB%B6%80%EC%82%B0%EA%B4%91%EC%97%AD%EC%8B%9C-%EB%82%A8%EA%B5%AC-%EB%8C%80%EC%97%B0%EB%8F%99/", "workingTime": ["-", "09:00~18:30", "09:00~18:30", "09:00~18:30", "09:00~18:30", "09:00~18:30", "09:00~13:00", "-"]}, {"name": "\ud76c\ub9dd\uc57d\uad6d", "lat": "35.1502934844769", "lng": "129.08940399675885", "url": "/info/%ED%9D%AC%EB%A7%9D%EC%95%BD%EA%B5%AD-%EB%B6%80%EC%82%B0%EA%B4%91%EC%97%AD%EC%8B%9C-%EB%82%A8%EA%B5%AC-%EB%8C%80%EC%97%B0%EB%8F%99/", "workingTime": ["-", "09:00~20:00", "09:00~20:00", "09:00~20:00", "09:00~20:00", "09:00~20:00", "09:00~17:00", "-"]}, {"name": "\ud558\uc774\ud0c0\uc6b4\uc57d\uad6d", "lat": "35.13319754675806", "lng": "129.0885625350731", "url": "/info/%ED%95%98%EC%9D%B4%ED%83%80%EC%9A%B4%EC%95%BD%EA%B5%AD-%EB%B6%80%EC%82%B0%EA%B4%91%EC%97%AD%EC%8B%9C-%EB%82%A8%EA%B5%AC-%EB%8C%80%EC%97%B0%EB%8F%99/", "workingTime": ["2,4,5\uc9f8\uc8fc09:00~18:00", "08:00~20:30", "08:00~20:30", "08:00~20:30", "08:00~20:30", "08:00~20:30", "08:00~20:00", "09:00~18:00"]}, {"name": "\ud55c\uc0ac\ub791\uc57d\uad6d", "lat": "35.124394444444441", "lng": "129.087863888888876", "url": "/info/%ED%95%9C%EC%82%AC%EB%9E%91%EC%95%BD%EA%B5%AD-%EB%B6%80%EC%82%B0%EA%B4%91%EC%97%AD%EC%8B%9C-%EB%82%A8%EA%B5%AC-%EB%8C%80%EC%97%B0%EB%8F%99/", "workingTime": ["-", "09:00~18:30", "09:00~18:30", "09:00~18:30", "09:00~18:30", "09:00~18:30", "09:00~13:00", "09:00~13:00"]}, {"name": "\ud3ec\ubbf8\uc57d\uad6d", "lat": "35.1359235770862", "lng": "129.10094150259", "url": "/info/%ED%8F%AC%EB%AF%B8%EC%95%BD%EA%B5%AD-%EB%B6%80%EC%82%B0%EA%B4%91%EC%97%AD%EC%8B%9C-%EB%82%A8%EA%B5%AC-%EB%8C%80%EC%97%B0%EB%8F%99/", "workingTime": ["1,2,3,4,5\uc9f8\uc8fc22:00~25:00", "22:00~25:00", "22:00~25:00", "22:00~25:00", "22:00~25:00", "22:00~25:00", "22:00~25:00", "22:00~25:00"]}, {"name": "\ud50c\ub7ec\uc2a4\uc628\ub204\ub9ac\uc57d\uad6d", "lat": "35.13845567852968", "lng": "129.102954694863", "url": "/info/%ED%94%8C%EB%9F%AC%EC%8A%A4%EC%98%A8%EB%88%84%EB%A6%AC%EC%95%BD%EA%B5%AD-%EB%B6%80%EC%82%B0%EA%B4%91%EC%97%AD%EC%8B%9C-%EB%82%A8%EA%B5%AC-%EB%8C%80%EC%97%B0%EB%8F%99/", "workingTime": ["-", "09:00~19:00", "09:00~19:00", "09:00~19:00", "09:00~19:00", "09:00~19:00", "09:00~15:00", "09:00~13:00"]}, {"name": "\uc77c\uce35\uc57d\uad6d", "lat": "35.13822515864417", "lng": "129.10107503785323", "url": "/info/%EC%9D%BC%EC%B8%B5%EC%95%BD%EA%B5%AD-%EB%B6%80%EC%82%B0%EA%B4%91%EC%97%AD%EC%8B%9C-%EB%82%A8%EA%B5%AC-%EB%8C%80%EC%97%B0%EB%8F%99/", "workingTime": ["-", "09:00~19:00", "09:00~19:00", "09:00~19:00", "09:00~19:00", "09:00~19:00", "09:00~15:00", "-"]}, {"name": "\uc815\uc131\uc57d\uad6d", "lat": "35.134894444444455", "lng": "129.09280555555708", "url": "/info/%EC%A0%95%EC%84%B1%EC%95%BD%EA%B5%AD-%EB%B6%80%EC%82%B0%EA%B4%91%EC%97%AD%EC%8B%9C-%EB%82%A8%EA%B5%AC-%EB%8C%80%EC%97%B0%EB%8F%99/", "workingTime": ["-", "09:00~18:30", "09:00~18:30", "09:00~18:30", "09:00~18:30", "09:00~18:30", "09:00~13:30", "-"]}, {"name": "\uc81c\uc77c\uc57d\uad6d", "lat": "35.134779608756546", "lng": "129.08900222357005", "url": "/info/%EC%A0%9C%EC%9D%BC%EC%95%BD%EA%B5%AD-%EB%B6%80%EC%82%B0%EA%B4%91%EC%97%AD%EC%8B%9C-%EB%82%A8%EA%B5%AC-%EB%8C%80%EC%97%B0%EB%8F%99/", "workingTime": ["-", "09:00~18:30", "09:00~18:30", "09:00~18:30", "09:00~18:30", "09:00~18:30", "09:00~13:00", "-"]}, {"name": "\uc870\uc740\uc57d\uad6d", "lat": "35.1350737749", "lng": "129.08715881360152", "url": "/info/%EC%A1%B0%EC%9D%80%EC%95%BD%EA%B5%AD-%EB%B6%80%EC%82%B0%EA%B4%91%EC%97%AD%EC%8B%9C-%EB%82%A8%EA%B5%AC-%EB%8C%80%EC%97%B0%EB%8F%99/", "workingTime": ["-", "09:00~19:00", "09:00~19:00", "09:00~19:00", "09:00~19:00", "09:00~19:00", "09:00~13:00", "-"]}, {"name": "\uc6f0\ube59\uc57d\uad6d", "lat": "35.13517775048436", "lng": "129.08891557279315", "url": "/info/%EC%9B%B0%EB%B9%99%EC%95%BD%EA%B5%AD-%EB%B6%80%EC%82%B0%EA%B4%91%EC%97%AD%EC%8B%9C-%EB%82%A8%EA%B5%AC-%EB%8C%80%EC%97%B0%EB%8F%99/", "workingTime": ["-", "09:00~18:30", "09:00~18:30", "09:00~18:30", "09:00~18:30", "09:00~18:30", "09:00~13:00", "-"]}, {"name": "\uc720\uba85\uc57d\uad6d", "lat": "35.13550321645633", "lng": "129.08503721671553", "url": "/info/%EC%9C%A0%EB%AA%85%EC%95%BD%EA%B5%AD-%EB%B6%80%EC%82%B0%EA%B4%91%EC%97%AD%EC%8B%9C-%EB%82%A8%EA%B5%AC-%EB%8C%80%EC%97%B0%EB%8F%99/", "workingTime": ["-", "09:00~18:00", "09:00~18:00", "09:00~18:00", "09:00~18:00", "09:00~18:00", "09:00~13:00", "-"]}, {"name": "\uc720\uc9c4\uc57d\uad6d", "lat": "35.1385594093", "lng": "129.0808762175", "url": "/info/%EC%9C%A0%EC%A7%84%EC%95%BD%EA%B5%AD-%EB%B6%80%EC%82%B0%EA%B4%91%EC%97%AD%EC%8B%9C-%EB%82%A8%EA%B5%AC-%EB%8C%80%EC%97%B0%EB%8F%99/", "workingTime": ["-", "09:00~18:00", "09:00~18:00", "09:00~18:00", "09:00~18:00", "09:00~18:00", "09:00~13:00", "-"]}, {"name": "\uc628\ub204\ub9ac\ub300\uad11\ub2f9\uc57d\uad6d", "lat": "35.12829705072009", "lng": "129.09092149610112", "url": "/info/%EC%98%A8%EB%88%84%EB%A6%AC%EB%8C%80%EA%B4%91%EB%8B%B9%EC%95%BD%EA%B5%AD-%EB%B6%80%EC%82%B0%EA%B4%91%EC%97%AD%EC%8B%9C-%EB%82%A8%EA%B5%AC-%EB%8C%80%EC%97%B0%EB%8F%99/", "workingTime": ["-", "09:00~19:00", "09:00~19:00", "09:00~19:00", "09:00~19:00", "09:00~19:00", "09:00~13:00", "-"]}, {"name": "\uc628\ub204\ub9ac\ud55c\ube5b\uc57d\uad6d", "lat": "35.13510496438293", "lng": "129.08873847905446", "url": "/info/%EC%98%A8%EB%88%84%EB%A6%AC%ED%95%9C%EB%B9%9B%EC%95%BD%EA%B5%AD-%EB%B6%80%EC%82%B0%EA%B4%91%EC%97%AD%EC%8B%9C-%EB%82%A8%EA%B5%AC-%EB%8C%80%EC%97%B0%EB%8F%99/", "workingTime": ["-", "09:00~20:00", "09:00~20:00", "09:00~20:00", "09:00~20:00", "09:00~20:00", "09:00~20:00", "10:00~20:00"]}, {"name": "\uc54c\ucc2c\uc57d\uad6d", "lat": "35.13497569350533", "lng": "129.0933074031583", "url": "/info/%EC%95%8C%EC%B0%AC%EC%95%BD%EA%B5%AD-%EB%B6%80%EC%82%B0%EA%B4%91%EC%97%AD%EC%8B%9C-%EB%82%A8%EA%B5%AC-%EB%8C%80%EC%97%B0%EB%8F%99/", "workingTime": ["-", "09:00~20:00", "09:00~20:00", "09:00~20:00", "09:00~20:00", "09:00~20:00", "09:00~16:00", "09:00~18:00"]}, {"name": "\uc218\uc57d\uad6d", "lat": "35.134766315268465", "lng": "129.0924954932633", "url": "/info/%EC%88%98%EC%95%BD%EA%B5%AD-%EB%B6%80%EC%82%B0%EA%B4%91%EC%97%AD%EC%8B%9C-%EB%82%A8%EA%B5%AC-%EB%8C%80%EC%97%B0%EB%8F%99/", "workingTime": ["-", "09:00~18:00", "09:00~18:00", "09:00~18:00", "09:00~18:00", "09:00~18:00", "09:00~13:00", "-"]}, {"name": "\uc0c8\ube5b\uc57d\uad6d", "lat": "35.1349505764912", "lng": "129.084432611816", "url": "/info/%EC%83%88%EB%B9%9B%EC%95%BD%EA%B5%AD-%EB%B6%80%EC%82%B0%EA%B4%91%EC%97%AD%EC%8B%9C-%EB%82%A8%EA%B5%AC-%EB%8C%80%EC%97%B0%EB%8F%99/", "workingTime": ["-", "09:00~19:00", "09:00~19:00", "09:00~19:00", "09:00~19:00", "09:00~19:00", "09:00~15:00", "-"]}, {"name": "\uc0ac\ub791\uc57d\uad6d", "lat": "35.13496505186881", "lng": "129.0914770758452", "url": "/info/%EC%82%AC%EB%9E%91%EC%95%BD%EA%B5%AD-%EB%B6%80%EC%82%B0%EA%B4%91%EC%97%AD%EC%8B%9C-%EB%82%A8%EA%B5%AC-%EB%8C%80%EC%97%B0%EB%8F%99/", "workingTime": ["1,2,3,4,5\uc9f8\uc8fc09:00~13:00", "09:00~20:00", "09:00~20:00", "09:00~20:00", "09:00~20:00", "09:00~20:00", "09:00~13:00", "09:00~15:00"]}, {"name": "\uc0c8\uacbd\ub300\uc57d\uad6d", "lat": "35.1370342872916", "lng": "129.09865732520376", "url": "/info/%EC%83%88%EA%B2%BD%EB%8C%80%EC%95%BD%EA%B5%AD-%EB%B6%80%EC%82%B0%EA%B4%91%EC%97%AD%EC%8B%9C-%EB%82%A8%EA%B5%AC-%EB%8C%80%EC%97%B0%EB%8F%99/", "workingTime": ["-", "09:00~19:30", "09:00~19:30", "09:00~19:30", "09:00~19:30", "09:00~19:30", "09:00~16:00", "09:00~13:30"]}, {"name": "\uc0c8\ub860\uc57d\uad6d", "lat": "35.13996363712607", "lng": "129.10350691393975", "url": "/info/%EC%83%88%EB%A1%A0%EC%95%BD%EA%B5%AD-%EB%B6%80%EC%82%B0%EA%B4%91%EC%97%AD%EC%8B%9C-%EB%82%A8%EA%B5%AC-%EB%8C%80%EC%97%B0%EB%8F%99/", "workingTime": ["-", "09:00~19:00", "09:00~19:00", "09:00~19:00", "09:00~19:00", "09:00~21:00", "09:00~15:00", "-"]}, {"name": "\ubc31\uc138\uc57d\uad6d", "lat": "35.13552549596339", "lng": "129.08520783420172", "url": "/info/%EB%B0%B1%EC%84%B8%EC%95%BD%EA%B5%AD-%EB%B6%80%EC%82%B0%EA%B4%91%EC%97%AD%EC%8B%9C-%EB%82%A8%EA%B5%AC-%EB%8C%80%EC%97%B0%EB%8F%99/", "workingTime": ["-", "09:00~19:00", "09:00~19:00", "09:00~19:00", "09:00~19:00", "09:00~19:00", "09:00~15:00", "-"]}, {"name": "\ubd04\ubd04\uc57d\uad6d", "lat": "35.1348741962723", "lng": "129.083267417486", "url": "/info/%EB%B4%84%EB%B4%84%EC%95%BD%EA%B5%AD-%EB%B6%80%EC%82%B0%EA%B4%91%EC%97%AD%EC%8B%9C-%EB%82%A8%EA%B5%AC-%EB%8C%80%EC%97%B0%EB%8F%99/", "workingTime": ["-", "09:00~19:00", "09:00~19:00", "09:00~19:00", "09:00~19:00", "09:00~19:00", "09:00~14:00", "-"]}, {"name": "\ubabb\uace8\uc57d\uad6d", "lat": "35.1361145039001", "lng": "129.092028877694", "url": "/info/%EB%AA%BB%EA%B3%A8%EC%95%BD%EA%B5%AD-%EB%B6%80%EC%82%B0%EA%B4%91%EC%97%AD%EC%8B%9C-%EB%82%A8%EA%B5%AC-%EB%8C%80%EC%97%B0%EB%8F%99/", "workingTime": ["-", "09:00~19:00", "09:00~19:00", "09:00~19:00", "09:00~19:00", "09:00~19:00", "09:00~13:00", "-"]}, {"name": "\ubb38\ud654\uc57d\uad6d", "lat": "35.128524471831156", "lng": "129.0915759936282", "url": "/info/%EB%AC%B8%ED%99%94%EC%95%BD%EA%B5%AD-%EB%B6%80%EC%82%B0%EA%B4%91%EC%97%AD%EC%8B%9C-%EB%82%A8%EA%B5%AC-%EB%8C%80%EC%97%B0%EB%8F%99/", "workingTime": ["1,2,3,4,5\uc9f8\uc8fc14:00~20:30", "09:00~21:00", "09:00~21:00", "09:00~21:00", "09:00~21:00", "09:00~21:00", "09:00~20:30", "-"]}, {"name": "\uba85\uc9c4\uc57d\uad6d", "lat": "35.13842420542016", "lng": "129.1039368255305", "url": "/info/%EB%AA%85%EC%A7%84%EC%95%BD%EA%B5%AD-%EB%B6%80%EC%82%B0%EA%B4%91%EC%97%AD%EC%8B%9C-%EB%82%A8%EA%B5%AC-%EB%8C%80%EC%97%B0%EB%8F%99/", "workingTime": ["-", "09:00~21:30", "09:00~21:30", "09:00~21:30", "09:00~21:30", "09:00~21:30", "09:00~18:00", "-"]}, {"name": "\ub2e4\uc628\uc57d\uad6d", "lat": "35.1345803160536", "lng": "129.086561522525", "url": "/info/%EB%8B%A4%EC%98%A8%EC%95%BD%EA%B5%AD-%EB%B6%80%EC%82%B0%EA%B4%91%EC%97%AD%EC%8B%9C-%EB%82%A8%EA%B5%AC-%EB%8C%80%EC%97%B0%EB%8F%99/", "workingTime": ["-", "09:00~18:30", "09:00~18:30", "09:00~18:30", "09:00~18:30", "09:00~18:30", "09:00~13:00", "-"]}, {"name": "\ub300\uc5f0\uc2dc\uc7a5\uc57d\uad6d", "lat": "35.1347034051612", "lng": "129.097108879031", "url": "/info/%EB%8C%80%EC%97%B0%EC%8B%9C%EC%9E%A5%EC%95%BD%EA%B5%AD-%EB%B6%80%EC%82%B0%EA%B4%91%EC%97%AD%EC%8B%9C-%EB%82%A8%EA%B5%AC-%EB%8C%80%EC%97%B0%EB%8F%99/", "workingTime": ["-", "09:30~19:30", "09:30~19:30", "09:30~19:30", "09:30~19:30", "09:30~19:30", "09:30~14:30", "-"]}, {"name": "\ub300\ud559\uc628\ub204\ub9ac\uc57d\uad6d", "lat": "35.1370342873", "lng": "129.0986573252", "url": "/info/%EB%8C%80%ED%95%99%EC%98%A8%EB%88%84%EB%A6%AC%EC%95%BD%EA%B5%AD-%EB%B6%80%EC%82%B0%EA%B4%91%EC%97%AD%EC%8B%9C-%EB%82%A8%EA%B5%AC-%EB%8C%80%EC%97%B0%EB%8F%99/", "workingTime": ["-", "09:00~20:00", "09:00~19:00", "09:00~19:00", "09:00~19:00", "09:00~20:00", "09:00~15:00", "-"]}, {"name": "\ub098\ub77c\uc57d\uad6d", "lat": "35.13510424350227", "lng": "129.0940039862629", "url": "/info/%EB%82%98%EB%9D%BC%EC%95%BD%EA%B5%AD-%EB%B6%80%EC%82%B0%EA%B4%91%EC%97%AD%EC%8B%9C-%EB%82%A8%EA%B5%AC-%EB%8C%80%EC%97%B0%EB%8F%99/", "workingTime": ["-", "09:00~18:30", "09:00~18:30", "09:00~18:30", "09:00~18:30", "09:00~18:30", "09:00~14:00", "-"]}, {"name": "\uace0\uc740\uc57d\uad6d", "lat": "35.1244651198", "lng": "129.0886342108", "url": "/info/%EA%B3%A0%EC%9D%80%EC%95%BD%EA%B5%AD-%EB%B6%80%EC%82%B0%EA%B4%91%EC%97%AD%EC%8B%9C-%EB%82%A8%EA%B5%AC-%EB%8C%80%EC%97%B0%EB%8F%99/", "workingTime": ["-", "09:00~19:30", "09:00~19:30", "09:00~19:30", "09:00~19:30", "09:00~19:30", "09:00~15:00", "09:00~13:00"]}]