[{"name": "\uc6b0\ub9ac\ub4e4\uc57d\uad6d", "lat": "35.19517235802299", "lng": "129.08095382238682", "url": "/info/%EC%9A%B0%EB%A6%AC%EB%93%A4%EC%95%BD%EA%B5%AD-%EB%B6%80%EC%82%B0%EA%B4%91%EC%97%AD%EC%8B%9C-%EC%97%B0%EC%A0%9C%EA%B5%AC-%EA%B1%B0%EC%A0%9C%EB%8F%99/", "workingTime": ["-", "09:00~18:30", "09:00~18:30", "09:00~13:30", "09:00~18:30", "09:00~18:30", "09:00~13:00", "-"]}, {"name": "\ucd08\ub85d\uc57d\uad6d", "lat": "35.1915445009671", "lng": "129.066898727741", "url": "/info/%EC%B4%88%EB%A1%9D%EC%95%BD%EA%B5%AD-%EB%B6%80%EC%82%B0%EA%B4%91%EC%97%AD%EC%8B%9C-%EC%97%B0%EC%A0%9C%EA%B5%AC-%EA%B1%B0%EC%A0%9C%EB%8F%99/", "workingTime": ["-", "09:00~18:30", "09:00~20:00", "09:00~18:30", "09:00~20:00", "09:00~18:30", "09:00~14:00", "-"]}, {"name": "\ud648\ud50c\ub7ec\uc2a4\uc0bc\uc131\uc628\ub204\ub9ac\uc57d\uad6d", "lat": "35.19125436052001", "lng": "129.06283583683293", "url": "/info/%ED%99%88%ED%94%8C%EB%9F%AC%EC%8A%A4%EC%82%BC%EC%84%B1%EC%98%A8%EB%88%84%EB%A6%AC%EC%95%BD%EA%B5%AD-%EB%B6%80%EC%82%B0%EA%B4%91%EC%97%AD%EC%8B%9C-%EC%97%B0%EC%A0%9C%EA%B5%AC-%EA%B1%B0%EC%A0%9C%EB%8F%99/", "workingTime": ["1,3,5\uc9f8\uc8fc10:00~22:00", "10:00~22:00", "10:00~22:00", "10:00~22:00", "10:00~22:00", "10:00~22:00", "10:00~22:00", "10:00~22:00"]}, {"name": "\ud558\ub098\uc57d\uad6d", "lat": "35.1889184496374", "lng": "129.06896089448813", "url": "/info/%ED%95%98%EB%82%98%EC%95%BD%EA%B5%AD-%EB%B6%80%EC%82%B0%EA%B4%91%EC%97%AD%EC%8B%9C-%EC%97%B0%EC%A0%9C%EA%B5%AC-%EA%B1%B0%EC%A0%9C%EB%8F%99/", "workingTime": ["-", "08:30~18:30", "08:30~18:30", "08:30~18:30", "08:30~18:30", "08:30~18:30", "08:30~12:00", "-"]}, {"name": "\ud55c\uc0ac\ub791\uc57d\uad6d", "lat": "35.1937360746659", "lng": "129.074024205696", "url": "/info/%ED%95%9C%EC%82%AC%EB%9E%91%EC%95%BD%EA%B5%AD-%EB%B6%80%EC%82%B0%EA%B4%91%EC%97%AD%EC%8B%9C-%EC%97%B0%EC%A0%9C%EA%B5%AC-%EA%B1%B0%EC%A0%9C%EB%8F%99/", "workingTime": ["-", "09:00~19:00", "09:00~19:00", "09:00~19:00", "09:00~19:00", "09:00~19:00", "10:00~14:00", "-"]}, {"name": "\uc778\uc81c\uc57d\uad6d", "lat": "35.18873184562596", "lng": "129.06796164560487", "url": "/info/%EC%9D%B8%EC%A0%9C%EC%95%BD%EA%B5%AD-%EB%B6%80%EC%82%B0%EA%B4%91%EC%97%AD%EC%8B%9C-%EC%97%B0%EC%A0%9C%EA%B5%AC-%EA%B1%B0%EC%A0%9C%EB%8F%99/", "workingTime": ["-", "08:30~18:40", "08:30~18:40", "08:30~18:40", "08:30~18:40", "08:30~18:40", "08:30~12:00", "-"]}, {"name": "\uc5f0\uc81c\ub85c\uc57d\uad6d", "lat": "35.182758333333332", "lng": "129.070483333333328", "url": "/info/%EC%97%B0%EC%A0%9C%EB%A1%9C%EC%95%BD%EA%B5%AD-%EB%B6%80%EC%82%B0%EA%B4%91%EC%97%AD%EC%8B%9C-%EC%97%B0%EC%A0%9C%EA%B5%AC-%EA%B1%B0%EC%A0%9C%EB%8F%99/", "workingTime": ["-", "09:00~20:00", "09:00~20:00", "09:00~20:00", "09:00~20:00", "09:00~20:00", "09:00~17:00", "-"]}, {"name": "\uc5f0\uc81c\uc57d\uad6d", "lat": "35.1924836063008", "lng": "129.078125229531", "url": "/info/%EC%97%B0%EC%A0%9C%EC%95%BD%EA%B5%AD-%EB%B6%80%EC%82%B0%EA%B4%91%EC%97%AD%EC%8B%9C-%EC%97%B0%EC%A0%9C%EA%B5%AC-%EA%B1%B0%EC%A0%9C%EB%8F%99/", "workingTime": ["-", "09:00~19:00", "09:00~19:00", "09:00~19:00", "09:00~19:00", "09:00~19:00", "09:00~14:30", "-"]}, {"name": "\uc601\ub0a8\uc57d\uad6d", "lat": "35.1824949492", "lng": "129.0704400821", "url": "/info/%EC%98%81%EB%82%A8%EC%95%BD%EA%B5%AD-%EB%B6%80%EC%82%B0%EA%B4%91%EC%97%AD%EC%8B%9C-%EC%97%B0%EC%A0%9C%EA%B5%AC-%EA%B1%B0%EC%A0%9C%EB%8F%99/", "workingTime": ["-", "08:00~20:00", "08:00~20:00", "08:00~20:00", "08:00~20:00", "08:00~20:00", "08:00~18:30", "-"]}, {"name": "\uc2e0\ud558\ub098\uc57d\uad6d", "lat": "35.1878038704", "lng": "129.0613979816", "url": "/info/%EC%8B%A0%ED%95%98%EB%82%98%EC%95%BD%EA%B5%AD-%EB%B6%80%EC%82%B0%EA%B4%91%EC%97%AD%EC%8B%9C-%EC%97%B0%EC%A0%9C%EA%B5%AC-%EA%B1%B0%EC%A0%9C%EB%8F%99/", "workingTime": ["-", "09:00~18:00", "09:00~18:00", "09:00~18:00", "09:00~18:00", "09:00~18:00", "-", "-"]}, {"name": "\uc218\ubbfc\uc57d\uad6d", "lat": "35.18386944444443", "lng": "129.06970555555696", "url": "/info/%EC%88%98%EB%AF%BC%EC%95%BD%EA%B5%AD-%EB%B6%80%EC%82%B0%EA%B4%91%EC%97%AD%EC%8B%9C-%EC%97%B0%EC%A0%9C%EA%B5%AC-%EA%B1%B0%EC%A0%9C%EB%8F%99/", "workingTime": ["-", "09:00~19:00", "09:00~19:00", "09:00~19:00", "09:00~19:00", "09:00~19:00", "09:00~14:00", "-"]}, {"name": "\uc0c8\uadf8\ub9b0\uc57d\uad6d", "lat": "35.1878038008399", "lng": "129.061396772362", "url": "/info/%EC%83%88%EA%B7%B8%EB%A6%B0%EC%95%BD%EA%B5%AD-%EB%B6%80%EC%82%B0%EA%B4%91%EC%97%AD%EC%8B%9C-%EC%97%B0%EC%A0%9C%EA%B5%AC-%EA%B1%B0%EC%A0%9C%EB%8F%99/", "workingTime": ["-", "09:00~18:00", "09:00~18:00", "09:00~18:00", "09:00~18:00", "09:00~18:00", "-", "-"]}, {"name": "\uc0c8\ub098\ub77c\uc57d\uad6d", "lat": "35.18227709278081", "lng": "129.0730600838261", "url": "/info/%EC%83%88%EB%82%98%EB%9D%BC%EC%95%BD%EA%B5%AD-%EB%B6%80%EC%82%B0%EA%B4%91%EC%97%AD%EC%8B%9C-%EC%97%B0%EC%A0%9C%EA%B5%AC-%EA%B1%B0%EC%A0%9C%EB%8F%99/", "workingTime": ["-", "09:00~19:00", "09:00~19:00", "09:00~19:00", "09:00~19:00", "09:00~19:00", "09:00~17:00", "-"]}, {"name": "\ubc14\ub978\uc57d\uad6d", "lat": "35.1881440255", "lng": "129.0765066595", "url": "/info/%EB%B0%94%EB%A5%B8%EC%95%BD%EA%B5%AD-%EB%B6%80%EC%82%B0%EA%B4%91%EC%97%AD%EC%8B%9C-%EC%97%B0%EC%A0%9C%EA%B5%AC-%EA%B1%B0%EC%A0%9C%EB%8F%99/", "workingTime": ["-", "09:00~18:30", "09:00~18:30", "09:00~18:30", "09:00~18:30", "09:00~18:30", "09:00~13:30", "-"]}, {"name": "\ubc14\ub098\ub098\uc57d\uad6d", "lat": "35.1892779182", "lng": "129.0681752581", "url": "/info/%EB%B0%94%EB%82%98%EB%82%98%EC%95%BD%EA%B5%AD-%EB%B6%80%EC%82%B0%EA%B4%91%EC%97%AD%EC%8B%9C-%EC%97%B0%EC%A0%9C%EA%B5%AC-%EA%B1%B0%EC%A0%9C%EB%8F%99/", "workingTime": ["-", "09:00~18:30", "09:00~18:30", "09:00~18:30", "09:00~18:30", "09:00~18:30", "08:30~12:00", "-"]}, {"name": "\ub3d9\uc6d0\uc57d\uad6d", "lat": "35.176811111111114", "lng": "129.069505555555565", "url": "/info/%EB%8F%99%EC%9B%90%EC%95%BD%EA%B5%AD-%EB%B6%80%EC%82%B0%EA%B4%91%EC%97%AD%EC%8B%9C-%EC%97%B0%EC%A0%9C%EA%B5%AC-%EA%B1%B0%EC%A0%9C%EB%8F%99/", "workingTime": ["-", "08:00~20:00", "08:00~20:00", "08:00~20:00", "08:00~20:00", "08:00~20:00", "08:00~20:00", "08:00~20:00"]}, {"name": "\ub2e4\uc0ac\ub791\uc57d\uad6d", "lat": "35.18842295960525", "lng": "129.06103431203658", "url": "/info/%EB%8B%A4%EC%82%AC%EB%9E%91%EC%95%BD%EA%B5%AD-%EB%B6%80%EC%82%B0%EA%B4%91%EC%97%AD%EC%8B%9C-%EC%97%B0%EC%A0%9C%EA%B5%AC-%EA%B1%B0%EC%A0%9C%EB%8F%99/", "workingTime": ["-", "09:00~18:30", "09:00~18:30", "09:00~18:30", "09:00~18:30", "09:00~18:30", "-", "-"]}]