[{"name": "\uc628\ucc9c\uc7a5\uc0c8\ubd04\uc57d\uad6d", "lat": "35.2160392843592", "lng": "129.079761927441", "url": "/info/%EC%98%A8%EC%B2%9C%EC%9E%A5%EC%83%88%EB%B4%84%EC%95%BD%EA%B5%AD-%EB%B6%80%EC%82%B0%EA%B4%91%EC%97%AD%EC%8B%9C-%EB%8F%99%EB%9E%98%EA%B5%AC-%EC%98%A8%EC%B2%9C%EB%8F%99/", "workingTime": ["-", "09:00~19:00", "09:00~19:00", "09:00~19:00", "09:00~19:00", "09:00~19:00", "09:00~13:00", "-"]}, {"name": "21\uc138\uae30\uc57d\uad6d", "lat": "35.2134029406134", "lng": "129.077580917652", "url": "/info/21%EC%84%B8%EA%B8%B0%EC%95%BD%EA%B5%AD-%EB%B6%80%EC%82%B0%EA%B4%91%EC%97%AD%EC%8B%9C-%EB%8F%99%EB%9E%98%EA%B5%AC-%EC%98%A8%EC%B2%9C%EB%8F%99/", "workingTime": ["1,3,5\uc9f8\uc8fc11:00~21:00", "09:00~21:00", "09:00~21:00", "09:00~21:00", "09:00~21:00", "09:00~21:00", "09:00~21:00", "-"]}, {"name": "\ud589\ubcf5\ud55c\uc57d\uad6d", "lat": "35.2046130923837", "lng": "129.076599575529", "url": "/info/%ED%96%89%EB%B3%B5%ED%95%9C%EC%95%BD%EA%B5%AD-%EB%B6%80%EC%82%B0%EA%B4%91%EC%97%AD%EC%8B%9C-%EB%8F%99%EB%9E%98%EA%B5%AC-%EC%98%A8%EC%B2%9C%EB%8F%99/", "workingTime": ["-", "09:00~18:30", "09:00~17:30", "09:00~17:30", "09:00~17:30", "09:00~17:30", "09:00~13:00", "-"]}, {"name": "\ubcf8\uc57d\uad6d", "lat": "35.2033210677986", "lng": "129.066144294067", "url": "/info/%EB%B3%B8%EC%95%BD%EA%B5%AD-%EB%B6%80%EC%82%B0%EA%B4%91%EC%97%AD%EC%8B%9C-%EB%8F%99%EB%9E%98%EA%B5%AC-%EC%98%A8%EC%B2%9C%EB%8F%99/", "workingTime": ["-", "09:00~18:30", "09:00~18:30", "09:00~18:30", "09:00~18:30", "09:00~18:30", "09:00~13:30", "-"]}, {"name": "\ud587\uc0b4\uc57d\uad6d", "lat": "35.2053096286", "lng": "129.0775322273", "url": "/info/%ED%96%87%EC%82%B4%EC%95%BD%EA%B5%AD-%EB%B6%80%EC%82%B0%EA%B4%91%EC%97%AD%EC%8B%9C-%EB%8F%99%EB%9E%98%EA%B5%AC-%EC%98%A8%EC%B2%9C%EB%8F%99/", "workingTime": ["-", "09:00~21:00", "09:00~21:00", "09:00~21:00", "09:00~21:00", "09:00~21:00", "09:00~19:00", "-"]}, {"name": "\ud589\ubcf5\uc57d\uad6d", "lat": "35.21905855539999", "lng": "129.0846031829015", "url": "/info/%ED%96%89%EB%B3%B5%EC%95%BD%EA%B5%AD-%EB%B6%80%EC%82%B0%EA%B4%91%EC%97%AD%EC%8B%9C-%EB%8F%99%EB%9E%98%EA%B5%AC-%EC%98%A8%EC%B2%9C%EB%8F%99/", "workingTime": ["-", "09:00~18:30", "09:00~17:30", "09:00~17:30", "09:00~17:30", "09:00~17:30", "09:00~13:00", "-"]}, {"name": "\ud604\ub300\uc57d\uad6d", "lat": "35.218116536937245", "lng": "129.08383676467082", "url": "/info/%ED%98%84%EB%8C%80%EC%95%BD%EA%B5%AD-%EB%B6%80%EC%82%B0%EA%B4%91%EC%97%AD%EC%8B%9C-%EB%8F%99%EB%9E%98%EA%B5%AC-%EC%98%A8%EC%B2%9C%EB%8F%99/", "workingTime": ["-", "08:00~20:00", "08:00~20:00", "08:00~20:00", "08:00~20:00", "08:00~20:00", "08:00~18:00", "08:00~18:00"]}, {"name": "\ud65c\uae30\uc57d\uad6d", "lat": "35.20398505471562", "lng": "129.06668175386454", "url": "/info/%ED%99%9C%EA%B8%B0%EC%95%BD%EA%B5%AD-%EB%B6%80%EC%82%B0%EA%B4%91%EC%97%AD%EC%8B%9C-%EB%8F%99%EB%9E%98%EA%B5%AC-%EC%98%A8%EC%B2%9C%EB%8F%99/", "workingTime": ["-", "09:00~19:00", "09:00~19:00", "09:00~19:00", "09:00~19:00", "09:00~19:00", "09:00~14:00", "-"]}, {"name": "\ud558\ub098\uc57d\uad6d", "lat": "35.22170855481113", "lng": "129.08477639757422", "url": "/info/%ED%95%98%EB%82%98%EC%95%BD%EA%B5%AD-%EB%B6%80%EC%82%B0%EA%B4%91%EC%97%AD%EC%8B%9C-%EB%8F%99%EB%9E%98%EA%B5%AC-%EC%98%A8%EC%B2%9C%EB%8F%99/", "workingTime": ["-", "09:00~19:30", "09:00~19:30", "09:00~19:30", "09:00~19:30", "09:00~19:30", "09:00~14:00", "-"]}, {"name": "\ud55c\ub9c8\uc74c\uc57d\uad6d", "lat": "35.20718587", "lng": "129.0709044134", "url": "/info/%ED%95%9C%EB%A7%88%EC%9D%8C%EC%95%BD%EA%B5%AD-%EB%B6%80%EC%82%B0%EA%B4%91%EC%97%AD%EC%8B%9C-%EB%8F%99%EB%9E%98%EA%B5%AC-%EC%98%A8%EC%B2%9C%EB%8F%99/", "workingTime": ["1,2,3,4,5\uc9f8\uc8fc10:00~15:00", "08:30~18:00", "08:30~18:00", "08:30~18:00", "08:30~18:00", "08:30~18:00", "08:30~13:30", "08:30~18:00"]}, {"name": "\ud0dc\ud3c9\uc591\uc57d\uad6d", "lat": "35.2057740243593", "lng": "129.077099831933", "url": "/info/%ED%83%9C%ED%8F%89%EC%96%91%EC%95%BD%EA%B5%AD-%EB%B6%80%EC%82%B0%EA%B4%91%EC%97%AD%EC%8B%9C-%EB%8F%99%EB%9E%98%EA%B5%AC-%EC%98%A8%EC%B2%9C%EB%8F%99/", "workingTime": ["-", "09:00~18:00", "09:00~18:00", "09:00~18:00", "09:00~18:00", "09:00~18:00", "09:00~13:00", "-"]}, {"name": "\ud2bc\ud2bc\uc628\ub204\ub9ac\uc57d\uad6d", "lat": "35.208920372773", "lng": "129.070263986599", "url": "/info/%ED%8A%BC%ED%8A%BC%EC%98%A8%EB%88%84%EB%A6%AC%EC%95%BD%EA%B5%AD-%EB%B6%80%EC%82%B0%EA%B4%91%EC%97%AD%EC%8B%9C-%EB%8F%99%EB%9E%98%EA%B5%AC-%EC%98%A8%EC%B2%9C%EB%8F%99/", "workingTime": ["-", "09:00~19:00", "09:00~19:00", "09:00~19:00", "09:00~20:00", "09:00~19:00", "09:00~13:00", "-"]}, {"name": "\ud31c\ud50c\ub7ec\uc2a4\uc628\ub204\ub9ac\uc57d\uad6d", "lat": "35.22129102114556", "lng": "129.085578347718", "url": "/info/%ED%8C%9C%ED%94%8C%EB%9F%AC%EC%8A%A4%EC%98%A8%EB%88%84%EB%A6%AC%EC%95%BD%EA%B5%AD-%EB%B6%80%EC%82%B0%EA%B4%91%EC%97%AD%EC%8B%9C-%EB%8F%99%EB%9E%98%EA%B5%AC-%EC%98%A8%EC%B2%9C%EB%8F%99/", "workingTime": ["1,3,5\uc9f8\uc8fc10:00~22:00", "10:00~22:00", "10:00~22:00", "10:00~22:00", "10:00~22:00", "10:00~22:00", "10:00~22:00", "10:00~22:00"]}, {"name": "\uc8fc\ucc28\uc7a5\uc57d\uad6d", "lat": "35.2057308740335", "lng": "129.076731360582", "url": "/info/%EC%A3%BC%EC%B0%A8%EC%9E%A5%EC%95%BD%EA%B5%AD-%EB%B6%80%EC%82%B0%EA%B4%91%EC%97%AD%EC%8B%9C-%EB%8F%99%EB%9E%98%EA%B5%AC-%EC%98%A8%EC%B2%9C%EB%8F%99/", "workingTime": ["-", "08:30~17:30", "08:30~17:30", "08:30~17:30", "08:30~17:30", "08:30~17:30", "08:30~13:00", "-"]}, {"name": "\uc9c0\ub9ac\uc0b0\uc57d\uad6d", "lat": "35.2035857428", "lng": "129.0681121007", "url": "/info/%EC%A7%80%EB%A6%AC%EC%82%B0%EC%95%BD%EA%B5%AD-%EB%B6%80%EC%82%B0%EA%B4%91%EC%97%AD%EC%8B%9C-%EB%8F%99%EB%9E%98%EA%B5%AC-%EC%98%A8%EC%B2%9C%EB%8F%99/", "workingTime": ["1,2,3,4,5\uc9f8\uc8fc09:30~23:00", "09:30~23:00", "09:30~23:00", "09:30~23:00", "09:30~23:00", "09:30~23:00", "09:30~23:00", "09:30~23:00"]}, {"name": "\uccad\ub2f4\uc57d\uad6d", "lat": "35.2124459669", "lng": "129.078627659", "url": "/info/%EC%B2%AD%EB%8B%B4%EC%95%BD%EA%B5%AD-%EB%B6%80%EC%82%B0%EA%B4%91%EC%97%AD%EC%8B%9C-%EB%8F%99%EB%9E%98%EA%B5%AC-%EC%98%A8%EC%B2%9C%EB%8F%99/", "workingTime": ["-", "09:00~19:00", "09:00~19:00", "09:00~19:00", "09:00~19:00", "09:00~19:00", "09:00~14:00", "-"]}, {"name": "\uc6b0\ub9ac\uc548\uc57d\uad6d", "lat": "35.221758333333334", "lng": "129.085647222222235", "url": "/info/%EC%9A%B0%EB%A6%AC%EC%95%88%EC%95%BD%EA%B5%AD-%EB%B6%80%EC%82%B0%EA%B4%91%EC%97%AD%EC%8B%9C-%EB%8F%99%EB%9E%98%EA%B5%AC-%EC%98%A8%EC%B2%9C%EB%8F%99/", "workingTime": ["-", "09:00~18:00", "09:00~18:00", "09:00~18:00", "09:00~18:00", "09:00~18:00", "09:00~13:00", "-"]}, {"name": "\uc6b0\ub9ac\uc57d\uad6d", "lat": "35.203728047623336", "lng": "129.06716710776826", "url": "/info/%EC%9A%B0%EB%A6%AC%EC%95%BD%EA%B5%AD-%EB%B6%80%EC%82%B0%EA%B4%91%EC%97%AD%EC%8B%9C-%EB%8F%99%EB%9E%98%EA%B5%AC-%EC%98%A8%EC%B2%9C%EB%8F%99/", "workingTime": ["-", "09:00~18:00", "09:00~18:00", "09:00~18:00", "09:00~18:00", "09:00~18:00", "09:00~13:00", "-"]}, {"name": "\uc774\uc18c\uc57d\uad6d", "lat": "35.21144656471657", "lng": "129.07342829785688", "url": "/info/%EC%9D%B4%EC%86%8C%EC%95%BD%EA%B5%AD-%EB%B6%80%EC%82%B0%EA%B4%91%EC%97%AD%EC%8B%9C-%EB%8F%99%EB%9E%98%EA%B5%AC-%EC%98%A8%EC%B2%9C%EB%8F%99/", "workingTime": ["2,3,4,5\uc9f8\uc8fc09:00~15:00", "09:00~19:00", "09:00~19:00", "09:00~19:00", "09:00~19:00", "09:00~19:00", "09:00~19:00", "10:00~18:00"]}, {"name": "\uc601\uc77c\uc57d\uad6d", "lat": "35.21843337807204", "lng": "129.08307180900132", "url": "/info/%EC%98%81%EC%9D%BC%EC%95%BD%EA%B5%AD-%EB%B6%80%EC%82%B0%EA%B4%91%EC%97%AD%EC%8B%9C-%EB%8F%99%EB%9E%98%EA%B5%AC-%EC%98%A8%EC%B2%9C%EB%8F%99/", "workingTime": ["-", "08:30~18:30", "08:30~18:30", "08:30~18:30", "08:30~18:30", "08:30~18:30", "08:30~13:00", "-"]}, {"name": "\uc628\ucc9c\uc57d\uad6d", "lat": "35.218727777777794", "lng": "129.08223055555703", "url": "/info/%EC%98%A8%EC%B2%9C%EC%95%BD%EA%B5%AD-%EB%B6%80%EC%82%B0%EA%B4%91%EC%97%AD%EC%8B%9C-%EB%8F%99%EB%9E%98%EA%B5%AC-%EC%98%A8%EC%B2%9C%EB%8F%99/", "workingTime": ["3,5\uc9f8\uc8fc08:30~19:30", "08:30~19:30", "08:30~19:30", "08:30~19:30", "08:30~19:30", "08:30~19:30", "08:30~19:30", "08:30~19:30"]}, {"name": "\uc218\uc57d\uad6d", "lat": "35.2181219804406", "lng": "129.081970776065", "url": "/info/%EC%88%98%EC%95%BD%EA%B5%AD-%EB%B6%80%EC%82%B0%EA%B4%91%EC%97%AD%EC%8B%9C-%EB%8F%99%EB%9E%98%EA%B5%AC-%EC%98%A8%EC%B2%9C%EB%8F%99/", "workingTime": ["-", "09:00~20:00", "09:00~20:00", "09:00~20:00", "09:00~20:00", "09:00~20:00", "09:00~15:00", "-"]}, {"name": "\uc2a4\ud0c0\uc57d\uad6d", "lat": "35.204367592500866", "lng": "129.0773940403629", "url": "/info/%EC%8A%A4%ED%83%80%EC%95%BD%EA%B5%AD-%EB%B6%80%EC%82%B0%EA%B4%91%EC%97%AD%EC%8B%9C-%EB%8F%99%EB%9E%98%EA%B5%AC-%EC%98%A8%EC%B2%9C%EB%8F%99/", "workingTime": ["-", "09:00~19:00", "09:00~19:00", "09:00~20:00", "09:00~19:00", "09:00~20:30", "09:00~13:00", "-"]}, {"name": "\uc11c\uc6b8\ud64d\uc57d\uad6d", "lat": "35.2212910211", "lng": "129.0855783477", "url": "/info/%EC%84%9C%EC%9A%B8%ED%99%8D%EC%95%BD%EA%B5%AD-%EB%B6%80%EC%82%B0%EA%B4%91%EC%97%AD%EC%8B%9C-%EB%8F%99%EB%9E%98%EA%B5%AC-%EC%98%A8%EC%B2%9C%EB%8F%99/", "workingTime": ["1,2,3,4,5\uc9f8\uc8fc09:00~18:00", "09:00~21:00", "09:00~21:00", "09:00~21:00", "09:00~21:00", "09:00~21:00", "09:00~18:00", "09:00~18:00"]}, {"name": "\uc138\uc778\uc57d\uad6d", "lat": "35.20686522961608", "lng": "129.0706921375519", "url": "/info/%EC%84%B8%EC%9D%B8%EC%95%BD%EA%B5%AD-%EB%B6%80%EC%82%B0%EA%B4%91%EC%97%AD%EC%8B%9C-%EB%8F%99%EB%9E%98%EA%B5%AC-%EC%98%A8%EC%B2%9C%EB%8F%99/", "workingTime": ["-", "09:00~17:30", "09:00~17:30", "09:00~17:30", "09:00~17:30", "09:00~17:30", "09:00~13:30", "-"]}, {"name": "\uc0ac\ub791\uc57d\uad6d", "lat": "35.205233380271004", "lng": "129.06745999352088", "url": "/info/%EC%82%AC%EB%9E%91%EC%95%BD%EA%B5%AD-%EB%B6%80%EC%82%B0%EA%B4%91%EC%97%AD%EC%8B%9C-%EB%8F%99%EB%9E%98%EA%B5%AC-%EC%98%A8%EC%B2%9C%EB%8F%99/", "workingTime": ["-", "09:00~21:00", "09:00~21:00", "09:00~21:00", "09:00~21:00", "09:00~21:00", "09:00~15:00", "09:00~13:00"]}, {"name": "\ubc18\ub3c4\uc6f0\uc2a4\uc57d\uad6d", "lat": "35.20436666666667", "lng": "129.0676916666695", "url": "/info/%EB%B0%98%EB%8F%84%EC%9B%B0%EC%8A%A4%EC%95%BD%EA%B5%AD-%EB%B6%80%EC%82%B0%EA%B4%91%EC%97%AD%EC%8B%9C-%EB%8F%99%EB%9E%98%EA%B5%AC-%EC%98%A8%EC%B2%9C%EB%8F%99/", "workingTime": ["-", "09:00~18:30", "09:00~18:30", "09:00~18:30", "09:00~18:30", "09:00~18:30", "09:00~13:30", "-"]}, {"name": "\ubcf4\uc0dd\ub2f9\uc57d\uad6d", "lat": "35.207533333333330", "lng": "129.071105555555562", "url": "/info/%EB%B3%B4%EC%83%9D%EB%8B%B9%EC%95%BD%EA%B5%AD-%EB%B6%80%EC%82%B0%EA%B4%91%EC%97%AD%EC%8B%9C-%EB%8F%99%EB%9E%98%EA%B5%AC-%EC%98%A8%EC%B2%9C%EB%8F%99/", "workingTime": ["-", "08:50~18:30", "08:50~18:30", "08:50~18:30", "08:50~18:30", "08:50~18:30", "08:50~14:00", "08:30~17:00"]}, {"name": "\ubbf8\ub0a8\uc815\uc57d\uad6d", "lat": "35.205453466723874", "lng": "129.06744800708168", "url": "/info/%EB%AF%B8%EB%82%A8%EC%A0%95%EC%95%BD%EA%B5%AD-%EB%B6%80%EC%82%B0%EA%B4%91%EC%97%AD%EC%8B%9C-%EB%8F%99%EB%9E%98%EA%B5%AC-%EC%98%A8%EC%B2%9C%EB%8F%99/", "workingTime": ["-", "09:00~20:00", "09:00~20:00", "09:00~20:00", "09:00~20:00", "09:00~20:00", "09:00~16:00", "09:00~13:00"]}, {"name": "\ubbf8\ub0a8\ud638\uc57d\uad6d", "lat": "35.2087270118381", "lng": "129.069645960909", "url": "/info/%EB%AF%B8%EB%82%A8%ED%98%B8%EC%95%BD%EA%B5%AD-%EB%B6%80%EC%82%B0%EA%B4%91%EC%97%AD%EC%8B%9C-%EB%8F%99%EB%9E%98%EA%B5%AC-%EC%98%A8%EC%B2%9C%EB%8F%99/", "workingTime": ["-", "09:00~19:00", "09:00~19:00", "09:00~19:00", "09:00~19:00", "09:00~19:00", "09:00~13:00", "-"]}, {"name": "\ubbf8\ub798\uc57d\uad6d", "lat": "35.205305555555555", "lng": "129.077544444444442", "url": "/info/%EB%AF%B8%EB%9E%98%EC%95%BD%EA%B5%AD-%EB%B6%80%EC%82%B0%EA%B4%91%EC%97%AD%EC%8B%9C-%EB%8F%99%EB%9E%98%EA%B5%AC-%EC%98%A8%EC%B2%9C%EB%8F%99/", "workingTime": ["-", "09:00~19:00", "09:00~19:00", "09:00~19:00", "09:00~19:00", "09:00~19:00", "09:00~13:30", "-"]}, {"name": "\uba85\ub95c\uba54\ub514\uce7c\uc57d\uad6d", "lat": "35.2124826165", "lng": "129.0783826338", "url": "/info/%EB%AA%85%EB%A5%9C%EB%A9%94%EB%94%94%EC%B9%BC%EC%95%BD%EA%B5%AD-%EB%B6%80%EC%82%B0%EA%B4%91%EC%97%AD%EC%8B%9C-%EB%8F%99%EB%9E%98%EA%B5%AC-%EC%98%A8%EC%B2%9C%EB%8F%99/", "workingTime": ["-", "09:00~20:00", "09:00~20:00", "09:00~20:30", "09:00~20:00", "09:00~20:00", "09:00~16:00", "-"]}, {"name": "\ub7ed\ud0a4\uc57d\uad6d", "lat": "35.218977777777781", "lng": "129.082230555555554", "url": "/info/%EB%9F%AD%ED%82%A4%EC%95%BD%EA%B5%AD-%EB%B6%80%EC%82%B0%EA%B4%91%EC%97%AD%EC%8B%9C-%EB%8F%99%EB%9E%98%EA%B5%AC-%EC%98%A8%EC%B2%9C%EB%8F%99/", "workingTime": ["1\uc9f8\uc8fc07:00~20:00", "07:00~20:30", "07:00~20:30", "07:00~20:30", "07:00~20:30", "07:00~20:30", "07:00~20:00", "-"]}, {"name": "\ub3d9\ub0a8\uc57d\uad6d", "lat": "35.2042605234658", "lng": "129.0665988666684", "url": "/info/%EB%8F%99%EB%82%A8%EC%95%BD%EA%B5%AD-%EB%B6%80%EC%82%B0%EA%B4%91%EC%97%AD%EC%8B%9C-%EB%8F%99%EB%9E%98%EA%B5%AC-%EC%98%A8%EC%B2%9C%EB%8F%99/", "workingTime": ["-", "09:00~19:00", "09:00~19:00", "09:00~19:00", "09:00~19:00", "09:00~19:00", "09:00~15:00", "-"]}, {"name": "\ub4dc\ub9bci\uc57d\uad6d", "lat": "35.2059934784712", "lng": "129.071440668535", "url": "/info/%EB%93%9C%EB%A6%BCi%EC%95%BD%EA%B5%AD-%EB%B6%80%EC%82%B0%EA%B4%91%EC%97%AD%EC%8B%9C-%EB%8F%99%EB%9E%98%EA%B5%AC-%EC%98%A8%EC%B2%9C%EB%8F%99/", "workingTime": ["1,2,3,4,5\uc9f8\uc8fc08:00~14:00", "08:00~20:00", "08:00~20:00", "08:00~20:00", "08:00~20:00", "08:00~20:00", "08:00~17:00", "-"]}, {"name": "\ub300\ub3c4\uc57d\uad6d", "lat": "35.219219444444441", "lng": "129.081419444444435", "url": "/info/%EB%8C%80%EB%8F%84%EC%95%BD%EA%B5%AD-%EB%B6%80%EC%82%B0%EA%B4%91%EC%97%AD%EC%8B%9C-%EB%8F%99%EB%9E%98%EA%B5%AC-%EC%98%A8%EC%B2%9C%EB%8F%99/", "workingTime": ["-", "08:30~22:00", "08:30~22:00", "08:30~22:00", "08:30~22:00", "08:30~22:00", "08:30~22:00", "08:30~22:00"]}, {"name": "\uae08\uc815\uc57d\uad6d", "lat": "35.202199999999998", "lng": "129.073913888888882", "url": "/info/%EA%B8%88%EC%A0%95%EC%95%BD%EA%B5%AD-%EB%B6%80%EC%82%B0%EA%B4%91%EC%97%AD%EC%8B%9C-%EB%8F%99%EB%9E%98%EA%B5%AC-%EC%98%A8%EC%B2%9C%EB%8F%99/", "workingTime": ["-", "09:00~19:00", "09:00~19:00", "09:00~19:00", "09:00~19:00", "09:00~19:00", "09:00~19:00", "09:00~21:00"]}, {"name": "\ub098\ub214\uc57d\uad6d", "lat": "35.2205996791384", "lng": "129.084797993615", "url": "/info/%EB%82%98%EB%88%94%EC%95%BD%EA%B5%AD-%EB%B6%80%EC%82%B0%EA%B4%91%EC%97%AD%EC%8B%9C-%EB%8F%99%EB%9E%98%EA%B5%AC-%EC%98%A8%EC%B2%9C%EB%8F%99/", "workingTime": ["-", "09:00~19:00", "09:00~19:00", "09:00~19:00", "09:00~19:00", "09:00~19:00", "09:00~13:00", "-"]}, {"name": "\uac74\uac15\ud55c\uc57d\uad6d", "lat": "35.20541930219312", "lng": "129.0761823598721", "url": "/info/%EA%B1%B4%EA%B0%95%ED%95%9C%EC%95%BD%EA%B5%AD-%EB%B6%80%EC%82%B0%EA%B4%91%EC%97%AD%EC%8B%9C-%EB%8F%99%EB%9E%98%EA%B5%AC-%EC%98%A8%EC%B2%9C%EB%8F%99/", "workingTime": ["3\uc9f8\uc8fc08:00~13:00", "08:00~19:00", "08:00~19:00", "08:00~19:00", "08:00~19:00", "08:00~19:00", "08:00~14:00", "-"]}]