[{"name": "\ub9cc\uc218\uc57d\uad6d", "lat": "35.088352777777779", "lng": "129.042013888888903", "url": "/info/%EB%A7%8C%EC%88%98%EC%95%BD%EA%B5%AD-%EB%B6%80%EC%82%B0%EA%B4%91%EC%97%AD%EC%8B%9C-%EC%98%81%EB%8F%84%EA%B5%AC-%EC%98%81%EC%84%A0%EB%8F%992%EA%B0%80/", "workingTime": ["-", "09:00~19:30", "09:00~19:30", "09:00~19:30", "09:00~19:30", "09:00~19:30", "09:00~19:00", "09:00~19:00"]}, {"name": "\uc601\ub3c4\uc11c\uc6b8\uc57d\uad6d", "lat": "35.0877818937302", "lng": "129.041709783016", "url": "/info/%EC%98%81%EB%8F%84%EC%84%9C%EC%9A%B8%EC%95%BD%EA%B5%AD-%EB%B6%80%EC%82%B0%EA%B4%91%EC%97%AD%EC%8B%9C-%EC%98%81%EB%8F%84%EA%B5%AC-%EC%98%81%EC%84%A0%EB%8F%992%EA%B0%80/", "workingTime": ["1,2,3,4,5\uc9f8\uc8fc09:00~13:00", "09:00~20:00", "09:00~20:00", "09:00~20:00", "09:00~20:00", "09:00~20:00", "09:00~17:00", "-"]}, {"name": "\uc0c8\ud589\uc6b4\uc57d\uad6d", "lat": "35.088048753688504", "lng": "129.04190106494218", "url": "/info/%EC%83%88%ED%96%89%EC%9A%B4%EC%95%BD%EA%B5%AD-%EB%B6%80%EC%82%B0%EA%B4%91%EC%97%AD%EC%8B%9C-%EC%98%81%EB%8F%84%EA%B5%AC-%EC%98%81%EC%84%A0%EB%8F%992%EA%B0%80/", "workingTime": ["-", "09:00~19:00", "09:00~19:00", "09:00~19:00", "09:00~19:00", "09:00~19:00", "09:00~14:00", "-"]}, {"name": "\uba85\ubb38\uc57d\uad6d", "lat": "35.08771944444447", "lng": "129.04405833333465", "url": "/info/%EB%AA%85%EB%AC%B8%EC%95%BD%EA%B5%AD-%EB%B6%80%EC%82%B0%EA%B4%91%EC%97%AD%EC%8B%9C-%EC%98%81%EB%8F%84%EA%B5%AC-%EC%98%81%EC%84%A0%EB%8F%992%EA%B0%80/", "workingTime": ["-", "09:00~20:00", "09:00~20:00", "09:00~20:00", "09:00~20:00", "09:00~20:00", "09:00~15:00", "09:00~15:00"]}, {"name": "\ub300\uc601\ub2f9\uc57d\uad6d", "lat": "35.08826664766515", "lng": "129.04150557209317", "url": "/info/%EB%8C%80%EC%98%81%EB%8B%B9%EC%95%BD%EA%B5%AD-%EB%B6%80%EC%82%B0%EA%B4%91%EC%97%AD%EC%8B%9C-%EC%98%81%EB%8F%84%EA%B5%AC-%EC%98%81%EC%84%A0%EB%8F%992%EA%B0%80/", "workingTime": ["-", "09:00~19:00", "09:00~19:00", "09:00~19:00", "09:00~19:00", "09:00~19:00", "09:00~16:00", "-"]}]