[{"name": "\uac74\uac15\uc57d\uad6d", "lat": "35.177685742288794", "lng": "129.1069887847387", "url": "/info/%EA%B1%B4%EA%B0%95%EC%95%BD%EA%B5%AD-%EB%B6%80%EC%82%B0%EA%B4%91%EC%97%AD%EC%8B%9C-%EC%88%98%EC%98%81%EA%B5%AC-%EB%A7%9D%EB%AF%B8%EB%8F%99/", "workingTime": ["-", "09:00~18:30", "09:00~18:30", "09:00~18:30", "09:00~18:30", "09:00~18:30", "09:00~14:00", "-"]}, {"name": "\ud3ec\uc2a4\ucf54\uc57d\uad6d", "lat": "35.1734577726", "lng": "129.1053705696", "url": "/info/%ED%8F%AC%EC%8A%A4%EC%BD%94%EC%95%BD%EA%B5%AD-%EB%B6%80%EC%82%B0%EA%B4%91%EC%97%AD%EC%8B%9C-%EC%88%98%EC%98%81%EA%B5%AC-%EB%A7%9D%EB%AF%B8%EB%8F%99/", "workingTime": ["-", "09:30~20:30", "09:30~20:30", "09:30~20:30", "09:30~20:30", "09:30~20:30", "09:30~14:00", "-"]}, {"name": "\uc88b\uc740\uc57d\uad6d", "lat": "35.17634726068875", "lng": "129.10710897116", "url": "/info/%EC%A2%8B%EC%9D%80%EC%95%BD%EA%B5%AD-%EB%B6%80%EC%82%B0%EA%B4%91%EC%97%AD%EC%8B%9C-%EC%88%98%EC%98%81%EA%B5%AC-%EB%A7%9D%EB%AF%B8%EB%8F%99/", "workingTime": ["1,2,3,4,5\uc9f8\uc8fc09:00~17:00", "09:00~18:30", "09:00~18:30", "09:00~18:30", "09:00~18:30", "09:00~18:30", "09:00~13:00", "09:00~13:00"]}, {"name": "\uc9c4\uc57d\uad6d", "lat": "35.1729343751541", "lng": "129.099761267146", "url": "/info/%EC%A7%84%EC%95%BD%EA%B5%AD-%EB%B6%80%EC%82%B0%EA%B4%91%EC%97%AD%EC%8B%9C-%EC%88%98%EC%98%81%EA%B5%AC-%EB%A7%9D%EB%AF%B8%EB%8F%99/", "workingTime": ["-", "08:00~20:00", "08:00~20:00", "08:00~20:00", "08:00~20:00", "08:00~20:00", "08:00~15:00", "-"]}, {"name": "\uc790\uc5f0\uc57d\uad6d", "lat": "35.176716331291", "lng": "129.107546212594", "url": "/info/%EC%9E%90%EC%97%B0%EC%95%BD%EA%B5%AD-%EB%B6%80%EC%82%B0%EA%B4%91%EC%97%AD%EC%8B%9C-%EC%88%98%EC%98%81%EA%B5%AC-%EB%A7%9D%EB%AF%B8%EB%8F%99/", "workingTime": ["-", "09:00~19:00", "09:00~19:00", "09:00~19:00", "09:00~19:00", "09:00~19:00", "09:00~14:00", "-"]}, {"name": "\uc6b0\ub9ac\uc57d\uad6d", "lat": "35.1733943854", "lng": "129.1168619577", "url": "/info/%EC%9A%B0%EB%A6%AC%EC%95%BD%EA%B5%AD-%EB%B6%80%EC%82%B0%EA%B4%91%EC%97%AD%EC%8B%9C-%EC%88%98%EC%98%81%EA%B5%AC-%EB%A7%9D%EB%AF%B8%EB%8F%99/", "workingTime": ["-", "09:00~17:00", "09:00~17:00", "09:00~17:00", "09:00~17:00", "09:00~17:00", "09:00~18:00", "09:00~18:00"]}, {"name": "\uc0bc\uc131\uc57d\uad6d", "lat": "35.1707495799", "lng": "129.1017010363", "url": "/info/%EC%82%BC%EC%84%B1%EC%95%BD%EA%B5%AD-%EB%B6%80%EC%82%B0%EA%B4%91%EC%97%AD%EC%8B%9C-%EC%88%98%EC%98%81%EA%B5%AC-%EB%A7%9D%EB%AF%B8%EB%8F%99/", "workingTime": ["-", "09:00~20:00", "09:00~20:00", "09:00~20:00", "09:00~20:00", "09:00~20:00", "09:00~16:00", "-"]}, {"name": "\ub3d9\ub9bc\uc57d\uad6d", "lat": "35.1739234071", "lng": "129.11691079670166", "url": "/info/%EB%8F%99%EB%A6%BC%EC%95%BD%EA%B5%AD-%EB%B6%80%EC%82%B0%EA%B4%91%EC%97%AD%EC%8B%9C-%EC%88%98%EC%98%81%EA%B5%AC-%EB%A7%9D%EB%AF%B8%EB%8F%99/", "workingTime": ["-", "09:00~21:00", "09:00~21:00", "09:00~21:00", "09:00~21:00", "09:00~21:00", "09:00~21:00", "-"]}, {"name": "\ub3d9\uc0b0\uc57d\uad6d", "lat": "35.17491894157874", "lng": "129.10741285887536", "url": "/info/%EB%8F%99%EC%82%B0%EC%95%BD%EA%B5%AD-%EB%B6%80%EC%82%B0%EA%B4%91%EC%97%AD%EC%8B%9C-%EC%88%98%EC%98%81%EA%B5%AC-%EB%A7%9D%EB%AF%B8%EB%8F%99/", "workingTime": ["-", "09:00~19:00", "09:00~19:00", "09:00~19:00", "09:00~19:00", "09:00~19:00", "09:00~17:00", "09:00~17:00"]}, {"name": "41\ubc88\uae38\uc57d\uad6d", "lat": "35.1751897312", "lng": "129.104440638", "url": "/info/41%EB%B2%88%EA%B8%B8%EC%95%BD%EA%B5%AD-%EB%B6%80%EC%82%B0%EA%B4%91%EC%97%AD%EC%8B%9C-%EC%88%98%EC%98%81%EA%B5%AC-%EB%A7%9D%EB%AF%B8%EB%8F%99/", "workingTime": ["-", "09:00~19:00", "09:00~19:00", "09:00~19:00", "09:00~19:00", "09:00~19:00", "09:00~13:30", "-"]}]