[{"name": "123\uc57d\uad6d", "lat": "35.09960087201154", "lng": "129.01947595071357", "url": "/info/123%EC%95%BD%EA%B5%AD-%EB%B6%80%EC%82%B0%EA%B4%91%EC%97%AD%EC%8B%9C-%EC%84%9C%EA%B5%AC-%EC%95%84%EB%AF%B8%EB%8F%991%EA%B0%80/", "workingTime": ["-", "08:00~18:00", "08:00~18:00", "08:00~18:00", "08:00~18:00", "08:00~18:00", "-", "-"]}, {"name": "\uc6b0\ub9ac\uc57d\uad6d", "lat": "35.09966777373243", "lng": "129.01935478903079", "url": "/info/%EC%9A%B0%EB%A6%AC%EC%95%BD%EA%B5%AD-%EB%B6%80%EC%82%B0%EA%B4%91%EC%97%AD%EC%8B%9C-%EC%84%9C%EA%B5%AC-%EC%95%84%EB%AF%B8%EB%8F%991%EA%B0%80/", "workingTime": ["-", "08:30~18:30", "08:30~18:30", "08:30~18:30", "08:30~18:30", "08:30~18:30", "-", "-"]}, {"name": "\uc2a4\ub9c8\uc77c\uc57d\uad6d", "lat": "35.101566494233126", "lng": "129.01919544203594", "url": "/info/%EC%8A%A4%EB%A7%88%EC%9D%BC%EC%95%BD%EA%B5%AD-%EB%B6%80%EC%82%B0%EA%B4%91%EC%97%AD%EC%8B%9C-%EC%84%9C%EA%B5%AC-%EC%95%84%EB%AF%B8%EB%8F%991%EA%B0%80/", "workingTime": ["-", "08:30~18:00", "08:30~18:00", "08:30~18:00", "08:30~18:00", "08:30~18:00", "-", "-"]}, {"name": "\uc0ac\ub791\uc758\uc57d\uad6d", "lat": "35.099652777777777", "lng": "129.018563888888878", "url": "/info/%EC%82%AC%EB%9E%91%EC%9D%98%EC%95%BD%EA%B5%AD-%EB%B6%80%EC%82%B0%EA%B4%91%EC%97%AD%EC%8B%9C-%EC%84%9C%EA%B5%AC-%EC%95%84%EB%AF%B8%EB%8F%991%EA%B0%80/", "workingTime": ["-", "08:00~18:30", "08:00~18:30", "08:00~18:30", "08:00~18:30", "08:00~18:30", "09:00~16:00", "-"]}, {"name": "\uc0c8\uac74\uac15\uc57d\uad6d", "lat": "35.09964473590676", "lng": "129.01922240098435", "url": "/info/%EC%83%88%EA%B1%B4%EA%B0%95%EC%95%BD%EA%B5%AD-%EB%B6%80%EC%82%B0%EA%B4%91%EC%97%AD%EC%8B%9C-%EC%84%9C%EA%B5%AC-%EC%95%84%EB%AF%B8%EB%8F%991%EA%B0%80/", "workingTime": ["-", "08:00~18:00", "08:00~18:00", "08:00~18:00", "08:00~18:00", "08:00~18:00", "-", "-"]}]