[{"name": "\ud478\ub978\uc57d\uad6d", "lat": "35.3296894684294", "lng": "129.28225707296147", "url": "/info/%ED%91%B8%EB%A5%B8%EC%95%BD%EA%B5%AD-%EB%B6%80%EC%82%B0%EA%B4%91%EC%97%AD%EC%8B%9C-%EA%B8%B0%EC%9E%A5%EA%B5%B0-%EC%9E%A5%EC%95%88%EC%9D%8D/", "workingTime": ["1,2,3,4,5\uc9f8\uc8fc09:00~12:00", "09:00~18:30", "09:00~18:30", "09:00~18:30", "09:00~18:30", "09:00~18:30", "09:00~13:00", "09:00~12:00"]}, {"name": "\ud558\ub098\uc57d\uad6d", "lat": "35.32784679550505", "lng": "129.2787406926787", "url": "/info/%ED%95%98%EB%82%98%EC%95%BD%EA%B5%AD-%EB%B6%80%EC%82%B0%EA%B4%91%EC%97%AD%EC%8B%9C-%EA%B8%B0%EC%9E%A5%EA%B5%B0-%EC%9E%A5%EC%95%88%EC%9D%8D/", "workingTime": ["-", "09:00~18:30", "09:00~18:30", "09:00~18:30", "09:00~18:30", "09:00~18:30", "09:00~13:00", "-"]}, {"name": "\uc911\uc559\uc57d\uad6d", "lat": "35.311548666090324", "lng": "129.24275666270364", "url": "/info/%EC%A4%91%EC%95%99%EC%95%BD%EA%B5%AD-%EB%B6%80%EC%82%B0%EA%B4%91%EC%97%AD%EC%8B%9C-%EA%B8%B0%EC%9E%A5%EA%B5%B0-%EC%9E%A5%EC%95%88%EC%9D%8D/", "workingTime": ["-", "09:00~19:00", "09:00~19:00", "09:00~19:00", "09:00~19:00", "09:00~19:00", "09:00~15:00", "-"]}, {"name": "\uc870\uc740\uc628\ub204\ub9ac\uc57d\uad6d", "lat": "35.32945660821989", "lng": "129.28294545190874", "url": "/info/%EC%A1%B0%EC%9D%80%EC%98%A8%EB%88%84%EB%A6%AC%EC%95%BD%EA%B5%AD-%EB%B6%80%EC%82%B0%EA%B4%91%EC%97%AD%EC%8B%9C-%EA%B8%B0%EC%9E%A5%EA%B5%B0-%EC%9E%A5%EC%95%88%EC%9D%8D/", "workingTime": ["1,2,3,4,5\uc9f8\uc8fc09:00~12:00", "09:00~19:00", "09:00~19:00", "09:00~19:00", "09:00~19:00", "09:00~19:00", "09:00~14:00", "-"]}, {"name": "\uc6d0\uc790\ub825\uac00\ub78c\uc57d\uad6d", "lat": "35.320698188253616", "lng": "129.24209008020466", "url": "/info/%EC%9B%90%EC%9E%90%EB%A0%A5%EA%B0%80%EB%9E%8C%EC%95%BD%EA%B5%AD-%EB%B6%80%EC%82%B0%EA%B4%91%EC%97%AD%EC%8B%9C-%EA%B8%B0%EC%9E%A5%EA%B5%B0-%EC%9E%A5%EC%95%88%EC%9D%8D/", "workingTime": ["-", "09:00~18:30", "09:00~18:30", "09:00~18:30", "09:00~18:30", "09:00~18:30", "-", "-"]}, {"name": "\uc6d0\uc790\ub825\uba54\ub514\uce7c\uc57d\uad6d", "lat": "35.3205637043", "lng": "129.2420520078", "url": "/info/%EC%9B%90%EC%9E%90%EB%A0%A5%EB%A9%94%EB%94%94%EC%B9%BC%EC%95%BD%EA%B5%AD-%EB%B6%80%EC%82%B0%EA%B4%91%EC%97%AD%EC%8B%9C-%EA%B8%B0%EC%9E%A5%EA%B5%B0-%EC%9E%A5%EC%95%88%EC%9D%8D/", "workingTime": ["-", "09:00~18:00", "09:00~18:00", "09:00~18:00", "09:00~18:00", "09:00~18:00", "-", "-"]}, {"name": "\ubc14\ub978\uc57d\uad6d", "lat": "35.3128838129308", "lng": "129.244636918399", "url": "/info/%EB%B0%94%EB%A5%B8%EC%95%BD%EA%B5%AD-%EB%B6%80%EC%82%B0%EA%B4%91%EC%97%AD%EC%8B%9C-%EA%B8%B0%EC%9E%A5%EA%B5%B0-%EC%9E%A5%EC%95%88%EC%9D%8D/", "workingTime": ["-", "09:00~18:30", "09:00~18:30", "09:00~18:30", "09:00~18:30", "09:00~18:30", "09:00~13:00", "-"]}]