[{"name": "\uc0cc\ud2b8\ub7f4\uc774\ub4e0\uc57d\uad6d", "lat": "37.6701892350804", "lng": "127.08149381016", "url": "/info/%EC%83%8C%ED%8A%B8%EB%9F%B4%EC%9D%B4%EB%93%A0%EC%95%BD%EA%B5%AD-%EC%84%9C%EC%9A%B8%ED%8A%B9%EB%B3%84%EC%8B%9C-%EB%85%B8%EC%9B%90%EA%B5%AC-%EC%83%81%EA%B3%84%EB%8F%99/", "workingTime": ["1,2,3,4,5\uc9f8\uc8fc08:30~22:00", "08:30~22:00", "08:30~22:00", "08:30~22:00", "08:30~22:00", "08:30~22:00", "08:30~22:00", "08:30~22:00"]}, {"name": "\uc13c\ud2b8\ub7f4\uc57d\uad6d", "lat": "37.6554272387774", "lng": "127.063889081054", "url": "/info/%EC%84%BC%ED%8A%B8%EB%9F%B4%EC%95%BD%EA%B5%AD-%EC%84%9C%EC%9A%B8%ED%8A%B9%EB%B3%84%EC%8B%9C-%EB%85%B8%EC%9B%90%EA%B5%AC-%EC%83%81%EA%B3%84%EB%8F%99/", "workingTime": ["-", "09:00~18:30", "09:00~18:30", "09:00~18:30", "09:00~18:30", "09:00~18:30", "08:30~14:30", "-"]}, {"name": "\ub178\uc6d0\uc57d\uad6d", "lat": "37.6552194959", "lng": "127.0635116455", "url": "/info/%EB%85%B8%EC%9B%90%EC%95%BD%EA%B5%AD-%EC%84%9C%EC%9A%B8%ED%8A%B9%EB%B3%84%EC%8B%9C-%EB%85%B8%EC%9B%90%EA%B5%AC-%EC%83%81%EA%B3%84%EB%8F%99/", "workingTime": ["-", "09:00~21:15", "09:00~21:00", "09:00~21:15", "09:00~21:00", "09:00~21:15", "09:00~21:00", "-"]}, {"name": "\ube60\ub978\uc57d\uad6d", "lat": "37.6492335099837", "lng": "127.062399341832", "url": "/info/%EB%B9%A0%EB%A5%B8%EC%95%BD%EA%B5%AD-%EC%84%9C%EC%9A%B8%ED%8A%B9%EB%B3%84%EC%8B%9C-%EB%85%B8%EC%9B%90%EA%B5%AC-%EC%83%81%EA%B3%84%EB%8F%99/", "workingTime": ["-", "08:30~17:40", "08:30~17:40", "08:30~17:40", "08:30~17:40", "08:30~17:40", "08:30~12:40", "-"]}, {"name": "\ub178\uc6d04\uce35\uc57d\uad6d", "lat": "37.6638757666572", "lng": "127.076561248854", "url": "/info/%EB%85%B8%EC%9B%904%EC%B8%B5%EC%95%BD%EA%B5%AD-%EC%84%9C%EC%9A%B8%ED%8A%B9%EB%B3%84%EC%8B%9C-%EB%85%B8%EC%9B%90%EA%B5%AC-%EC%83%81%EA%B3%84%EB%8F%99/", "workingTime": ["-", "08:30~18:00", "08:30~18:00", "08:30~18:00", "08:30~18:00", "08:30~18:00", "08:30~13:30", "-"]}, {"name": "\uc790\uc778\ub2f9\uc57d\uad6d", "lat": "37.6548266515952", "lng": "127.064207006912", "url": "/info/%EC%9E%90%EC%9D%B8%EB%8B%B9%EC%95%BD%EA%B5%AD-%EC%84%9C%EC%9A%B8%ED%8A%B9%EB%B3%84%EC%8B%9C-%EB%85%B8%EC%9B%90%EA%B5%AC-%EC%83%81%EA%B3%84%EB%8F%99/", "workingTime": ["2,4\uc9f8\uc8fc13:00~20:00", "09:00~22:30", "09:00~22:30", "09:00~22:30", "09:00~22:30", "09:00~22:30", "09:00~22:30", "09:00~23:30"]}, {"name": "\uc790\uc5f0\uc57d\uad6d", "lat": "37.6735149830938", "lng": "127.05213758455542", "url": "/info/%EC%9E%90%EC%97%B0%EC%95%BD%EA%B5%AD-%EC%84%9C%EC%9A%B8%ED%8A%B9%EB%B3%84%EC%8B%9C-%EB%85%B8%EC%9B%90%EA%B5%AC-%EC%83%81%EA%B3%84%EB%8F%99/", "workingTime": ["-", "09:00~20:00", "09:00~20:00", "09:00~20:00", "09:00~20:00", "09:00~20:00", "09:00~15:00", "-"]}, {"name": "\uc720\ub9bc\uc57d\uad6d", "lat": "37.671560078692316", "lng": "127.05724374796904", "url": "/info/%EC%9C%A0%EB%A6%BC%EC%95%BD%EA%B5%AD-%EC%84%9C%EC%9A%B8%ED%8A%B9%EB%B3%84%EC%8B%9C-%EB%85%B8%EC%9B%90%EA%B5%AC-%EC%83%81%EA%B3%84%EB%8F%99/", "workingTime": ["-", "09:00~22:00", "09:00~22:00", "09:00~22:00", "09:00~22:00", "09:00~22:00", "09:00~22:00", "09:00~22:00"]}, {"name": "\uc544\ub984\ub2e4\uc6b4\uc628\ub204\ub9ac\uc57d\uad6d", "lat": "37.65095432543767", "lng": "127.06187888721843", "url": "/info/%EC%95%84%EB%A6%84%EB%8B%A4%EC%9A%B4%EC%98%A8%EB%88%84%EB%A6%AC%EC%95%BD%EA%B5%AD-%EC%84%9C%EC%9A%B8%ED%8A%B9%EB%B3%84%EC%8B%9C-%EB%85%B8%EC%9B%90%EA%B5%AC-%EC%83%81%EA%B3%84%EB%8F%99/", "workingTime": ["-", "09:00~20:00", "09:00~19:00", "09:00~19:00", "09:00~20:00", "09:00~19:00", "09:00~16:00", "-"]}, {"name": "\ud76c\ub9dd\uc57d\uad6d", "lat": "37.671585355125494", "lng": "127.05713948619149", "url": "/info/%ED%9D%AC%EB%A7%9D%EC%95%BD%EA%B5%AD-%EC%84%9C%EC%9A%B8%ED%8A%B9%EB%B3%84%EC%8B%9C-%EB%85%B8%EC%9B%90%EA%B5%AC-%EC%83%81%EA%B3%84%EB%8F%99/", "workingTime": ["-", "09:00~22:00", "09:00~22:00", "09:00~22:00", "09:00~22:00", "09:00~22:00", "09:00~22:00", "-"]}, {"name": "\uc2dc\uc628\uc57d\uad6d", "lat": "37.66413013465007", "lng": "127.06689673442784", "url": "/info/%EC%8B%9C%EC%98%A8%EC%95%BD%EA%B5%AD-%EC%84%9C%EC%9A%B8%ED%8A%B9%EB%B3%84%EC%8B%9C-%EB%85%B8%EC%9B%90%EA%B5%AC-%EC%83%81%EA%B3%84%EB%8F%99/", "workingTime": ["-", "09:00~20:00", "09:00~20:00", "09:00~20:00", "09:00~20:00", "09:00~20:00", "09:00~15:00", "-"]}, {"name": "\ud61c\uc778\uc57d\uad6d", "lat": "37.66303067482383", "lng": "127.06616501084764", "url": "/info/%ED%98%9C%EC%9D%B8%EC%95%BD%EA%B5%AD-%EC%84%9C%EC%9A%B8%ED%8A%B9%EB%B3%84%EC%8B%9C-%EB%85%B8%EC%9B%90%EA%B5%AC-%EC%83%81%EA%B3%84%EB%8F%99/", "workingTime": ["-", "07:30~21:00", "07:30~21:00", "07:30~21:00", "07:30~21:00", "07:30~21:00", "07:30~21:00", "-"]}, {"name": "\uc218\uc57d\uad6d", "lat": "37.654190849210295", "lng": "127.06144634973074", "url": "/info/%EC%88%98%EC%95%BD%EA%B5%AD-%EC%84%9C%EC%9A%B8%ED%8A%B9%EB%B3%84%EC%8B%9C-%EB%85%B8%EC%9B%90%EA%B5%AC-%EC%83%81%EA%B3%84%EB%8F%99/", "workingTime": ["-", "09:00~20:00", "09:00~19:00", "09:00~19:00", "09:00~19:00", "09:00~19:00", "09:00~16:00", "-"]}, {"name": "\uba54\ub514\ud31c\uc0db\ubcc4\uc57d\uad6d", "lat": "37.666557199847944", "lng": "127.05693387753065", "url": "/info/%EB%A9%94%EB%94%94%ED%8C%9C%EC%83%9B%EB%B3%84%EC%95%BD%EA%B5%AD-%EC%84%9C%EC%9A%B8%ED%8A%B9%EB%B3%84%EC%8B%9C-%EB%85%B8%EC%9B%90%EA%B5%AC-%EC%83%81%EA%B3%84%EB%8F%99/", "workingTime": ["-", "08:30~21:00", "08:30~21:00", "08:30~21:00", "08:30~21:00", "08:30~21:00", "08:30~20:00", "-"]}, {"name": "\uba54\ub514\uce7c\uc57d\uad6d", "lat": "37.666911617005", "lng": "127.057549710711", "url": "/info/%EB%A9%94%EB%94%94%EC%B9%BC%EC%95%BD%EA%B5%AD-%EC%84%9C%EC%9A%B8%ED%8A%B9%EB%B3%84%EC%8B%9C-%EB%85%B8%EC%9B%90%EA%B5%AC-%EC%83%81%EA%B3%84%EB%8F%99/", "workingTime": ["-", "09:00~19:00", "09:00~19:00", "09:00~19:00", "09:00~19:00", "09:00~19:00", "09:00~13:00", "-"]}, {"name": "\ub9c8\ub4e4\ud558\ub098\ub85c\uc57d\uad6d", "lat": "37.66509021948781", "lng": "127.05731357809667", "url": "/info/%EB%A7%88%EB%93%A4%ED%95%98%EB%82%98%EB%A1%9C%EC%95%BD%EA%B5%AD-%EC%84%9C%EC%9A%B8%ED%8A%B9%EB%B3%84%EC%8B%9C-%EB%85%B8%EC%9B%90%EA%B5%AC-%EC%83%81%EA%B3%84%EB%8F%99/", "workingTime": ["-", "09:00~18:30", "09:00~18:30", "09:00~18:30", "09:00~18:30", "09:00~18:30", "09:00~16:30", "-"]}, {"name": "\uc6b0\ub9ac\uc870\uc740\uc57d\uad6d", "lat": "37.6791213093376", "lng": "127.054950932229", "url": "/info/%EC%9A%B0%EB%A6%AC%EC%A1%B0%EC%9D%80%EC%95%BD%EA%B5%AD-%EC%84%9C%EC%9A%B8%ED%8A%B9%EB%B3%84%EC%8B%9C-%EB%85%B8%EC%9B%90%EA%B5%AC-%EC%83%81%EA%B3%84%EB%8F%99/", "workingTime": ["-", "09:00~19:00", "09:00~19:00", "09:00~19:00", "09:00~19:00", "09:00~19:00", "09:00~16:00", "-"]}, {"name": "\ub77c\uc784\uc57d\uad6d", "lat": "37.65487075366666", "lng": "127.06193389823963", "url": "/info/%EB%9D%BC%EC%9E%84%EC%95%BD%EA%B5%AD-%EC%84%9C%EC%9A%B8%ED%8A%B9%EB%B3%84%EC%8B%9C-%EB%85%B8%EC%9B%90%EA%B5%AC-%EC%83%81%EA%B3%84%EB%8F%99/", "workingTime": ["-", "09:00~21:00", "09:00~21:00", "09:00~21:00", "09:00~21:00", "09:00~21:00", "09:00~20:00", "-"]}, {"name": "\ubcf4\ub8e1\uc57d\uad6d", "lat": "37.6517379130228", "lng": "127.061655342952", "url": "/info/%EB%B3%B4%EB%A3%A1%EC%95%BD%EA%B5%AD-%EC%84%9C%EC%9A%B8%ED%8A%B9%EB%B3%84%EC%8B%9C-%EB%85%B8%EC%9B%90%EA%B5%AC-%EC%83%81%EA%B3%84%EB%8F%99/", "workingTime": ["-", "08:00~21:30", "08:00~21:30", "08:00~21:30", "08:00~21:30", "08:00~21:30", "08:00~21:30", "-"]}, {"name": "\uc6a9\ud55c\uc57d\uad6d", "lat": "37.658284789112756", "lng": "127.06162189887505", "url": "/info/%EC%9A%A9%ED%95%9C%EC%95%BD%EA%B5%AD-%EC%84%9C%EC%9A%B8%ED%8A%B9%EB%B3%84%EC%8B%9C-%EB%85%B8%EC%9B%90%EA%B5%AC-%EC%83%81%EA%B3%84%EB%8F%99/", "workingTime": ["-", "09:00~18:00", "09:00~18:00", "09:00~18:00", "09:00~18:00", "09:00~18:00", "-", "-"]}, {"name": "\ud55c\uc2e0\uc57d\uad6d", "lat": "37.6652146251228", "lng": "127.067720533714", "url": "/info/%ED%95%9C%EC%8B%A0%EC%95%BD%EA%B5%AD-%EC%84%9C%EC%9A%B8%ED%8A%B9%EB%B3%84%EC%8B%9C-%EB%85%B8%EC%9B%90%EA%B5%AC-%EC%83%81%EA%B3%84%EB%8F%99/", "workingTime": ["-", "09:00~20:00", "09:00~20:00", "09:00~20:00", "09:00~20:00", "09:00~20:00", "09:00~14:00", "-"]}, {"name": "\ub3d9\ubc29\uc57d\uad6d", "lat": "37.65358575648915", "lng": "127.05879605384791", "url": "/info/%EB%8F%99%EB%B0%A9%EC%95%BD%EA%B5%AD-%EC%84%9C%EC%9A%B8%ED%8A%B9%EB%B3%84%EC%8B%9C-%EB%85%B8%EC%9B%90%EA%B5%AC-%EC%83%81%EA%B3%84%EB%8F%99/", "workingTime": ["-", "09:00~18:30", "09:00~18:30", "09:00~18:30", "09:00~18:30", "09:00~18:30", "09:00~13:30", "-"]}, {"name": "\ud504\ub9ac\ubbf8\uc5c4\uc57d\uad6d", "lat": "37.6552787315469", "lng": "127.061391730931", "url": "/info/%ED%94%84%EB%A6%AC%EB%AF%B8%EC%97%84%EC%95%BD%EA%B5%AD-%EC%84%9C%EC%9A%B8%ED%8A%B9%EB%B3%84%EC%8B%9C-%EB%85%B8%EC%9B%90%EA%B5%AC-%EC%83%81%EA%B3%84%EB%8F%99/", "workingTime": ["1,2,3,4,5\uc9f8\uc8fc10:30~20:30", "10:30~20:00", "10:30~20:00", "10:30~20:00", "10:30~20:00", "10:30~20:00", "10:30~20:30", "-"]}, {"name": "\uc628\ub204\ub9ac\uc57d\uad6d", "lat": "37.6573534252017", "lng": "127.064263353483", "url": "/info/%EC%98%A8%EB%88%84%EB%A6%AC%EC%95%BD%EA%B5%AD-%EC%84%9C%EC%9A%B8%ED%8A%B9%EB%B3%84%EC%8B%9C-%EB%85%B8%EC%9B%90%EA%B5%AC-%EC%83%81%EA%B3%84%EB%8F%99/", "workingTime": ["-", "09:00~20:30", "09:00~20:30", "09:00~20:30", "09:00~20:30", "09:00~20:30", "09:00~18:00", "-"]}, {"name": "\uc628\ub204\ub9ac\ubcf4\ub78c\uc57d\uad6d", "lat": "37.6648233542549", "lng": "127.065441493669", "url": "/info/%EC%98%A8%EB%88%84%EB%A6%AC%EB%B3%B4%EB%9E%8C%EC%95%BD%EA%B5%AD-%EC%84%9C%EC%9A%B8%ED%8A%B9%EB%B3%84%EC%8B%9C-%EB%85%B8%EC%9B%90%EA%B5%AC-%EC%83%81%EA%B3%84%EB%8F%99/", "workingTime": ["-", "08:30~19:30", "08:30~19:30", "08:30~19:30", "08:30~19:30", "08:30~19:30", "08:30~15:00", "-"]}, {"name": "\ud2bc\ud2bc\uc628\ub204\ub9ac\uc57d\uad6d", "lat": "37.671067553410985", "lng": "127.05296558472995", "url": "/info/%ED%8A%BC%ED%8A%BC%EC%98%A8%EB%88%84%EB%A6%AC%EC%95%BD%EA%B5%AD-%EC%84%9C%EC%9A%B8%ED%8A%B9%EB%B3%84%EC%8B%9C-%EB%85%B8%EC%9B%90%EA%B5%AC-%EC%83%81%EA%B3%84%EB%8F%99/", "workingTime": ["-", "09:00~20:00", "09:00~20:00", "09:00~20:00", "09:00~20:00", "09:00~20:00", "09:00~15:00", "-"]}, {"name": "\uc0c1\uc544\uc628\ub204\ub9ac\uc57d\uad6d", "lat": "37.6535741433", "lng": "127.0603825541", "url": "/info/%EC%83%81%EC%95%84%EC%98%A8%EB%88%84%EB%A6%AC%EC%95%BD%EA%B5%AD-%EC%84%9C%EC%9A%B8%ED%8A%B9%EB%B3%84%EC%8B%9C-%EB%85%B8%EC%9B%90%EA%B5%AC-%EC%83%81%EA%B3%84%EB%8F%99/", "workingTime": ["-", "09:00~19:00", "09:00~19:00", "09:00~19:00", "09:00~19:00", "09:00~19:00", "09:00~16:00", "-"]}, {"name": "\uc0c1\uacc4\ud558\ub098\ub85c\uc57d\uad6d", "lat": "37.664873411669795", "lng": "127.06707198476767", "url": "/info/%EC%83%81%EA%B3%84%ED%95%98%EB%82%98%EB%A1%9C%EC%95%BD%EA%B5%AD-%EC%84%9C%EC%9A%B8%ED%8A%B9%EB%B3%84%EC%8B%9C-%EB%85%B8%EC%9B%90%EA%B5%AC-%EC%83%81%EA%B3%84%EB%8F%99/", "workingTime": ["-", "09:00~22:00", "09:00~22:00", "09:00~22:00", "09:00~22:00", "09:00~22:00", "09:00~13:00", "09:00~22:00"]}, {"name": "\uc0c1\uacc4\uc6b0\ub9ac\ub4e4\uc57d\uad6d", "lat": "37.6617025115", "lng": "127.0706391053", "url": "/info/%EC%83%81%EA%B3%84%EC%9A%B0%EB%A6%AC%EB%93%A4%EC%95%BD%EA%B5%AD-%EC%84%9C%EC%9A%B8%ED%8A%B9%EB%B3%84%EC%8B%9C-%EB%85%B8%EC%9B%90%EA%B5%AC-%EC%83%81%EA%B3%84%EB%8F%99/", "workingTime": ["-", "09:00~20:30", "09:00~20:30", "09:00~20:30", "09:00~20:30", "09:00~20:30", "09:00~15:00", "-"]}, {"name": "\ub2f9\uace0\uac1c\uc57d\uad6d", "lat": "37.670864916680856", "lng": "127.07999222965821", "url": "/info/%EB%8B%B9%EA%B3%A0%EA%B0%9C%EC%95%BD%EA%B5%AD-%EC%84%9C%EC%9A%B8%ED%8A%B9%EB%B3%84%EC%8B%9C-%EB%85%B8%EC%9B%90%EA%B5%AC-%EC%83%81%EA%B3%84%EB%8F%99/", "workingTime": ["1\uc9f8\uc8fc09:00~21:00", "09:00~21:30", "09:00~21:30", "09:00~21:30", "09:00~21:30", "09:00~21:30", "09:00~21:30", "-"]}, {"name": "\uc0ac\ub791\uc57d\uad6d", "lat": "37.65428297828178", "lng": "127.06171327977509", "url": "/info/%EC%82%AC%EB%9E%91%EC%95%BD%EA%B5%AD-%EC%84%9C%EC%9A%B8%ED%8A%B9%EB%B3%84%EC%8B%9C-%EB%85%B8%EC%9B%90%EA%B5%AC-%EC%83%81%EA%B3%84%EB%8F%99/", "workingTime": ["-", "09:00~20:00", "09:00~20:00", "09:00~20:00", "09:00~20:00", "09:00~20:00", "09:00~16:00", "-"]}, {"name": "\ucc38\uc870\uc740\uc57d\uad6d", "lat": "37.65670482725474", "lng": "127.06255189889589", "url": "/info/%EC%B0%B8%EC%A1%B0%EC%9D%80%EC%95%BD%EA%B5%AD-%EC%84%9C%EC%9A%B8%ED%8A%B9%EB%B3%84%EC%8B%9C-%EB%85%B8%EC%9B%90%EA%B5%AC-%EC%83%81%EA%B3%84%EB%8F%99/", "workingTime": ["1,2,3,4,5\uc9f8\uc8fc13:00~20:00", "09:00~19:40", "09:00~19:40", "09:00~19:40", "09:00~19:40", "09:00~21:00", "09:00~19:40", "-"]}, {"name": "\ub2e4\uc628\uc57d\uad6d", "lat": "37.65511881214931", "lng": "127.06308999276251", "url": "/info/%EB%8B%A4%EC%98%A8%EC%95%BD%EA%B5%AD-%EC%84%9C%EC%9A%B8%ED%8A%B9%EB%B3%84%EC%8B%9C-%EB%85%B8%EC%9B%90%EA%B5%AC-%EC%83%81%EA%B3%84%EB%8F%99/", "workingTime": ["-", "09:00~21:00", "09:00~21:00", "09:00~21:00", "09:00~21:00", "09:00~21:00", "09:00~21:00", "-"]}, {"name": "\uc9c4\uc57d\uad6d", "lat": "37.653503050802236", "lng": "127.05842429249674", "url": "/info/%EC%A7%84%EC%95%BD%EA%B5%AD-%EC%84%9C%EC%9A%B8%ED%8A%B9%EB%B3%84%EC%8B%9C-%EB%85%B8%EC%9B%90%EA%B5%AC-%EC%83%81%EA%B3%84%EB%8F%99/", "workingTime": ["1,2,3,4,5\uc9f8\uc8fc22:00~25:00", "09:00~25:00", "09:00~25:00", "09:00~25:00", "09:00~25:00", "09:00~25:00", "09:00~25:00", "22:00~25:00"]}, {"name": "\ubd04\uc57d\uad6d", "lat": "37.6530546912153", "lng": "127.06132496680802", "url": "/info/%EB%B4%84%EC%95%BD%EA%B5%AD-%EC%84%9C%EC%9A%B8%ED%8A%B9%EB%B3%84%EC%8B%9C-%EB%85%B8%EC%9B%90%EA%B5%AC-%EC%83%81%EA%B3%84%EB%8F%99/", "workingTime": ["-", "09:00~21:00", "09:00~21:00", "09:00~21:00", "09:00~21:00", "09:00~21:00", "09:00~17:00", "09:00~14:00"]}, {"name": "\uc911\uc559\uc57d\uad6d", "lat": "37.659822788267405", "lng": "127.0698328124771", "url": "/info/%EC%A4%91%EC%95%99%EC%95%BD%EA%B5%AD-%EC%84%9C%EC%9A%B8%ED%8A%B9%EB%B3%84%EC%8B%9C-%EB%85%B8%EC%9B%90%EA%B5%AC-%EC%83%81%EA%B3%84%EB%8F%99/", "workingTime": ["-", "09:00~21:00", "09:00~21:00", "09:00~21:00", "09:00~21:00", "09:00~21:00", "09:00~20:00", "-"]}, {"name": "\ubd04\ubd04\uc57d\uad6d", "lat": "37.6753641032854", "lng": "127.055023769169", "url": "/info/%EB%B4%84%EB%B4%84%EC%95%BD%EA%B5%AD-%EC%84%9C%EC%9A%B8%ED%8A%B9%EB%B3%84%EC%8B%9C-%EB%85%B8%EC%9B%90%EA%B5%AC-%EC%83%81%EA%B3%84%EB%8F%99/", "workingTime": ["-", "09:00~18:30", "09:00~18:30", "09:00~18:30", "09:00~18:30", "09:00~18:30", "09:00~15:00", "-"]}, {"name": "\ubc31\uc57d\uad6d", "lat": "37.6492335099837", "lng": "127.062399341832", "url": "/info/%EB%B0%B1%EC%95%BD%EA%B5%AD-%EC%84%9C%EC%9A%B8%ED%8A%B9%EB%B3%84%EC%8B%9C-%EB%85%B8%EC%9B%90%EA%B5%AC-%EC%83%81%EA%B3%84%EB%8F%99/", "workingTime": ["-", "09:00~17:00", "09:00~17:00", "09:00~17:00", "09:00~17:00", "09:00~17:00", "09:00~13:00", "-"]}, {"name": "\uc7ac\uc131\uc57d\uad6d", "lat": "37.65357247118075", "lng": "127.0584315095592", "url": "/info/%EC%9E%AC%EC%84%B1%EC%95%BD%EA%B5%AD-%EC%84%9C%EC%9A%B8%ED%8A%B9%EB%B3%84%EC%8B%9C-%EB%85%B8%EC%9B%90%EA%B5%AC-%EC%83%81%EA%B3%84%EB%8F%99/", "workingTime": ["-", "09:00~18:00", "09:00~18:00", "09:00~18:00", "09:00~18:00", "09:00~18:00", "09:00~14:00", "-"]}, {"name": "\uc7a5\uc57d\uad6d", "lat": "37.65441391098088", "lng": "127.06218992427037", "url": "/info/%EC%9E%A5%EC%95%BD%EA%B5%AD-%EC%84%9C%EC%9A%B8%ED%8A%B9%EB%B3%84%EC%8B%9C-%EB%85%B8%EC%9B%90%EA%B5%AC-%EC%83%81%EA%B3%84%EB%8F%99/", "workingTime": ["-", "09:30~18:30", "09:30~18:30", "09:30~18:30", "09:30~18:30", "09:30~18:30", "09:30~15:30", "-"]}, {"name": "\uc218\uc131\uc57d\uad6d", "lat": "37.658949999999997", "lng": "127.061408333333333", "url": "/info/%EC%88%98%EC%84%B1%EC%95%BD%EA%B5%AD-%EC%84%9C%EC%9A%B8%ED%8A%B9%EB%B3%84%EC%8B%9C-%EB%85%B8%EC%9B%90%EA%B5%AC-%EC%83%81%EA%B3%84%EB%8F%99/", "workingTime": ["1,2,3,4,5\uc9f8\uc8fc10:00~20:00", "10:00~21:00", "10:00~21:00", "10:00~21:00", "10:00~21:00", "10:00~21:00", "10:00~20:00", "-"]}, {"name": "\uc218\ub77d100\uc138\uc57d\uad6d", "lat": "37.67785282518574", "lng": "127.05494285502522", "url": "/info/%EC%88%98%EB%9D%BD100%EC%84%B8%EC%95%BD%EA%B5%AD-%EC%84%9C%EC%9A%B8%ED%8A%B9%EB%B3%84%EC%8B%9C-%EB%85%B8%EC%9B%90%EA%B5%AC-%EC%83%81%EA%B3%84%EB%8F%99/", "workingTime": ["-", "09:00~21:30", "09:00~21:30", "09:00~21:30", "09:00~21:30", "09:00~21:30", "09:00~21:00", "-"]}, {"name": "\ubbf8\uc18c\uc57d\uad6d", "lat": "37.65698503496", "lng": "127.067610270569", "url": "/info/%EB%AF%B8%EC%86%8C%EC%95%BD%EA%B5%AD-%EC%84%9C%EC%9A%B8%ED%8A%B9%EB%B3%84%EC%8B%9C-%EB%85%B8%EC%9B%90%EA%B5%AC-%EC%83%81%EA%B3%84%EB%8F%99/", "workingTime": ["-", "09:00~19:00", "08:00~19:00", "09:00~19:00", "08:00~19:00", "09:00~19:00", "09:00~16:00", "-"]}, {"name": "\ubbf8\ub798\ud31c\uc57d\uad6d", "lat": "37.65445590936226", "lng": "127.06267693457022", "url": "/info/%EB%AF%B8%EB%9E%98%ED%8C%9C%EC%95%BD%EA%B5%AD-%EC%84%9C%EC%9A%B8%ED%8A%B9%EB%B3%84%EC%8B%9C-%EB%85%B8%EC%9B%90%EA%B5%AC-%EC%83%81%EA%B3%84%EB%8F%99/", "workingTime": ["-", "09:00~19:00", "09:00~19:00", "09:00~19:00", "09:00~19:00", "09:00~19:00", "09:00~17:00", "-"]}, {"name": "\uc190\uc57d\uad6d", "lat": "37.65670482725474", "lng": "127.06255189889589", "url": "/info/%EC%86%90%EC%95%BD%EA%B5%AD-%EC%84%9C%EC%9A%B8%ED%8A%B9%EB%B3%84%EC%8B%9C-%EB%85%B8%EC%9B%90%EA%B5%AC-%EC%83%81%EA%B3%84%EB%8F%99/", "workingTime": ["-", "09:00~18:00", "09:00~18:00", "09:00~18:00", "09:00~13:00", "09:00~18:00", "09:00~13:00", "-"]}, {"name": "\uc18c\ud654\uc57d\uad6d", "lat": "37.67029135939293", "lng": "127.08077597874697", "url": "/info/%EC%86%8C%ED%99%94%EC%95%BD%EA%B5%AD-%EC%84%9C%EC%9A%B8%ED%8A%B9%EB%B3%84%EC%8B%9C-%EB%85%B8%EC%9B%90%EA%B5%AC-%EC%83%81%EA%B3%84%EB%8F%99/", "workingTime": ["-", "09:00~19:00", "09:00~19:00", "09:00~19:00", "09:00~19:00", "09:00~19:00", "09:00~15:30", "-"]}, {"name": "\uc18c\ub2f4\uc57d\uad6d", "lat": "37.65691063817839", "lng": "127.0618177114896", "url": "/info/%EC%86%8C%EB%8B%B4%EC%95%BD%EA%B5%AD-%EC%84%9C%EC%9A%B8%ED%8A%B9%EB%B3%84%EC%8B%9C-%EB%85%B8%EC%9B%90%EA%B5%AC-%EC%83%81%EA%B3%84%EB%8F%99/", "workingTime": ["-", "10:00~17:00", "10:00~17:00", "10:00~17:00", "10:00~17:00", "10:00~17:00", "-", "-"]}, {"name": "\uba54\ub514\ud31c\uc740\uc544\uc57d\uad6d", "lat": "37.67063044289467", "lng": "127.0819345856197", "url": "/info/%EB%A9%94%EB%94%94%ED%8C%9C%EC%9D%80%EC%95%84%EC%95%BD%EA%B5%AD-%EC%84%9C%EC%9A%B8%ED%8A%B9%EB%B3%84%EC%8B%9C-%EB%85%B8%EC%9B%90%EA%B5%AC-%EC%83%81%EA%B3%84%EB%8F%99/", "workingTime": ["-", "09:00~21:00", "09:00~21:00", "09:00~21:00", "09:00~21:00", "09:00~21:00", "09:00~20:30", "-"]}, {"name": "\uc138\uacc4\ub85c\uc57d\uad6d", "lat": "37.65792000168333", "lng": "127.06789296687996", "url": "/info/%EC%84%B8%EA%B3%84%EB%A1%9C%EC%95%BD%EA%B5%AD-%EC%84%9C%EC%9A%B8%ED%8A%B9%EB%B3%84%EC%8B%9C-%EB%85%B8%EC%9B%90%EA%B5%AC-%EC%83%81%EA%B3%84%EB%8F%99/", "workingTime": ["-", "09:00~19:00", "09:00~19:00", "09:00~19:00", "09:00~19:00", "09:00~19:00", "09:00~14:00", "-"]}, {"name": "365\uc815\ud654\uc57d\uad6d", "lat": "37.6561602782805", "lng": "127.06151518884", "url": "/info/365%EC%A0%95%ED%99%94%EC%95%BD%EA%B5%AD-%EC%84%9C%EC%9A%B8%ED%8A%B9%EB%B3%84%EC%8B%9C-%EB%85%B8%EC%9B%90%EA%B5%AC-%EC%83%81%EA%B3%84%EB%8F%99/", "workingTime": ["1,2,3,4,5\uc9f8\uc8fc13:00~21:00", "09:00~22:00", "09:00~22:00", "09:00~22:00", "09:00~22:00", "09:00~22:00", "09:00~23:00", "13:00~23:00"]}, {"name": "\uc11c\ubd80\uc57d\uad6d", "lat": "37.6668881732629", "lng": "127.056844136528", "url": "/info/%EC%84%9C%EB%B6%80%EC%95%BD%EA%B5%AD-%EC%84%9C%EC%9A%B8%ED%8A%B9%EB%B3%84%EC%8B%9C-%EB%85%B8%EC%9B%90%EA%B5%AC-%EC%83%81%EA%B3%84%EB%8F%99/", "workingTime": ["2,5\uc9f8\uc8fc10:00~21:00", "09:00~22:00", "09:00~22:00", "09:00~22:00", "09:00~22:00", "09:00~22:00", "09:00~22:00", "10:00~21:00"]}, {"name": "\uc11c\uacbd\uc57d\uad6d", "lat": "37.6652146251228", "lng": "127.067720533714", "url": "/info/%EC%84%9C%EA%B2%BD%EC%95%BD%EA%B5%AD-%EC%84%9C%EC%9A%B8%ED%8A%B9%EB%B3%84%EC%8B%9C-%EB%85%B8%EC%9B%90%EA%B5%AC-%EC%83%81%EA%B3%84%EB%8F%99/", "workingTime": ["-", "09:00~18:30", "09:00~18:30", "09:00~18:30", "09:00~18:30", "09:00~18:30", "09:00~18:30", "-"]}, {"name": "\uc0c8\ube5b\uc57d\uad6d", "lat": "37.6538310278932", "lng": "127.06017787506", "url": "/info/%EC%83%88%EB%B9%9B%EC%95%BD%EA%B5%AD-%EC%84%9C%EC%9A%B8%ED%8A%B9%EB%B3%84%EC%8B%9C-%EB%85%B8%EC%9B%90%EA%B5%AC-%EC%83%81%EA%B3%84%EB%8F%99/", "workingTime": ["-", "09:00~21:00", "09:00~21:00", "09:00~21:00", "09:00~21:00", "09:00~21:00", "09:00~17:00", "09:00~15:00"]}, {"name": "\ub298\ud55c\ub9c8\uc74c\uc57d\uad6d", "lat": "37.654537708996", "lng": "127.063033065964", "url": "/info/%EB%8A%98%ED%95%9C%EB%A7%88%EC%9D%8C%EC%95%BD%EA%B5%AD-%EC%84%9C%EC%9A%B8%ED%8A%B9%EB%B3%84%EC%8B%9C-%EB%85%B8%EC%9B%90%EA%B5%AC-%EC%83%81%EA%B3%84%EB%8F%99/", "workingTime": ["1,2,3,4,5\uc9f8\uc8fc09:00~22:00", "09:00~22:00", "09:00~22:00", "09:00~22:00", "09:00~22:00", "09:00~22:00", "09:00~22:00", "09:00~22:00"]}, {"name": "\ub178\uc6d0\ud589\ubcf5\ud55c\uc57d\uad6d", "lat": "37.65650429739843", "lng": "127.06194684161281", "url": "/info/%EB%85%B8%EC%9B%90%ED%96%89%EB%B3%B5%ED%95%9C%EC%95%BD%EA%B5%AD-%EC%84%9C%EC%9A%B8%ED%8A%B9%EB%B3%84%EC%8B%9C-%EB%85%B8%EC%9B%90%EA%B5%AC-%EC%83%81%EA%B3%84%EB%8F%99/", "workingTime": ["-", "09:00~18:30", "09:00~18:30", "09:00~18:30", "09:00~18:30", "09:00~18:30", "09:00~13:30", "-"]}, {"name": "\ub178\uc6d0\ud504\ub77c\uc790\uc57d\uad6d", "lat": "37.64875488265584", "lng": "127.06193335183242", "url": "/info/%EB%85%B8%EC%9B%90%ED%94%84%EB%9D%BC%EC%9E%90%EC%95%BD%EA%B5%AD-%EC%84%9C%EC%9A%B8%ED%8A%B9%EB%B3%84%EC%8B%9C-%EB%85%B8%EC%9B%90%EA%B5%AC-%EC%83%81%EA%B3%84%EB%8F%99/", "workingTime": ["-", "09:00~20:00", "09:00~20:00", "09:00~20:00", "09:00~20:00", "09:00~20:00", "09:00~14:00", "-"]}, {"name": "\ub178\uc6d0\uba54\ub514\uce7c\uc57d\uad6d", "lat": "37.65356513919111", "lng": "127.06037123548728", "url": "/info/%EB%85%B8%EC%9B%90%EB%A9%94%EB%94%94%EC%B9%BC%EC%95%BD%EA%B5%AD-%EC%84%9C%EC%9A%B8%ED%8A%B9%EB%B3%84%EC%8B%9C-%EB%85%B8%EC%9B%90%EA%B5%AC-%EC%83%81%EA%B3%84%EB%8F%99/", "workingTime": ["-", "09:00~19:00", "09:00~19:00", "09:00~19:00", "09:00~19:00", "09:00~19:00", "09:00~16:00", "-"]}, {"name": "\ub0a8\ubd81\uc57d\uad6d", "lat": "37.659274711738455", "lng": "127.0703218952253", "url": "/info/%EB%82%A8%EB%B6%81%EC%95%BD%EA%B5%AD-%EC%84%9C%EC%9A%B8%ED%8A%B9%EB%B3%84%EC%8B%9C-%EB%85%B8%EC%9B%90%EA%B5%AC-%EC%83%81%EA%B3%84%EB%8F%99/", "workingTime": ["-", "09:00~21:00", "09:00~21:00", "09:00~21:00", "09:00~21:00", "09:00~21:00", "09:00~20:00", "-"]}, {"name": "\ub098\ud604\uc57d\uad6d", "lat": "37.65642512639929", "lng": "127.0696889837409", "url": "/info/%EB%82%98%ED%98%84%EC%95%BD%EA%B5%AD-%EC%84%9C%EC%9A%B8%ED%8A%B9%EB%B3%84%EC%8B%9C-%EB%85%B8%EC%9B%90%EA%B5%AC-%EC%83%81%EA%B3%84%EB%8F%99/", "workingTime": ["1,2,3,4,5\uc9f8\uc8fc10:00~25:00", "09:30~25:00", "09:30~25:00", "09:30~25:00", "09:30~25:00", "09:30~25:00", "10:00~25:00", "10:00~25:00"]}, {"name": "\ub098\ub214\uc57d\uad6d", "lat": "37.652122636", "lng": "127.0654943724", "url": "/info/%EB%82%98%EB%88%94%EC%95%BD%EA%B5%AD-%EC%84%9C%EC%9A%B8%ED%8A%B9%EB%B3%84%EC%8B%9C-%EB%85%B8%EC%9B%90%EA%B5%AC-%EC%83%81%EA%B3%84%EB%8F%99/", "workingTime": ["-", "09:00~18:00", "09:00~18:00", "09:00~18:00", "09:00~18:00", "09:00~18:00", "09:00~14:00", "-"]}, {"name": "\uae38\uc57d\uad6d", "lat": "37.670328206083695", "lng": "127.07958813625349", "url": "/info/%EA%B8%B8%EC%95%BD%EA%B5%AD-%EC%84%9C%EC%9A%B8%ED%8A%B9%EB%B3%84%EC%8B%9C-%EB%85%B8%EC%9B%90%EA%B5%AC-%EC%83%81%EA%B3%84%EB%8F%99/", "workingTime": ["-", "09:00~18:30", "09:00~18:30", "09:00~18:30", "09:00~18:30", "09:00~18:30", "09:00~13:00", "-"]}, {"name": "\uae30\uc068\uc57d\uad6d", "lat": "37.65808013141821", "lng": "127.07136097838916", "url": "/info/%EA%B8%B0%EC%81%A8%EC%95%BD%EA%B5%AD-%EC%84%9C%EC%9A%B8%ED%8A%B9%EB%B3%84%EC%8B%9C-%EB%85%B8%EC%9B%90%EA%B5%AC-%EC%83%81%EA%B3%84%EB%8F%99/", "workingTime": ["-", "09:00~21:00", "09:00~21:00", "09:00~21:00", "09:00~21:00", "09:00~21:00", "09:00~18:00", "-"]}, {"name": "\uc62c\ubc14\ub978\uc57d\uad6d", "lat": "37.6616423693886", "lng": "127.058001700205", "url": "/info/%EC%98%AC%EB%B0%94%EB%A5%B8%EC%95%BD%EA%B5%AD-%EC%84%9C%EC%9A%B8%ED%8A%B9%EB%B3%84%EC%8B%9C-%EB%85%B8%EC%9B%90%EA%B5%AC-%EC%83%81%EA%B3%84%EB%8F%99/", "workingTime": ["-", "10:00~21:00", "10:00~21:00", "10:00~21:00", "10:00~21:00", "10:00~21:00", "10:00~20:00", "-"]}, {"name": "\ub4dc\ub9bc\uc57d\uad6d", "lat": "37.6781841932825", "lng": "127.054968378566", "url": "/info/%EB%93%9C%EB%A6%BC%EC%95%BD%EA%B5%AD-%EC%84%9C%EC%9A%B8%ED%8A%B9%EB%B3%84%EC%8B%9C-%EB%85%B8%EC%9B%90%EA%B5%AC-%EC%83%81%EA%B3%84%EB%8F%99/", "workingTime": ["-", "09:00~20:00", "09:00~20:00", "09:00~20:00", "09:00~20:00", "09:00~20:00", "09:00~17:00", "-"]}, {"name": "\uac74\uac15\ud55c\uc0dd\ud65c\uc57d\uad6d", "lat": "37.6544097398982", "lng": "127.062410925814", "url": "/info/%EA%B1%B4%EA%B0%95%ED%95%9C%EC%83%9D%ED%99%9C%EC%95%BD%EA%B5%AD-%EC%84%9C%EC%9A%B8%ED%8A%B9%EB%B3%84%EC%8B%9C-%EB%85%B8%EC%9B%90%EA%B5%AC-%EC%83%81%EA%B3%84%EB%8F%99/", "workingTime": ["-", "09:30~19:00", "09:30~19:00", "09:30~19:00", "09:30~19:00", "09:30~19:00", "09:30~16:00", "-"]}, {"name": "\uc870\uc740\uc57d\uad6d", "lat": "37.6642100148", "lng": "127.06584047259999", "url": "/info/%EC%A1%B0%EC%9D%80%EC%95%BD%EA%B5%AD-%EC%84%9C%EC%9A%B8%ED%8A%B9%EB%B3%84%EC%8B%9C-%EB%85%B8%EC%9B%90%EA%B5%AC-%EC%83%81%EA%B3%84%EB%8F%99/", "workingTime": ["-", "09:00~19:00", "09:00~19:00", "09:00~19:00", "09:00~19:00", "09:00~19:00", "09:00~14:30", "-"]}, {"name": "\uc885\ub85c\ud504\ub77c\uc790\uc57d\uad6d", "lat": "37.6494218072", "lng": "127.0615576764", "url": "/info/%EC%A2%85%EB%A1%9C%ED%94%84%EB%9D%BC%EC%9E%90%EC%95%BD%EA%B5%AD-%EC%84%9C%EC%9A%B8%ED%8A%B9%EB%B3%84%EC%8B%9C-%EB%85%B8%EC%9B%90%EA%B5%AC-%EC%83%81%EA%B3%84%EB%8F%99/", "workingTime": ["-", "09:00~19:30", "09:00~19:30", "09:00~19:30", "09:00~19:30", "09:00~19:30", "09:00~13:00", "-"]}, {"name": "\ud0dc\uc591\ud504\ub77c\uc790\uc57d\uad6d", "lat": "37.66634705044976", "lng": "127.0778248248462", "url": "/info/%ED%83%9C%EC%96%91%ED%94%84%EB%9D%BC%EC%9E%90%EC%95%BD%EA%B5%AD-%EC%84%9C%EC%9A%B8%ED%8A%B9%EB%B3%84%EC%8B%9C-%EB%85%B8%EC%9B%90%EA%B5%AC-%EC%83%81%EA%B3%84%EB%8F%99/", "workingTime": ["-", "09:00~19:00", "09:00~19:00", "09:00~19:00", "09:00~19:00", "09:00~19:00", "09:00~14:00", "-"]}, {"name": "\ud55c\uc0d8\uc57d\uad6d", "lat": "37.65893935338161", "lng": "127.07065704058243", "url": "/info/%ED%95%9C%EC%83%98%EC%95%BD%EA%B5%AD-%EC%84%9C%EC%9A%B8%ED%8A%B9%EB%B3%84%EC%8B%9C-%EB%85%B8%EC%9B%90%EA%B5%AC-%EC%83%81%EA%B3%84%EB%8F%99/", "workingTime": ["-", "09:00~19:30", "09:00~19:30", "09:00~19:30", "09:00~19:30", "09:00~19:30", "09:00~15:00", "-"]}, {"name": "\ud558\ub2d8\uc57d\uad6d", "lat": "37.6612516612", "lng": "127.0712370804", "url": "/info/%ED%95%98%EB%8B%98%EC%95%BD%EA%B5%AD-%EC%84%9C%EC%9A%B8%ED%8A%B9%EB%B3%84%EC%8B%9C-%EB%85%B8%EC%9B%90%EA%B5%AC-%EC%83%81%EA%B3%84%EB%8F%99/", "workingTime": ["-", "09:00~22:30", "09:00~22:30", "09:00~22:30", "09:00~22:30", "09:00~22:30", "09:00~22:00", "09:00~21:30"]}, {"name": "\ud558\ub298\uc57d\uad6d", "lat": "37.650039154091054", "lng": "127.06144754655011", "url": "/info/%ED%95%98%EB%8A%98%EC%95%BD%EA%B5%AD-%EC%84%9C%EC%9A%B8%ED%8A%B9%EB%B3%84%EC%8B%9C-%EB%85%B8%EC%9B%90%EA%B5%AC-%EC%83%81%EA%B3%84%EB%8F%99/", "workingTime": ["-", "08:30~19:30", "08:30~19:30", "08:30~19:30", "08:30~19:30", "08:30~19:30", "08:30~17:00", "-"]}, {"name": "\ucc38\ub9d0\ub85c\uce5c\uc808\ud55c\uc57d\uad6d", "lat": "37.6519946559803", "lng": "127.061553907446", "url": "/info/%EC%B0%B8%EB%A7%90%EB%A1%9C%EC%B9%9C%EC%A0%88%ED%95%9C%EC%95%BD%EA%B5%AD-%EC%84%9C%EC%9A%B8%ED%8A%B9%EB%B3%84%EC%8B%9C-%EB%85%B8%EC%9B%90%EA%B5%AC-%EC%83%81%EA%B3%84%EB%8F%99/", "workingTime": ["-", "09:00~20:00", "09:00~20:00", "09:00~20:00", "09:00~20:00", "09:00~20:00", "09:00~16:00", "-"]}, {"name": "\ud3c9\uac15\uc0c1\ub85d\uc218\uc57d\uad6d", "lat": "37.66637779612679", "lng": "127.05700412528469", "url": "/info/%ED%8F%89%EA%B0%95%EC%83%81%EB%A1%9D%EC%88%98%EC%95%BD%EA%B5%AD-%EC%84%9C%EC%9A%B8%ED%8A%B9%EB%B3%84%EC%8B%9C-%EB%85%B8%EC%9B%90%EA%B5%AC-%EC%83%81%EA%B3%84%EB%8F%99/", "workingTime": ["4\uc9f8\uc8fc10:00~19:00", "09:30~19:00", "09:30~19:00", "09:30~19:00", "09:30~19:00", "09:30~19:00", "08:30~21:00", "-"]}, {"name": "\uc885\ub85c\ubaa8\ubc94\uc57d\uad6d", "lat": "37.66277300922759", "lng": "127.07621625460985", "url": "/info/%EC%A2%85%EB%A1%9C%EB%AA%A8%EB%B2%94%EC%95%BD%EA%B5%AD-%EC%84%9C%EC%9A%B8%ED%8A%B9%EB%B3%84%EC%8B%9C-%EB%85%B8%EC%9B%90%EA%B5%AC-%EC%83%81%EA%B3%84%EB%8F%99/", "workingTime": ["1,2,3,4,5\uc9f8\uc8fc16:00~19:00", "09:00~21:00", "09:00~21:00", "09:00~21:00", "09:00~21:00", "09:00~21:00", "09:30~21:00", "-"]}, {"name": "\uce5c\uc808\ud55c\uc57d\uad6d", "lat": "37.654311624600744", "lng": "127.05769321223707", "url": "/info/%EC%B9%9C%EC%A0%88%ED%95%9C%EC%95%BD%EA%B5%AD-%EC%84%9C%EC%9A%B8%ED%8A%B9%EB%B3%84%EC%8B%9C-%EB%85%B8%EC%9B%90%EA%B5%AC-%EC%83%81%EA%B3%84%EB%8F%99/", "workingTime": ["-", "09:00~14:00", "09:00~14:00", "09:00~14:00", "09:00~14:00", "09:00~14:00", "09:00~15:00", "-"]}, {"name": "\uc740\ube5b\uc57d\uad6d", "lat": "37.68068242379998", "lng": "127.0538022395", "url": "/info/%EC%9D%80%EB%B9%9B%EC%95%BD%EA%B5%AD-%EC%84%9C%EC%9A%B8%ED%8A%B9%EB%B3%84%EC%8B%9C-%EB%85%B8%EC%9B%90%EA%B5%AC-%EC%83%81%EA%B3%84%EB%8F%99/", "workingTime": ["-", "09:00~19:30", "09:00~19:30", "09:00~19:30", "09:00~19:30", "09:00~19:30", "09:00~16:30", "-"]}, {"name": "\uc601\uc2e0\uc57d\uad6d", "lat": "37.663045154064484", "lng": "127.07329700580061", "url": "/info/%EC%98%81%EC%8B%A0%EC%95%BD%EA%B5%AD-%EC%84%9C%EC%9A%B8%ED%8A%B9%EB%B3%84%EC%8B%9C-%EB%85%B8%EC%9B%90%EA%B5%AC-%EC%83%81%EA%B3%84%EB%8F%99/", "workingTime": ["-", "09:00~18:30", "09:00~18:30", "09:00~18:30", "09:00~18:30", "09:00~18:30", "09:00~15:00", "-"]}, {"name": "\uc5f4\ubc29\uc57d\uad6d", "lat": "37.6668666051286", "lng": "127.07829575877386", "url": "/info/%EC%97%B4%EB%B0%A9%EC%95%BD%EA%B5%AD-%EC%84%9C%EC%9A%B8%ED%8A%B9%EB%B3%84%EC%8B%9C-%EB%85%B8%EC%9B%90%EA%B5%AC-%EC%83%81%EA%B3%84%EB%8F%99/", "workingTime": ["-", "09:00~18:00", "09:00~18:00", "09:00~18:00", "09:00~18:00", "09:00~18:00", "09:00~13:00", "-"]}, {"name": "\uc5f0\uc218\uc57d\uad6d", "lat": "37.656355407036685", "lng": "127.06224789120318", "url": "/info/%EC%97%B0%EC%88%98%EC%95%BD%EA%B5%AD-%EC%84%9C%EC%9A%B8%ED%8A%B9%EB%B3%84%EC%8B%9C-%EB%85%B8%EC%9B%90%EA%B5%AC-%EC%83%81%EA%B3%84%EB%8F%99/", "workingTime": ["-", "09:00~18:30", "09:00~18:30", "09:00~18:30", "09:00~18:30", "09:00~18:30", "09:00~16:00", "-"]}, {"name": "\uc5f0\uc138\uc57d\uad6d", "lat": "37.65443886199623", "lng": "127.06272482672648", "url": "/info/%EC%97%B0%EC%84%B8%EC%95%BD%EA%B5%AD-%EC%84%9C%EC%9A%B8%ED%8A%B9%EB%B3%84%EC%8B%9C-%EB%85%B8%EC%9B%90%EA%B5%AC-%EC%83%81%EA%B3%84%EB%8F%99/", "workingTime": ["-", "09:00~19:00", "09:00~19:00", "09:00~19:00", "09:00~19:00", "09:00~19:00", "09:00~17:00", "-"]}, {"name": "\uc2f1\uc2f1\uc57d\uad6d", "lat": "37.671189928256666", "lng": "127.05716640232907", "url": "/info/%EC%8B%B1%EC%8B%B1%EC%95%BD%EA%B5%AD-%EC%84%9C%EC%9A%B8%ED%8A%B9%EB%B3%84%EC%8B%9C-%EB%85%B8%EC%9B%90%EA%B5%AC-%EC%83%81%EA%B3%84%EB%8F%99/", "workingTime": ["-", "09:00~19:00", "09:00~19:00", "09:00~19:00", "09:00~19:00", "09:00~19:00", "09:00~16:00", "-"]}, {"name": "\uc0c1\uacc4\ub3d9\ubb38\uc57d\uad6d", "lat": "37.64940801908444", "lng": "127.06233089527385", "url": "/info/%EC%83%81%EA%B3%84%EB%8F%99%EB%AC%B8%EC%95%BD%EA%B5%AD-%EC%84%9C%EC%9A%B8%ED%8A%B9%EB%B3%84%EC%8B%9C-%EB%85%B8%EC%9B%90%EA%B5%AC-%EC%83%81%EA%B3%84%EB%8F%99/", "workingTime": ["-", "08:30~20:00", "08:30~20:00", "08:30~20:00", "08:30~20:00", "08:30~20:00", "08:30~15:00", "-"]}, {"name": "\uc0c1\uacc4\ub204\ub9ac\uc57d\uad6d", "lat": "37.678084930069296", "lng": "127.05568668461933", "url": "/info/%EC%83%81%EA%B3%84%EB%88%84%EB%A6%AC%EC%95%BD%EA%B5%AD-%EC%84%9C%EC%9A%B8%ED%8A%B9%EB%B3%84%EC%8B%9C-%EB%85%B8%EC%9B%90%EA%B5%AC-%EC%83%81%EA%B3%84%EB%8F%99/", "workingTime": ["1,2,3,4,5\uc9f8\uc8fc09:00~21:00", "09:00~21:00", "09:00~21:00", "09:00~21:00", "09:00~21:00", "09:00~21:00", "09:00~21:00", "-"]}, {"name": "\uc218\ub77d\ud504\ub77c\uc790\uc57d\uad6d", "lat": "37.6774600218", "lng": "127.0548926877", "url": "/info/%EC%88%98%EB%9D%BD%ED%94%84%EB%9D%BC%EC%9E%90%EC%95%BD%EA%B5%AD-%EC%84%9C%EC%9A%B8%ED%8A%B9%EB%B3%84%EC%8B%9C-%EB%85%B8%EC%9B%90%EA%B5%AC-%EC%83%81%EA%B3%84%EB%8F%99/", "workingTime": ["1,2,3,4,5\uc9f8\uc8fc09:00~22:00", "09:00~22:30", "09:00~22:30", "09:00~22:30", "09:00~22:30", "09:00~22:30", "09:00~22:30", "09:00~22:00"]}, {"name": "\ub9c8\uc74c\uc57d\uad6d", "lat": "37.6550699793", "lng": "127.0599803306", "url": "/info/%EB%A7%88%EC%9D%8C%EC%95%BD%EA%B5%AD-%EC%84%9C%EC%9A%B8%ED%8A%B9%EB%B3%84%EC%8B%9C-%EB%85%B8%EC%9B%90%EA%B5%AC-%EC%83%81%EA%B3%84%EB%8F%99/", "workingTime": ["-", "09:00~19:00", "09:00~19:00", "09:00~19:00", "09:00~19:00", "09:00~19:00", "-", "-"]}, {"name": "\ub9c8\ub4e4\ud55c\uc911\uc57d\uad6d", "lat": "37.6650902195", "lng": "127.0573135781", "url": "/info/%EB%A7%88%EB%93%A4%ED%95%9C%EC%A4%91%EC%95%BD%EA%B5%AD-%EC%84%9C%EC%9A%B8%ED%8A%B9%EB%B3%84%EC%8B%9C-%EB%85%B8%EC%9B%90%EA%B5%AC-%EC%83%81%EA%B3%84%EB%8F%99/", "workingTime": ["-", "07:30~21:00", "07:30~21:00", "07:30~21:00", "07:30~21:00", "07:30~21:00", "09:30~18:30", "-"]}, {"name": "\ub9c8\ub4e4\uc18c\ub9dd\uc57d\uad6d", "lat": "37.66506464404276", "lng": "127.05802533092728", "url": "/info/%EB%A7%88%EB%93%A4%EC%86%8C%EB%A7%9D%EC%95%BD%EA%B5%AD-%EC%84%9C%EC%9A%B8%ED%8A%B9%EB%B3%84%EC%8B%9C-%EB%85%B8%EC%9B%90%EA%B5%AC-%EC%83%81%EA%B3%84%EB%8F%99/", "workingTime": ["-", "09:00~18:30", "09:00~18:30", "09:00~18:30", "09:00~18:30", "09:00~18:30", "09:00~15:00", "-"]}, {"name": "\ubc31\uacbd\uc57d\uad6d", "lat": "37.653441052112996", "lng": "127.05988382998836", "url": "/info/%EB%B0%B1%EA%B2%BD%EC%95%BD%EA%B5%AD-%EC%84%9C%EC%9A%B8%ED%8A%B9%EB%B3%84%EC%8B%9C-%EB%85%B8%EC%9B%90%EA%B5%AC-%EC%83%81%EA%B3%84%EB%8F%99/", "workingTime": ["-", "08:30~20:30", "08:30~20:30", "08:30~20:30", "08:30~20:30", "08:30~20:30", "08:30~18:00", "-"]}, {"name": "\ub3d9\uc77c\uc57d\uad6d", "lat": "37.648326981372705", "lng": "127.06207165983515", "url": "/info/%EB%8F%99%EC%9D%BC%EC%95%BD%EA%B5%AD-%EC%84%9C%EC%9A%B8%ED%8A%B9%EB%B3%84%EC%8B%9C-%EB%85%B8%EC%9B%90%EA%B5%AC-%EC%83%81%EA%B3%84%EB%8F%99/", "workingTime": ["-", "09:00~16:00", "09:00~16:00", "09:00~16:00", "09:00~16:00", "09:00~16:00", "09:00~16:00", "-"]}, {"name": "\ubbf8\uc158\uc57d\uad6d", "lat": "37.665311111111109", "lng": "127.057127777777779", "url": "/info/%EB%AF%B8%EC%85%98%EC%95%BD%EA%B5%AD-%EC%84%9C%EC%9A%B8%ED%8A%B9%EB%B3%84%EC%8B%9C-%EB%85%B8%EC%9B%90%EA%B5%AC-%EC%83%81%EA%B3%84%EB%8F%99/", "workingTime": ["-", "09:00~21:00", "09:00~21:00", "09:00~21:00", "09:00~21:00", "09:00~21:00", "09:00~15:00", "-"]}, {"name": "\ubbf8\ub798\uc57d\uad6d", "lat": "37.65707814842563", "lng": "127.06280778631475", "url": "/info/%EB%AF%B8%EB%9E%98%EC%95%BD%EA%B5%AD-%EC%84%9C%EC%9A%B8%ED%8A%B9%EB%B3%84%EC%8B%9C-%EB%85%B8%EC%9B%90%EA%B5%AC-%EC%83%81%EA%B3%84%EB%8F%99/", "workingTime": ["-", "09:00~21:00", "09:00~21:00", "09:00~21:00", "09:00~21:00", "09:00~21:00", "09:00~18:00", "11:00~17:00"]}, {"name": "\ub2e4\ubaa8\uc544\uc57d\uad6d", "lat": "37.651804350865035", "lng": "127.0608933248398", "url": "/info/%EB%8B%A4%EB%AA%A8%EC%95%84%EC%95%BD%EA%B5%AD-%EC%84%9C%EC%9A%B8%ED%8A%B9%EB%B3%84%EC%8B%9C-%EB%85%B8%EC%9B%90%EA%B5%AC-%EC%83%81%EA%B3%84%EB%8F%99/", "workingTime": ["-", "08:30~16:00", "08:30~16:00", "08:30~16:00", "08:30~16:00", "08:30~16:00", "08:30~16:00", "-"]}, {"name": "\ub274\ud06c\ub85c\ubc14\uc57d\uad6d", "lat": "37.68710853495802", "lng": "127.05305861870907", "url": "/info/%EB%89%B4%ED%81%AC%EB%A1%9C%EB%B0%94%EC%95%BD%EA%B5%AD-%EC%84%9C%EC%9A%B8%ED%8A%B9%EB%B3%84%EC%8B%9C-%EB%85%B8%EC%9B%90%EA%B5%AC-%EC%83%81%EA%B3%84%EB%8F%99/", "workingTime": ["-", "10:00~17:00", "10:00~17:00", "10:00~17:00", "10:00~17:00", "10:00~17:00", "09:00~17:00", "-"]}, {"name": "\ubc14\ub2e4\uc57d\uad6d", "lat": "37.6500649811573", "lng": "127.061284207288", "url": "/info/%EB%B0%94%EB%8B%A4%EC%95%BD%EA%B5%AD-%EC%84%9C%EC%9A%B8%ED%8A%B9%EB%B3%84%EC%8B%9C-%EB%85%B8%EC%9B%90%EA%B5%AC-%EC%83%81%EA%B3%84%EB%8F%99/", "workingTime": ["-", "08:30~18:30", "08:30~18:30", "08:30~18:30", "08:30~18:30", "08:30~18:30", "08:30~14:30", "-"]}, {"name": "\uc0c1\uacc4\uc628\ub204\ub9ac\uc57d\uad6d", "lat": "37.6666919810414", "lng": "127.079126011496", "url": "/info/%EC%83%81%EA%B3%84%EC%98%A8%EB%88%84%EB%A6%AC%EC%95%BD%EA%B5%AD-%EC%84%9C%EC%9A%B8%ED%8A%B9%EB%B3%84%EC%8B%9C-%EB%85%B8%EC%9B%90%EA%B5%AC-%EC%83%81%EA%B3%84%EB%8F%99/", "workingTime": ["-", "09:00~20:00", "09:00~20:00", "09:00~20:00", "09:00~20:00", "09:00~20:00", "09:00~18:00", "-"]}, {"name": "\uac74\uac15\ud50c\ub7ec\uc2a4\uc57d\uad6d", "lat": "37.6577009163017", "lng": "127.0617030240227", "url": "/info/%EA%B1%B4%EA%B0%95%ED%94%8C%EB%9F%AC%EC%8A%A4%EC%95%BD%EA%B5%AD-%EC%84%9C%EC%9A%B8%ED%8A%B9%EB%B3%84%EC%8B%9C-%EB%85%B8%EC%9B%90%EA%B5%AC-%EC%83%81%EA%B3%84%EB%8F%99/", "workingTime": ["1,2,3,4,5\uc9f8\uc8fc09:00~13:00", "09:00~21:00", "09:00~21:00", "09:00~21:00", "09:00~21:00", "09:00~21:00", "09:00~22:00", "-"]}, {"name": "\uac74\uac15\uc0d8\uc628\ub204\ub9ac\uc57d\uad6d", "lat": "37.6784447021", "lng": "127.0531204639", "url": "/info/%EA%B1%B4%EA%B0%95%EC%83%98%EC%98%A8%EB%88%84%EB%A6%AC%EC%95%BD%EA%B5%AD-%EC%84%9C%EC%9A%B8%ED%8A%B9%EB%B3%84%EC%8B%9C-%EB%85%B8%EC%9B%90%EA%B5%AC-%EC%83%81%EA%B3%84%EB%8F%99/", "workingTime": ["-", "08:30~20:00", "08:30~20:00", "08:30~20:00", "08:30~20:00", "08:30~20:00", "-", "-"]}, {"name": "21\uc138\uae30\uc0c1\uacc4\uc57d\uad6d", "lat": "37.66663704621592", "lng": "127.05763580861266", "url": "/info/21%EC%84%B8%EA%B8%B0%EC%83%81%EA%B3%84%EC%95%BD%EA%B5%AD-%EC%84%9C%EC%9A%B8%ED%8A%B9%EB%B3%84%EC%8B%9C-%EB%85%B8%EC%9B%90%EA%B5%AC-%EC%83%81%EA%B3%84%EB%8F%99/", "workingTime": ["1,3\uc9f8\uc8fc10:00~19:00", "08:00~21:00", "08:00~21:00", "08:00~21:00", "08:00~21:00", "08:00~21:00", "08:00~21:00", "-"]}]