[{"name": "\uc778\uc560\uc57d\uad6d", "lat": "37.513465648336926", "lng": "127.11452154894289", "url": "/info/%EC%9D%B8%EC%95%A0%EC%95%BD%EA%B5%AD-%EC%84%9C%EC%9A%B8%ED%8A%B9%EB%B3%84%EC%8B%9C-%EB%8F%99%EB%8C%80%EB%AC%B8%EA%B5%AC-%ED%9C%98%EA%B2%BD%EB%8F%99/", "workingTime": ["-", "08:30~19:30", "08:30~19:30", "08:30~19:30", "08:30~19:30", "08:30~19:30", "09:00~17:00", "-"]}, {"name": "\uc601\ub9bc\uc57d\uad6d", "lat": "37.590513583708", "lng": "127.062301597507", "url": "/info/%EC%98%81%EB%A6%BC%EC%95%BD%EA%B5%AD-%EC%84%9C%EC%9A%B8%ED%8A%B9%EB%B3%84%EC%8B%9C-%EB%8F%99%EB%8C%80%EB%AC%B8%EA%B5%AC-%ED%9C%98%EA%B2%BD%EB%8F%99/", "workingTime": ["-", "08:30~20:00", "08:30~20:00", "08:30~20:00", "08:30~20:00", "08:30~20:00", "08:30~18:00", "-"]}, {"name": "\uc2e0\uc885\ub85c\uc0ac\uc57d\uad6d", "lat": "37.594594444444446", "lng": "127.065155555555549", "url": "/info/%EC%8B%A0%EC%A2%85%EB%A1%9C%EC%82%AC%EC%95%BD%EA%B5%AD-%EC%84%9C%EC%9A%B8%ED%8A%B9%EB%B3%84%EC%8B%9C-%EB%8F%99%EB%8C%80%EB%AC%B8%EA%B5%AC-%ED%9C%98%EA%B2%BD%EB%8F%99/", "workingTime": ["-", "09:00~21:00", "09:00~21:00", "09:00~21:00", "09:00~21:00", "09:00~21:00", "09:00~20:00", "-"]}, {"name": "\uba54\ub514\ud31c\uc0ac\ub791\uc57d\uad6d", "lat": "37.589644199531314", "lng": "127.0623094158229", "url": "/info/%EB%A9%94%EB%94%94%ED%8C%9C%EC%82%AC%EB%9E%91%EC%95%BD%EA%B5%AD-%EC%84%9C%EC%9A%B8%ED%8A%B9%EB%B3%84%EC%8B%9C-%EB%8F%99%EB%8C%80%EB%AC%B8%EA%B5%AC-%ED%9C%98%EA%B2%BD%EB%8F%99/", "workingTime": ["1,2,3,4,5\uc9f8\uc8fc09:00~18:00", "09:00~18:00", "09:00~18:00", "09:00~18:00", "09:00~18:00", "09:00~14:00", "-", "-"]}, {"name": "\uba54\ub514\uce7c\uac11\uc0b0\uc57d\uad6d", "lat": "37.591712621492064", "lng": "127.0665963248667", "url": "/info/%EB%A9%94%EB%94%94%EC%B9%BC%EA%B0%91%EC%82%B0%EC%95%BD%EA%B5%AD-%EC%84%9C%EC%9A%B8%ED%8A%B9%EB%B3%84%EC%8B%9C-%EB%8F%99%EB%8C%80%EB%AC%B8%EA%B5%AC-%ED%9C%98%EA%B2%BD%EB%8F%99/", "workingTime": ["1,2,3,4,5\uc9f8\uc8fc09:00~17:00", "09:00~19:00", "09:00~19:00", "09:00~19:00", "09:00~19:00", "09:00~19:00", "09:00~14:00", "-"]}, {"name": "\uc6b0\ub9ac\ub4e4\uc704\uc0dd\uc57d\uad6d", "lat": "37.58975815980378", "lng": "127.06202028236466", "url": "/info/%EC%9A%B0%EB%A6%AC%EB%93%A4%EC%9C%84%EC%83%9D%EC%95%BD%EA%B5%AD-%EC%84%9C%EC%9A%B8%ED%8A%B9%EB%B3%84%EC%8B%9C-%EB%8F%99%EB%8C%80%EB%AC%B8%EA%B5%AC-%ED%9C%98%EA%B2%BD%EB%8F%99/", "workingTime": ["1,2,3,4,5\uc9f8\uc8fc08:30~20:30", "08:30~20:30", "08:30~20:30", "08:30~20:30", "08:30~20:30", "08:30~20:30", "08:30~13:00", "08:30~20:30"]}, {"name": "\ud06c\ub85c\ubc14\uc57d\uad6d", "lat": "37.589797658400585", "lng": "127.06228981216134", "url": "/info/%ED%81%AC%EB%A1%9C%EB%B0%94%EC%95%BD%EA%B5%AD-%EC%84%9C%EC%9A%B8%ED%8A%B9%EB%B3%84%EC%8B%9C-%EB%8F%99%EB%8C%80%EB%AC%B8%EA%B5%AC-%ED%9C%98%EA%B2%BD%EB%8F%99/", "workingTime": ["1,2,3,4,5\uc9f8\uc8fc08:30~18:30", "08:30~18:00", "08:30~18:00", "08:30~18:00", "08:30~18:00", "08:30~13:00", "-", "-"]}, {"name": "\ucf54\uc544\uc57d\uad6d", "lat": "37.590186221418186", "lng": "127.05645445114443", "url": "/info/%EC%BD%94%EC%95%84%EC%95%BD%EA%B5%AD-%EC%84%9C%EC%9A%B8%ED%8A%B9%EB%B3%84%EC%8B%9C-%EB%8F%99%EB%8C%80%EB%AC%B8%EA%B5%AC-%ED%9C%98%EA%B2%BD%EB%8F%99/", "workingTime": ["-", "09:00~21:00", "09:00~21:00", "09:00~21:00", "09:00~21:00", "09:00~21:00", "09:00~16:00", "-"]}, {"name": "\uccad\uc6b4\uc57d\uad6d", "lat": "37.595072175405065", "lng": "127.06542169216571", "url": "/info/%EC%B2%AD%EC%9A%B4%EC%95%BD%EA%B5%AD-%EC%84%9C%EC%9A%B8%ED%8A%B9%EB%B3%84%EC%8B%9C-%EB%8F%99%EB%8C%80%EB%AC%B8%EA%B5%AC-%ED%9C%98%EA%B2%BD%EB%8F%99/", "workingTime": ["-", "10:00~22:00", "10:00~22:00", "10:00~22:00", "10:00~22:00", "10:00~22:00", "10:00~21:00", "-"]}, {"name": "\ub118\ubc84\uc6d0\uc0bc\uc721\uc57d\uad6d", "lat": "37.58877186158563", "lng": "127.06266649064816", "url": "/info/%EB%84%98%EB%B2%84%EC%9B%90%EC%82%BC%EC%9C%A1%EC%95%BD%EA%B5%AD-%EC%84%9C%EC%9A%B8%ED%8A%B9%EB%B3%84%EC%8B%9C-%EB%8F%99%EB%8C%80%EB%AC%B8%EA%B5%AC-%ED%9C%98%EA%B2%BD%EB%8F%99/", "workingTime": ["1,2,3,4,5\uc9f8\uc8fc09:00~17:00", "09:00~18:00", "09:00~18:00", "09:00~18:00", "09:00~18:00", "09:00~13:00", "-", "-"]}, {"name": "\uacbd\ud76c\uc790\uc5f0\ud55c\uc57d\uad6d", "lat": "37.5890306271477", "lng": "127.057535774974", "url": "/info/%EA%B2%BD%ED%9D%AC%EC%9E%90%EC%97%B0%ED%95%9C%EC%95%BD%EA%B5%AD-%EC%84%9C%EC%9A%B8%ED%8A%B9%EB%B3%84%EC%8B%9C-%EB%8F%99%EB%8C%80%EB%AC%B8%EA%B5%AC-%ED%9C%98%EA%B2%BD%EB%8F%99/", "workingTime": ["-", "09:30~18:30", "09:30~18:30", "09:30~18:30", "09:30~18:30", "09:30~18:30", "09:30~13:00", "-"]}, {"name": "\uc0bc\uc721\uc815\ubb38\uc57d\uad6d", "lat": "37.5900532510613", "lng": "127.062841187253", "url": "/info/%EC%82%BC%EC%9C%A1%EC%A0%95%EB%AC%B8%EC%95%BD%EA%B5%AD-%EC%84%9C%EC%9A%B8%ED%8A%B9%EB%B3%84%EC%8B%9C-%EB%8F%99%EB%8C%80%EB%AC%B8%EA%B5%AC-%ED%9C%98%EA%B2%BD%EB%8F%99/", "workingTime": ["1,2,3,4,5\uc9f8\uc8fc08:30~19:00", "08:30~19:00", "08:30~19:00", "08:30~19:00", "08:30~19:00", "08:30~15:00", "-", "-"]}, {"name": "\ud55c\uac00\ub78c\uc57d\uad6d", "lat": "37.59018894598596", "lng": "127.06180100225862", "url": "/info/%ED%95%9C%EA%B0%80%EB%9E%8C%EC%95%BD%EA%B5%AD-%EC%84%9C%EC%9A%B8%ED%8A%B9%EB%B3%84%EC%8B%9C-%EB%8F%99%EB%8C%80%EB%AC%B8%EA%B5%AC-%ED%9C%98%EA%B2%BD%EB%8F%99/", "workingTime": ["1,2,3,4,5\uc9f8\uc8fc09:00~20:30", "09:00~20:30", "09:00~20:30", "09:00~20:30", "09:00~20:30", "09:00~20:30", "-", "-"]}, {"name": "\uc0bc\uc775\uc57d\uad6d", "lat": "37.59172797052409", "lng": "127.05800004919574", "url": "/info/%EC%82%BC%EC%9D%B5%EC%95%BD%EA%B5%AD-%EC%84%9C%EC%9A%B8%ED%8A%B9%EB%B3%84%EC%8B%9C-%EB%8F%99%EB%8C%80%EB%AC%B8%EA%B5%AC-%ED%9C%98%EA%B2%BD%EB%8F%99/", "workingTime": ["-", "09:30~22:30", "09:30~22:30", "09:30~22:30", "09:30~22:30", "09:30~22:30", "14:00~22:30", "-"]}, {"name": "\uba54\ub514\uceec\uc6b0\ub9ac\uc57d\uad6d", "lat": "37.59473015852669", "lng": "127.06476917178754", "url": "/info/%EB%A9%94%EB%94%94%EC%BB%AC%EC%9A%B0%EB%A6%AC%EC%95%BD%EA%B5%AD-%EC%84%9C%EC%9A%B8%ED%8A%B9%EB%B3%84%EC%8B%9C-%EB%8F%99%EB%8C%80%EB%AC%B8%EA%B5%AC-%ED%9C%98%EA%B2%BD%EB%8F%99/", "workingTime": ["-", "09:00~20:00", "09:00~20:00", "09:00~20:00", "09:00~20:00", "09:00~20:00", "09:00~19:00", "-"]}, {"name": "\ubc14\ub978\uc190\uc57d\uad6d", "lat": "37.59476866197129", "lng": "127.0635463109659", "url": "/info/%EB%B0%94%EB%A5%B8%EC%86%90%EC%95%BD%EA%B5%AD-%EC%84%9C%EC%9A%B8%ED%8A%B9%EB%B3%84%EC%8B%9C-%EB%8F%99%EB%8C%80%EB%AC%B8%EA%B5%AC-%ED%9C%98%EA%B2%BD%EB%8F%99/", "workingTime": ["-", "09:00~22:00", "09:00~22:00", "09:00~22:00", "09:00~22:00", "09:00~22:00", "09:00~19:00", "-"]}, {"name": "\uc911\ub7c9\uc57d\uad6d", "lat": "37.59183260146205", "lng": "127.0675106024211", "url": "/info/%EC%A4%91%EB%9F%89%EC%95%BD%EA%B5%AD-%EC%84%9C%EC%9A%B8%ED%8A%B9%EB%B3%84%EC%8B%9C-%EB%8F%99%EB%8C%80%EB%AC%B8%EA%B5%AC-%ED%9C%98%EA%B2%BD%EB%8F%99/", "workingTime": ["1,2,3,4,5\uc9f8\uc8fc08:30~18:00", "08:30~19:30", "08:30~19:30", "08:30~19:30", "08:30~19:30", "08:30~19:30", "-", "-"]}]