[{"name": "\uc560\ud50c\uc57d\uad6d", "lat": "37.5414900009194", "lng": "127.09772551997", "url": "/info/%EC%95%A0%ED%94%8C%EC%95%BD%EA%B5%AD-%EC%84%9C%EC%9A%B8%ED%8A%B9%EB%B3%84%EC%8B%9C-%EA%B4%91%EC%A7%84%EA%B5%AC-%EA%B4%91%EC%9E%A5%EB%8F%99/", "workingTime": ["-", "08:00~20:00", "08:00~20:00", "08:00~20:00", "08:00~20:00", "08:00~20:00", "08:00~15:00", "-"]}, {"name": "\uc2a4\ub9c8\uc77c\uc57d\uad6d", "lat": "37.5429263103513", "lng": "127.101956879313", "url": "/info/%EC%8A%A4%EB%A7%88%EC%9D%BC%EC%95%BD%EA%B5%AD-%EC%84%9C%EC%9A%B8%ED%8A%B9%EB%B3%84%EC%8B%9C-%EA%B4%91%EC%A7%84%EA%B5%AC-%EA%B4%91%EC%9E%A5%EB%8F%99/", "workingTime": ["-", "09:00~20:00", "09:00~20:00", "09:00~20:00", "09:00~20:00", "09:00~20:00", "09:00~16:00", "-"]}, {"name": "\uc6a9\uc0c1\uc57d\uad6d", "lat": "37.548457924765316", "lng": "127.10771061160065", "url": "/info/%EC%9A%A9%EC%83%81%EC%95%BD%EA%B5%AD-%EC%84%9C%EC%9A%B8%ED%8A%B9%EB%B3%84%EC%8B%9C-%EA%B4%91%EC%A7%84%EA%B5%AC-%EA%B4%91%EC%9E%A5%EB%8F%99/", "workingTime": ["17:00~22:00(\uc5f0\ub77d\ud6c4\ubc29\ubb38\uc694\ub9dd)", "09:00~22:00", "09:00~22:00", "09:00~22:00", "09:00~22:00", "09:00~22:00", "12:00~21:00", "-"]}, {"name": "\uc628\ub204\ub9ac\uadf9\ub3d9\uc57d\uad6d", "lat": "37.542945475827246", "lng": "127.10248624110406", "url": "/info/%EC%98%A8%EB%88%84%EB%A6%AC%EA%B7%B9%EB%8F%99%EC%95%BD%EA%B5%AD-%EC%84%9C%EC%9A%B8%ED%8A%B9%EB%B3%84%EC%8B%9C-%EA%B4%91%EC%A7%84%EA%B5%AC-%EA%B4%91%EC%9E%A5%EB%8F%99/", "workingTime": ["-", "09:00~21:00", "09:00~21:00", "09:00~21:00", "09:00~21:00", "09:00~21:00", "09:00~21:00", "-"]}, {"name": "\uccad\uad6c\uc57d\uad6d", "lat": "37.54137488246685", "lng": "127.0972746451624", "url": "/info/%EC%B2%AD%EA%B5%AC%EC%95%BD%EA%B5%AD-%EC%84%9C%EC%9A%B8%ED%8A%B9%EB%B3%84%EC%8B%9C-%EA%B4%91%EC%A7%84%EA%B5%AC-%EA%B4%91%EC%9E%A5%EB%8F%99/", "workingTime": ["-", "09:00~19:30", "09:00~19:30", "09:00~19:30", "09:00~19:30", "09:00~19:30", "09:00~15:30", "-"]}, {"name": "\ud55c\uc194\uc57d\uad6d", "lat": "37.5483810551", "lng": "127.1070382944", "url": "/info/%ED%95%9C%EC%86%94%EC%95%BD%EA%B5%AD-%EC%84%9C%EC%9A%B8%ED%8A%B9%EB%B3%84%EC%8B%9C-%EA%B4%91%EC%A7%84%EA%B5%AC-%EA%B4%91%EC%9E%A5%EB%8F%99/", "workingTime": ["-", "09:00~21:00", "09:00~21:00", "09:00~21:00", "09:00~21:00", "09:00~21:00", "09:00~21:00", "-"]}, {"name": "\uc6cc\ucee4\ud790\uc57d\uad6d", "lat": "37.55863008236035", "lng": "127.1117068379481", "url": "/info/%EC%9B%8C%EC%BB%A4%ED%9E%90%EC%95%BD%EA%B5%AD-%EC%84%9C%EC%9A%B8%ED%8A%B9%EB%B3%84%EC%8B%9C-%EA%B4%91%EC%A7%84%EA%B5%AC-%EA%B4%91%EC%9E%A5%EB%8F%99/", "workingTime": ["1,2,3,4,5\uc9f8\uc8fc10:00~21:00", "10:00~20:00", "10:00~20:00", "10:00~20:00", "10:00~20:00", "10:00~20:00", "10:00~21:00", "10:00~20:00"]}, {"name": "\uba85\uc57d\uad6d", "lat": "37.542353743709505", "lng": "127.1004577413394", "url": "/info/%EB%AA%85%EC%95%BD%EA%B5%AD-%EC%84%9C%EC%9A%B8%ED%8A%B9%EB%B3%84%EC%8B%9C-%EA%B4%91%EC%A7%84%EA%B5%AC-%EA%B4%91%EC%9E%A5%EB%8F%99/", "workingTime": ["-", "08:00~19:00", "08:00~19:00", "08:00~19:00", "08:00~19:00", "08:00~19:00", "08:00~15:00", "-"]}, {"name": "\uad11\uc9c4\uc628\ub204\ub9ac\uc57d\uad6d", "lat": "37.5425067524", "lng": "127.0985162077", "url": "/info/%EA%B4%91%EC%A7%84%EC%98%A8%EB%88%84%EB%A6%AC%EC%95%BD%EA%B5%AD-%EC%84%9C%EC%9A%B8%ED%8A%B9%EB%B3%84%EC%8B%9C-%EA%B4%91%EC%A7%84%EA%B5%AC-%EA%B4%91%EC%9E%A5%EB%8F%99/", "workingTime": ["-", "08:30~19:00", "08:30~19:00", "08:30~19:00", "08:30~19:00", "08:30~19:00", "-", "-"]}]