[{"name": "\uc635\ud2f0\ub9c8\uc720\ud55c\uc57d\uad6d", "lat": "37.5703001567881", "lng": "126.903428235454", "url": "/info/%EC%98%B5%ED%8B%B0%EB%A7%88%EC%9C%A0%ED%95%9C%EC%95%BD%EA%B5%AD-%EC%84%9C%EC%9A%B8%ED%8A%B9%EB%B3%84%EC%8B%9C-%EB%A7%88%ED%8F%AC%EA%B5%AC-%EC%A4%91%EB%8F%99/", "workingTime": ["1,2,3,4,5\uc9f8\uc8fc09:00~20:00", "09:00~21:00", "09:00~21:00", "09:00~21:00", "09:00~21:00", "09:00~21:00", "09:00~20:00", "09:00~20:00"]}, {"name": "\uc131\uc0b0\uc9c4\uc57d\uad6d", "lat": "37.5705368414819", "lng": "126.90375610615536", "url": "/info/%EC%84%B1%EC%82%B0%EC%A7%84%EC%95%BD%EA%B5%AD-%EC%84%9C%EC%9A%B8%ED%8A%B9%EB%B3%84%EC%8B%9C-%EB%A7%88%ED%8F%AC%EA%B5%AC-%EC%A4%91%EB%8F%99/", "workingTime": ["-", "09:00~18:00", "09:00~18:00", "09:00~18:00", "09:00~18:00", "09:00~18:00", "09:00~13:00", "-"]}, {"name": "\uc131\uc0b0\uc5f0\uc138\uc57d\uad6d", "lat": "37.570612201434216", "lng": "126.90380231106461", "url": "/info/%EC%84%B1%EC%82%B0%EC%97%B0%EC%84%B8%EC%95%BD%EA%B5%AD-%EC%84%9C%EC%9A%B8%ED%8A%B9%EB%B3%84%EC%8B%9C-%EB%A7%88%ED%8F%AC%EA%B5%AC-%EC%A4%91%EB%8F%99/", "workingTime": ["-", "09:30~18:00", "09:30~18:00", "09:30~18:00", "09:30~18:00", "09:30~18:00", "09:00~13:00", "-"]}, {"name": "3\uce35\uc628\ub204\ub9ac\uc57d\uad6d", "lat": "37.57015091871719", "lng": "126.90383008038549", "url": "/info/3%EC%B8%B5%EC%98%A8%EB%88%84%EB%A6%AC%EC%95%BD%EA%B5%AD-%EC%84%9C%EC%9A%B8%ED%8A%B9%EB%B3%84%EC%8B%9C-%EB%A7%88%ED%8F%AC%EA%B5%AC-%EC%A4%91%EB%8F%99/", "workingTime": ["-", "09:00~18:30", "09:00~18:30", "09:00~18:30", "09:00~18:30", "09:00~18:30", "09:00~15:00", "-"]}, {"name": "2\uce35\ud558\ub298\uc57d\uad6d", "lat": "37.570140470944516", "lng": "126.90383356849008", "url": "/info/2%EC%B8%B5%ED%95%98%EB%8A%98%EC%95%BD%EA%B5%AD-%EC%84%9C%EC%9A%B8%ED%8A%B9%EB%B3%84%EC%8B%9C-%EB%A7%88%ED%8F%AC%EA%B5%AC-%EC%A4%91%EB%8F%99/", "workingTime": ["-", "09:30~18:30", "09:30~18:30", "09:30~18:30", "09:30~18:30", "09:30~18:30", "09:30~14:00", "-"]}]