[{"name": "\ud589\ubcf5\ud55c\uc57d\uad6d", "lat": "37.51419156847514", "lng": "126.89894431533307", "url": "/info/%ED%96%89%EB%B3%B5%ED%95%9C%EC%95%BD%EA%B5%AD-%EC%84%9C%EC%9A%B8%ED%8A%B9%EB%B3%84%EC%8B%9C-%EC%98%81%EB%93%B1%ED%8F%AC%EA%B5%AC-%EB%AC%B8%EB%9E%98%EB%8F%993%EA%B0%80/", "workingTime": ["-", "08:30~19:30", "08:30~19:30", "08:30~19:30", "08:30~19:30", "08:30~19:30", "08:30~13:30", "-"]}, {"name": "\ub2e4\uc778\uc57d\uad6d", "lat": "37.52016273974232", "lng": "126.89014687957085", "url": "/info/%EB%8B%A4%EC%9D%B8%EC%95%BD%EA%B5%AD-%EC%84%9C%EC%9A%B8%ED%8A%B9%EB%B3%84%EC%8B%9C-%EC%98%81%EB%93%B1%ED%8F%AC%EA%B5%AC-%EB%AC%B8%EB%9E%98%EB%8F%993%EA%B0%80/", "workingTime": ["-", "08:30~19:00", "08:30~19:00", "08:30~19:00", "08:30~19:00", "08:30~19:00", "08:30~16:00", "09:00~13:00"]}, {"name": "\ubbf8\uc18c\uc57d\uad6d", "lat": "37.51992233471188", "lng": "126.89129652743884", "url": "/info/%EB%AF%B8%EC%86%8C%EC%95%BD%EA%B5%AD-%EC%84%9C%EC%9A%B8%ED%8A%B9%EB%B3%84%EC%8B%9C-%EC%98%81%EB%93%B1%ED%8F%AC%EA%B5%AC-%EB%AC%B8%EB%9E%98%EB%8F%993%EA%B0%80/", "workingTime": ["-", "09:30~18:30", "09:30~18:30", "12:30~20:00", "09:30~18:30", "09:30~18:30", "09:30~13:30", "-"]}, {"name": "\uac00\uae4c\uc6b4\uc57d\uad6d", "lat": "37.5174631210953", "lng": "126.896493699106", "url": "/info/%EA%B0%80%EA%B9%8C%EC%9A%B4%EC%95%BD%EA%B5%AD-%EC%84%9C%EC%9A%B8%ED%8A%B9%EB%B3%84%EC%8B%9C-%EC%98%81%EB%93%B1%ED%8F%AC%EA%B5%AC-%EB%AC%B8%EB%9E%98%EB%8F%993%EA%B0%80/", "workingTime": ["-", "09:00~22:00", "09:00~22:00", "09:00~22:00", "09:00~22:00", "09:00~22:00", "09:00~17:00", "-"]}, {"name": "\ud504\ub77c\uc790\uc57d\uad6d", "lat": "37.51766421440321", "lng": "126.889141566192", "url": "/info/%ED%94%84%EB%9D%BC%EC%9E%90%EC%95%BD%EA%B5%AD-%EC%84%9C%EC%9A%B8%ED%8A%B9%EB%B3%84%EC%8B%9C-%EC%98%81%EB%93%B1%ED%8F%AC%EA%B5%AC-%EB%AC%B8%EB%9E%98%EB%8F%993%EA%B0%80/", "workingTime": ["-", "08:15~19:30", "08:15~19:30", "08:15~19:30", "08:15~19:30", "08:15~19:30", "08:15~15:30", "-"]}, {"name": "\ud3ec\ub3c4\ub098\ubb34\uc57d\uad6d", "lat": "37.52023107008399", "lng": "126.89013085182203", "url": "/info/%ED%8F%AC%EB%8F%84%EB%82%98%EB%AC%B4%EC%95%BD%EA%B5%AD-%EC%84%9C%EC%9A%B8%ED%8A%B9%EB%B3%84%EC%8B%9C-%EC%98%81%EB%93%B1%ED%8F%AC%EA%B5%AC-%EB%AC%B8%EB%9E%98%EB%8F%993%EA%B0%80/", "workingTime": ["1,2,3,4,5\uc9f8\uc8fc09:00~14:00", "09:00~19:00", "09:00~19:00", "09:00~19:00", "09:00~19:00", "09:00~19:00", "09:00~14:00", "-"]}, {"name": "\uc6c3\ub294\ub0b4\uc77c\uc57d\uad6d", "lat": "37.51956745947396", "lng": "126.88962506878444", "url": "/info/%EC%9B%83%EB%8A%94%EB%82%B4%EC%9D%BC%EC%95%BD%EA%B5%AD-%EC%84%9C%EC%9A%B8%ED%8A%B9%EB%B3%84%EC%8B%9C-%EC%98%81%EB%93%B1%ED%8F%AC%EA%B5%AC-%EB%AC%B8%EB%9E%98%EB%8F%993%EA%B0%80/", "workingTime": ["-", "09:00~20:00", "09:00~20:00", "09:00~20:00", "09:00~20:00", "09:00~20:00", "09:00~19:00", "-"]}, {"name": "\ub9d1\uc740\uc57d\uad6d", "lat": "37.51823258230959", "lng": "126.89592989452936", "url": "/info/%EB%A7%91%EC%9D%80%EC%95%BD%EA%B5%AD-%EC%84%9C%EC%9A%B8%ED%8A%B9%EB%B3%84%EC%8B%9C-%EC%98%81%EB%93%B1%ED%8F%AC%EA%B5%AC-%EB%AC%B8%EB%9E%98%EB%8F%993%EA%B0%80/", "workingTime": ["1,2,3,4,5\uc9f8\uc8fc10:00~22:30", "10:00~22:30", "10:00~22:30", "10:00~22:30", "10:00~22:30", "10:00~22:30", "10:00~22:30", "10:00~22:00"]}, {"name": "\ub300\uc6d0\uc57d\uad6d", "lat": "37.517459104417426", "lng": "126.89644123941387", "url": "/info/%EB%8C%80%EC%9B%90%EC%95%BD%EA%B5%AD-%EC%84%9C%EC%9A%B8%ED%8A%B9%EB%B3%84%EC%8B%9C-%EC%98%81%EB%93%B1%ED%8F%AC%EA%B5%AC-%EB%AC%B8%EB%9E%98%EB%8F%993%EA%B0%80/", "workingTime": ["-", "09:30~19:30", "09:30~19:30", "09:30~19:30", "09:30~19:30", "09:30~19:30", "09:30~14:00", "-"]}, {"name": "\ubb34\uc9c0\uac1c\uc57d\uad6d", "lat": "37.5206490572", "lng": "126.8899063507", "url": "/info/%EB%AC%B4%EC%A7%80%EA%B0%9C%EC%95%BD%EA%B5%AD-%EC%84%9C%EC%9A%B8%ED%8A%B9%EB%B3%84%EC%8B%9C-%EC%98%81%EB%93%B1%ED%8F%AC%EA%B5%AC-%EB%AC%B8%EB%9E%98%EB%8F%993%EA%B0%80/", "workingTime": ["-", "09:00~19:00", "09:00~19:00", "09:00~19:00", "09:00~16:00", "09:00~19:00", "09:00~15:00", "-"]}]