[{"name": "\ub9d1\uc740\uc218\uc57d\uad6d", "lat": "37.489855779731855", "lng": "126.85590716425625", "url": "/info/%EB%A7%91%EC%9D%80%EC%88%98%EC%95%BD%EA%B5%AD-%EC%84%9C%EC%9A%B8%ED%8A%B9%EB%B3%84%EC%8B%9C-%EA%B5%AC%EB%A1%9C%EA%B5%AC-%EA%B0%9C%EB%B4%89%EB%8F%99/", "workingTime": ["-", "09:00~19:30", "09:00~19:30", "09:00~19:30", "09:00~19:30", "09:00~19:30", "09:00~14:30", "-"]}, {"name": "\ud55c\ub9c8\uc744\uc57d\uad6d", "lat": "37.49637318389137", "lng": "126.86308226605321", "url": "/info/%ED%95%9C%EB%A7%88%EC%9D%84%EC%95%BD%EA%B5%AD-%EC%84%9C%EC%9A%B8%ED%8A%B9%EB%B3%84%EC%8B%9C-%EA%B5%AC%EB%A1%9C%EA%B5%AC-%EA%B0%9C%EB%B4%89%EB%8F%99/", "workingTime": ["1,2,3,4,5\uc9f8\uc8fc10:00~21:00", "09:00~21:00", "09:00~21:00", "09:00~21:00", "09:00~21:00", "09:00~21:00", "09:00~21:00", "09:00~21:00"]}, {"name": "\uc635\ud2f0\ub9c8\uac74\uac15\uc57d\uad6d", "lat": "37.497506399983166", "lng": "126.85531346632104", "url": "/info/%EC%98%B5%ED%8B%B0%EB%A7%88%EA%B1%B4%EA%B0%95%EC%95%BD%EA%B5%AD-%EC%84%9C%EC%9A%B8%ED%8A%B9%EB%B3%84%EC%8B%9C-%EA%B5%AC%EB%A1%9C%EA%B5%AC-%EA%B0%9C%EB%B4%89%EB%8F%99/", "workingTime": ["-", "09:00~21:00", "09:00~21:00", "09:00~21:00", "09:00~21:00", "09:00~21:00", "09:00~13:00", "-"]}, {"name": "\ud478\ub978\uc57d\uad6d", "lat": "37.5015678689641", "lng": "126.847162335199", "url": "/info/%ED%91%B8%EB%A5%B8%EC%95%BD%EA%B5%AD-%EC%84%9C%EC%9A%B8%ED%8A%B9%EB%B3%84%EC%8B%9C-%EA%B5%AC%EB%A1%9C%EA%B5%AC-%EA%B0%9C%EB%B4%89%EB%8F%99/", "workingTime": ["-", "09:00~19:00", "09:00~19:00", "09:00~19:00", "09:00~19:00", "09:00~19:00", "09:00~13:00", "-"]}, {"name": "\uc628\ub204\ub9ac\uc790\ud61c\uc57d\uad6d", "lat": "37.49155368033148", "lng": "126.85623860993971", "url": "/info/%EC%98%A8%EB%88%84%EB%A6%AC%EC%9E%90%ED%98%9C%EC%95%BD%EA%B5%AD-%EC%84%9C%EC%9A%B8%ED%8A%B9%EB%B3%84%EC%8B%9C-%EA%B5%AC%EB%A1%9C%EA%B5%AC-%EA%B0%9C%EB%B4%89%EB%8F%99/", "workingTime": ["-", "09:00~18:30", "09:00~18:30", "09:00~18:30", "09:00~18:30", "09:00~18:30", "09:00~15:00", "-"]}, {"name": "\ub300\uc131\uc57d\uad6d", "lat": "37.48613774033573", "lng": "126.8542983094074", "url": "/info/%EB%8C%80%EC%84%B1%EC%95%BD%EA%B5%AD-%EC%84%9C%EC%9A%B8%ED%8A%B9%EB%B3%84%EC%8B%9C-%EA%B5%AC%EB%A1%9C%EA%B5%AC-%EA%B0%9C%EB%B4%89%EB%8F%99/", "workingTime": ["-", "09:00~17:30", "09:00~17:30", "09:00~17:30", "09:00~17:30", "09:00~17:30", "09:00~14:00", "-"]}, {"name": "\uc815\uc57d\uad6d", "lat": "37.5706083074284", "lng": "126.990464570479", "url": "/info/%EC%A0%95%EC%95%BD%EA%B5%AD-%EC%84%9C%EC%9A%B8%ED%8A%B9%EB%B3%84%EC%8B%9C-%EA%B5%AC%EB%A1%9C%EA%B5%AC-%EA%B0%9C%EB%B4%89%EB%8F%99/", "workingTime": ["-", "09:00~19:30", "09:00~19:30", "09:00~19:30", "09:00~19:30", "09:00~19:30", "09:00~17:00", "-"]}, {"name": "\uc815\uad11\uc57d\uad6d", "lat": "37.49425567906598", "lng": "126.85837744421302", "url": "/info/%EC%A0%95%EA%B4%91%EC%95%BD%EA%B5%AD-%EC%84%9C%EC%9A%B8%ED%8A%B9%EB%B3%84%EC%8B%9C-%EA%B5%AC%EB%A1%9C%EA%B5%AC-%EA%B0%9C%EB%B4%89%EB%8F%99/", "workingTime": ["-", "09:00~21:00", "09:00~21:00", "09:00~21:00", "09:00~21:00", "09:00~21:00", "09:00~21:00", "-"]}, {"name": "\uc138\uc9c4\uc57d\uad6d", "lat": "37.49138362423268", "lng": "126.85569164543266", "url": "/info/%EC%84%B8%EC%A7%84%EC%95%BD%EA%B5%AD-%EC%84%9C%EC%9A%B8%ED%8A%B9%EB%B3%84%EC%8B%9C-%EA%B5%AC%EB%A1%9C%EA%B5%AC-%EA%B0%9C%EB%B4%89%EB%8F%99/", "workingTime": ["-", "09:00~19:00", "09:00~19:00", "09:00~19:00", "09:00~19:00", "09:00~19:00", "09:00~16:00", "-"]}, {"name": "\uc131\uc778\uc57d\uad6d", "lat": "37.48654040068214", "lng": "126.85617585284691", "url": "/info/%EC%84%B1%EC%9D%B8%EC%95%BD%EA%B5%AD-%EC%84%9C%EC%9A%B8%ED%8A%B9%EB%B3%84%EC%8B%9C-%EA%B5%AC%EB%A1%9C%EA%B5%AC-%EA%B0%9C%EB%B4%89%EB%8F%99/", "workingTime": ["1,2,3,4,5\uc9f8\uc8fc10:30~20:00", "09:00~21:00", "09:00~21:00", "09:00~21:00", "09:00~21:00", "09:00~21:00", "09:00~21:00", "10:30~20:00"]}, {"name": "365\uc5f4\ub9b0\uc57d\uad6d", "lat": "37.49399577225", "lng": "126.858255129585", "url": "/info/365%EC%97%B4%EB%A6%B0%EC%95%BD%EA%B5%AD-%EC%84%9C%EC%9A%B8%ED%8A%B9%EB%B3%84%EC%8B%9C-%EA%B5%AC%EB%A1%9C%EA%B5%AC-%EA%B0%9C%EB%B4%89%EB%8F%99/", "workingTime": ["1,2,3,4,5\uc9f8\uc8fc08:30~22:30", "08:30~22:30", "08:30~22:30", "08:30~22:30", "08:30~22:30", "08:30~22:30", "08:30~22:30", "08:30~22:30"]}, {"name": "\uc0c8\uc6b0\ub9ac\uc57d\uad6d", "lat": "37.492077365616346", "lng": "126.85566997725533", "url": "/info/%EC%83%88%EC%9A%B0%EB%A6%AC%EC%95%BD%EA%B5%AD-%EC%84%9C%EC%9A%B8%ED%8A%B9%EB%B3%84%EC%8B%9C-%EA%B5%AC%EB%A1%9C%EA%B5%AC-%EA%B0%9C%EB%B4%89%EB%8F%99/", "workingTime": ["-", "09:00~19:00", "09:00~19:00", "09:00~19:00", "09:00~19:00", "09:00~19:00", "09:00~16:00", "-"]}, {"name": "\ub298\uc0ac\ub791\uc57d\uad6d", "lat": "37.48607480826273", "lng": "126.8529687577124", "url": "/info/%EB%8A%98%EC%82%AC%EB%9E%91%EC%95%BD%EA%B5%AD-%EC%84%9C%EC%9A%B8%ED%8A%B9%EB%B3%84%EC%8B%9C-%EA%B5%AC%EB%A1%9C%EA%B5%AC-%EA%B0%9C%EB%B4%89%EB%8F%99/", "workingTime": ["-", "09:00~18:00", "09:00~18:00", "09:00~18:00", "09:00~18:00", "09:00~18:00", "09:00~13:00", "-"]}, {"name": "\uad7f\ubaa8\ub2dd\uc57d\uad6d", "lat": "37.49075637517718", "lng": "126.85584063040724", "url": "/info/%EA%B5%BF%EB%AA%A8%EB%8B%9D%EC%95%BD%EA%B5%AD-%EC%84%9C%EC%9A%B8%ED%8A%B9%EB%B3%84%EC%8B%9C-%EA%B5%AC%EB%A1%9C%EA%B5%AC-%EA%B0%9C%EB%B4%89%EB%8F%99/", "workingTime": ["-", "09:00~19:00", "09:00~19:00", "09:00~19:00", "09:00~19:00", "09:00~19:00", "09:00~15:00", "-"]}, {"name": "\uad6c\ub85c\ud504\ub77c\uc790\uc628\ub204\ub9ac\uc57d\uad6d", "lat": "37.4884724969", "lng": "126.8564525676", "url": "/info/%EA%B5%AC%EB%A1%9C%ED%94%84%EB%9D%BC%EC%9E%90%EC%98%A8%EB%88%84%EB%A6%AC%EC%95%BD%EA%B5%AD-%EC%84%9C%EC%9A%B8%ED%8A%B9%EB%B3%84%EC%8B%9C-%EA%B5%AC%EB%A1%9C%EA%B5%AC-%EA%B0%9C%EB%B4%89%EB%8F%99/", "workingTime": ["1,2,3,4,5\uc9f8\uc8fc10:00~20:30", "08:30~21:30", "08:30~21:30", "08:30~21:30", "08:30~21:30", "08:30~21:30", "08:30~21:00", "10:00~20:30"]}, {"name": "\uc740\ud558\uc57d\uad6d", "lat": "37.48980595120348", "lng": "126.85642287813147", "url": "/info/%EC%9D%80%ED%95%98%EC%95%BD%EA%B5%AD-%EC%84%9C%EC%9A%B8%ED%8A%B9%EB%B3%84%EC%8B%9C-%EA%B5%AC%EB%A1%9C%EA%B5%AC-%EA%B0%9C%EB%B4%89%EB%8F%99/", "workingTime": ["-", "09:00~19:00", "09:00~19:00", "09:00~19:00", "09:00~19:00", "09:00~19:00", "09:00~13:00", "-"]}, {"name": "\uac00\ub78c\uc57d\uad6d", "lat": "37.4962642022543", "lng": "126.859131313522", "url": "/info/%EA%B0%80%EB%9E%8C%EC%95%BD%EA%B5%AD-%EC%84%9C%EC%9A%B8%ED%8A%B9%EB%B3%84%EC%8B%9C-%EA%B5%AC%EB%A1%9C%EA%B5%AC-%EA%B0%9C%EB%B4%89%EB%8F%99/", "workingTime": ["-", "09:00~21:00", "09:00~19:00", "09:00~19:00", "09:00~19:00", "09:00~19:00", "09:00~14:00", "-"]}, {"name": "\uae08\uc57d\uad6d", "lat": "37.5022170744446", "lng": "126.848656325688", "url": "/info/%EA%B8%88%EC%95%BD%EA%B5%AD-%EC%84%9C%EC%9A%B8%ED%8A%B9%EB%B3%84%EC%8B%9C-%EA%B5%AC%EB%A1%9C%EA%B5%AC-%EA%B0%9C%EB%B4%89%EB%8F%99/", "workingTime": ["-", "09:00~19:00", "09:00~19:00", "09:00~19:00", "09:00~19:00", "09:00~19:00", "09:00~15:00", "-"]}, {"name": "\uac74\uac15\uc628\ub204\ub9ac\uc57d\uad6d", "lat": "37.50286591597262", "lng": "126.84467519224413", "url": "/info/%EA%B1%B4%EA%B0%95%EC%98%A8%EB%88%84%EB%A6%AC%EC%95%BD%EA%B5%AD-%EC%84%9C%EC%9A%B8%ED%8A%B9%EB%B3%84%EC%8B%9C-%EA%B5%AC%EB%A1%9C%EA%B5%AC-%EA%B0%9C%EB%B4%89%EB%8F%99/", "workingTime": ["-", "09:00~21:00", "09:00~21:00", "09:00~21:00", "09:00~21:00", "09:00~21:00", "09:00~21:00", "-"]}, {"name": "\uc815\uc81c\uc57d\uad6d", "lat": "37.49175075276726", "lng": "126.85529743084892", "url": "/info/%EC%A0%95%EC%A0%9C%EC%95%BD%EA%B5%AD-%EC%84%9C%EC%9A%B8%ED%8A%B9%EB%B3%84%EC%8B%9C-%EA%B5%AC%EB%A1%9C%EA%B5%AC-%EA%B0%9C%EB%B4%89%EB%8F%99/", "workingTime": ["-", "09:00~21:00", "09:00~21:00", "09:00~21:00", "09:00~21:00", "09:00~21:00", "-", "-"]}, {"name": "\ucc28\uae30\uc815\uc57d\uad6d", "lat": "37.486265051238206", "lng": "126.85208781224415", "url": "/info/%EC%B0%A8%EA%B8%B0%EC%A0%95%EC%95%BD%EA%B5%AD-%EC%84%9C%EC%9A%B8%ED%8A%B9%EB%B3%84%EC%8B%9C-%EA%B5%AC%EB%A1%9C%EA%B5%AC-%EA%B0%9C%EB%B4%89%EB%8F%99/", "workingTime": ["-", "09:00~21:00", "09:00~21:00", "09:00~21:00", "09:00~19:00", "09:00~21:00", "09:00~21:00", "-"]}, {"name": "\uc990\uac70\uc6b4\uc57d\uad6d", "lat": "37.4970852447", "lng": "126.8557349556", "url": "/info/%EC%A6%90%EA%B1%B0%EC%9A%B4%EC%95%BD%EA%B5%AD-%EC%84%9C%EC%9A%B8%ED%8A%B9%EB%B3%84%EC%8B%9C-%EA%B5%AC%EB%A1%9C%EA%B5%AC-%EA%B0%9C%EB%B4%89%EB%8F%99/", "workingTime": ["-", "08:30~20:00", "08:30~20:00", "08:30~20:00", "08:30~20:00", "08:30~20:00", "08:30~16:00", "-"]}, {"name": "\uc5f0\uc138\uc5f4\ub9b0\uc57d\uad6d", "lat": "37.48776560806894", "lng": "126.856042341499", "url": "/info/%EC%97%B0%EC%84%B8%EC%97%B4%EB%A6%B0%EC%95%BD%EA%B5%AD-%EC%84%9C%EC%9A%B8%ED%8A%B9%EB%B3%84%EC%8B%9C-%EA%B5%AC%EB%A1%9C%EA%B5%AC-%EA%B0%9C%EB%B4%89%EB%8F%99/", "workingTime": ["-", "09:00~18:30", "09:00~18:30", "09:00~18:30", "09:00~18:30", "09:00~18:30", "09:00~14:00", "-"]}, {"name": "\uc218\uc815\uc57d\uad6d", "lat": "37.49754247109616", "lng": "126.85565556099561", "url": "/info/%EC%88%98%EC%A0%95%EC%95%BD%EA%B5%AD-%EC%84%9C%EC%9A%B8%ED%8A%B9%EB%B3%84%EC%8B%9C-%EA%B5%AC%EB%A1%9C%EA%B5%AC-%EA%B0%9C%EB%B4%89%EB%8F%99/", "workingTime": ["-", "09:00~18:00", "09:00~18:00", "09:00~18:00", "09:00~18:00", "09:00~18:00", "09:00~13:00", "-"]}, {"name": "\ubbff\uc74c\uc57d\uad6d", "lat": "37.5026863956", "lng": "126.8447586264", "url": "/info/%EB%AF%BF%EC%9D%8C%EC%95%BD%EA%B5%AD-%EC%84%9C%EC%9A%B8%ED%8A%B9%EB%B3%84%EC%8B%9C-%EA%B5%AC%EB%A1%9C%EA%B5%AC-%EA%B0%9C%EB%B4%89%EB%8F%99/", "workingTime": ["-", "09:00~19:30", "09:00~19:30", "09:00~19:30", "09:00~19:30", "09:00~19:30", "09:00~16:00", "-"]}, {"name": "\uac1c\ubd09\uc9c0\uc608\ub2f9\uc57d\uad6d", "lat": "37.50222853957776", "lng": "126.8478204819149", "url": "/info/%EA%B0%9C%EB%B4%89%EC%A7%80%EC%98%88%EB%8B%B9%EC%95%BD%EA%B5%AD-%EC%84%9C%EC%9A%B8%ED%8A%B9%EB%B3%84%EC%8B%9C-%EA%B5%AC%EB%A1%9C%EA%B5%AC-%EA%B0%9C%EB%B4%89%EB%8F%99/", "workingTime": ["-", "08:30~20:30", "08:30~20:30", "08:30~20:30", "08:30~20:30", "08:30~20:30", "08:30~20:30", "-"]}, {"name": "\uc81c\uc0dd\uc57d\uad6d", "lat": "37.48367548401868", "lng": "126.85347683192796", "url": "/info/%EC%A0%9C%EC%83%9D%EC%95%BD%EA%B5%AD-%EC%84%9C%EC%9A%B8%ED%8A%B9%EB%B3%84%EC%8B%9C-%EA%B5%AC%EB%A1%9C%EA%B5%AC-%EA%B0%9C%EB%B4%89%EB%8F%99/", "workingTime": ["-", "10:00~20:00", "10:00~20:00", "10:00~20:00", "10:00~20:00", "10:00~20:00", "-", "-"]}]