[{"name": "\uba85\uc9c4\ud31c\uc57d\uad6d", "lat": "37.4764021630158", "lng": "126.978098942823", "url": "/info/%EB%AA%85%EC%A7%84%ED%8C%9C%EC%95%BD%EA%B5%AD-%EC%84%9C%EC%9A%B8%ED%8A%B9%EB%B3%84%EC%8B%9C-%EA%B4%80%EC%95%85%EA%B5%AC-%EB%82%A8%ED%98%84%EB%8F%99/", "workingTime": ["-", "09:00~20:00", "09:00~20:00", "09:00~20:00", "09:00~20:00", "09:00~20:00", "09:00~15:00", "-"]}, {"name": "\uc544\uc774\ubd04\uc57d\uad6d", "lat": "37.4763222522103", "lng": "126.977192725834", "url": "/info/%EC%95%84%EC%9D%B4%EB%B4%84%EC%95%BD%EA%B5%AD-%EC%84%9C%EC%9A%B8%ED%8A%B9%EB%B3%84%EC%8B%9C-%EA%B4%80%EC%95%85%EA%B5%AC-%EB%82%A8%ED%98%84%EB%8F%99/", "workingTime": ["-", "08:30~19:00", "08:30~19:00", "08:30~19:00", "08:30~21:00", "08:30~19:00", "09:00~14:00", "-"]}, {"name": "\uc0ac\ub791\ucc2c\uc57d\uad6d", "lat": "37.47147166389944", "lng": "126.98246872915209", "url": "/info/%EC%82%AC%EB%9E%91%EC%B0%AC%EC%95%BD%EA%B5%AD-%EC%84%9C%EC%9A%B8%ED%8A%B9%EB%B3%84%EC%8B%9C-%EA%B4%80%EC%95%85%EA%B5%AC-%EB%82%A8%ED%98%84%EB%8F%99/", "workingTime": ["1,3,5\uc9f8\uc8fc10:00~21:00", "10:00~21:00", "10:00~21:00", "10:00~21:00", "10:00~21:00", "10:00~21:00", "10:00~21:00", "10:00~21:00"]}, {"name": "\uc0ac\ub2f9\ubbf8\uc18c\uc57d\uad6d", "lat": "37.4743763627", "lng": "126.9814325035", "url": "/info/%EC%82%AC%EB%8B%B9%EB%AF%B8%EC%86%8C%EC%95%BD%EA%B5%AD-%EC%84%9C%EC%9A%B8%ED%8A%B9%EB%B3%84%EC%8B%9C-%EA%B4%80%EC%95%85%EA%B5%AC-%EB%82%A8%ED%98%84%EB%8F%99/", "workingTime": ["1,2,3,4,5\uc9f8\uc8fc08:00~19:00", "08:00~22:00", "08:00~22:00", "08:00~22:00", "08:00~22:00", "08:00~22:00", "08:00~19:00", "08:00~19:00"]}, {"name": "\ucc38\uc57d\uc0ac \uc7a5\uc218\uc57d\uad6d", "lat": "37.47643137288004", "lng": "126.9777442572907", "url": "/info/%EC%B0%B8%EC%95%BD%EC%82%AC+%EC%9E%A5%EC%88%98%EC%95%BD%EA%B5%AD-%EC%84%9C%EC%9A%B8%ED%8A%B9%EB%B3%84%EC%8B%9C-%EA%B4%80%EC%95%85%EA%B5%AC-%EB%82%A8%ED%98%84%EB%8F%99/", "workingTime": ["1,3\uc9f8\uc8fc08:30~22:00", "09:00~22:00", "09:00~22:00", "09:00~22:00", "09:00~22:00", "09:00~22:00", "09:00~22:00", "-"]}, {"name": "\uc11c\uc6b8\uc0ac\ub791\uc57d\uad6d", "lat": "37.4763369768354", "lng": "126.976925235707", "url": "/info/%EC%84%9C%EC%9A%B8%EC%82%AC%EB%9E%91%EC%95%BD%EA%B5%AD-%EC%84%9C%EC%9A%B8%ED%8A%B9%EB%B3%84%EC%8B%9C-%EA%B4%80%EC%95%85%EA%B5%AC-%EB%82%A8%ED%98%84%EB%8F%99/", "workingTime": ["-", "08:30~19:00", "08:30~19:00", "08:30~19:00", "08:30~21:00", "08:30~19:00", "08:30~14:00", "-"]}, {"name": "\uc0ac\ub2f9365\uc57d\uad6d", "lat": "37.47594047359085", "lng": "126.9811653106715", "url": "/info/%EC%82%AC%EB%8B%B9365%EC%95%BD%EA%B5%AD-%EC%84%9C%EC%9A%B8%ED%8A%B9%EB%B3%84%EC%8B%9C-%EA%B4%80%EC%95%85%EA%B5%AC-%EB%82%A8%ED%98%84%EB%8F%99/", "workingTime": ["1,2,3,4,5\uc9f8\uc8fc08:00~23:00", "08:00~23:30", "08:00~23:30", "08:00~23:30", "08:00~23:30", "08:00~23:30", "08:00~23:00", "09:00~23:00"]}, {"name": "\ub9c8\uc74c\uc57d\uad6d", "lat": "37.476069615205134", "lng": "126.97769679533417", "url": "/info/%EB%A7%88%EC%9D%8C%EC%95%BD%EA%B5%AD-%EC%84%9C%EC%9A%B8%ED%8A%B9%EB%B3%84%EC%8B%9C-%EA%B4%80%EC%95%85%EA%B5%AC-%EB%82%A8%ED%98%84%EB%8F%99/", "workingTime": ["-", "09:00~21:00", "09:00~21:00", "09:00~21:00", "09:00~21:00", "09:00~21:00", "09:00~18:00", "-"]}]