[{"name": "\ud6a8\ucc3d\uc57d\uad6d", "lat": "37.54082318846134", "lng": "126.95834225702083", "url": "/info/%ED%9A%A8%EC%B0%BD%EC%95%BD%EA%B5%AD-%EC%84%9C%EC%9A%B8%ED%8A%B9%EB%B3%84%EC%8B%9C-%EC%9A%A9%EC%82%B0%EA%B5%AC-%ED%9A%A8%EC%B0%BD%EB%8F%99/", "workingTime": ["-", "09:00~19:30", "09:00~19:30", "09:00~19:30", "09:00~19:30", "09:00~19:30", "09:00~14:30", "-"]}, {"name": "\uc218\uc57d\uad6d", "lat": "37.5404354350312", "lng": "126.959207036317", "url": "/info/%EC%88%98%EC%95%BD%EA%B5%AD-%EC%84%9C%EC%9A%B8%ED%8A%B9%EB%B3%84%EC%8B%9C-%EC%9A%A9%EC%82%B0%EA%B5%AC-%ED%9A%A8%EC%B0%BD%EB%8F%99/", "workingTime": ["-", "08:00~18:30", "08:00~18:30", "08:00~18:30", "08:00~18:30", "08:00~18:30", "08:00~15:30", "08:00~12:30"]}, {"name": "\uc0c8\ubd04\uc57d\uad6d", "lat": "37.5395980031473", "lng": "126.961220193937", "url": "/info/%EC%83%88%EB%B4%84%EC%95%BD%EA%B5%AD-%EC%84%9C%EC%9A%B8%ED%8A%B9%EB%B3%84%EC%8B%9C-%EC%9A%A9%EC%82%B0%EA%B5%AC-%ED%9A%A8%EC%B0%BD%EB%8F%99/", "workingTime": ["-", "08:40~19:30", "08:40~19:30", "08:40~19:30", "08:40~19:30", "08:40~19:30", "08:40~15:00", "-"]}, {"name": "\uc11c\uc548\uc57d\uad6d", "lat": "37.540480245339474", "lng": "126.9619994586639", "url": "/info/%EC%84%9C%EC%95%88%EC%95%BD%EA%B5%AD-%EC%84%9C%EC%9A%B8%ED%8A%B9%EB%B3%84%EC%8B%9C-%EC%9A%A9%EC%82%B0%EA%B5%AC-%ED%9A%A8%EC%B0%BD%EB%8F%99/", "workingTime": ["-", "08:00~14:00", "08:00~14:00", "08:00~14:00", "08:00~14:00", "08:00~14:00", "08:30~15:00", "-"]}, {"name": "\uc2e0\ud6a8\ucc3d\ud504\ub77c\uc790\uc57d\uad6d", "lat": "37.539618578237054", "lng": "126.96106077634599", "url": "/info/%EC%8B%A0%ED%9A%A8%EC%B0%BD%ED%94%84%EB%9D%BC%EC%9E%90%EC%95%BD%EA%B5%AD-%EC%84%9C%EC%9A%B8%ED%8A%B9%EB%B3%84%EC%8B%9C-%EC%9A%A9%EC%82%B0%EA%B5%AC-%ED%9A%A8%EC%B0%BD%EB%8F%99/", "workingTime": ["1,2,3,4,5\uc9f8\uc8fc09:00~13:00", "08:30~19:30", "08:30~19:30", "08:30~19:30", "08:30~19:30", "08:30~19:30", "08:00~16:00", "08:00~13:00"]}]