[{"name": "\uc2e0\ub3d9\uc544\uc57d\uad6d", "lat": "37.54572325950572", "lng": "127.04498323348639", "url": "/info/%EC%8B%A0%EB%8F%99%EC%95%84%EC%95%BD%EA%B5%AD-%EC%84%9C%EC%9A%B8%ED%8A%B9%EB%B3%84%EC%8B%9C-%EC%84%B1%EB%8F%99%EA%B5%AC-%EC%84%B1%EC%88%98%EB%8F%991%EA%B0%80/", "workingTime": ["-", "09:30~20:00", "09:30~20:00", "09:30~20:00", "09:30~20:00", "09:30~20:00", "09:30~17:00", "-"]}, {"name": "\ud478\ub978\uc57d\uad6d", "lat": "37.546959791742076", "lng": "127.04897136829143", "url": "/info/%ED%91%B8%EB%A5%B8%EC%95%BD%EA%B5%AD-%EC%84%9C%EC%9A%B8%ED%8A%B9%EB%B3%84%EC%8B%9C-%EC%84%B1%EB%8F%99%EA%B5%AC-%EC%84%B1%EC%88%98%EB%8F%991%EA%B0%80/", "workingTime": ["-", "09:00~19:00", "09:00~19:00", "09:00~19:00", "09:00~19:00", "09:00~19:00", "09:00~14:00", "-"]}, {"name": "\ud0c0\uc6cc\uc57d\uad6d", "lat": "37.546194350143", "lng": "127.048432321547", "url": "/info/%ED%83%80%EC%9B%8C%EC%95%BD%EA%B5%AD-%EC%84%9C%EC%9A%B8%ED%8A%B9%EB%B3%84%EC%8B%9C-%EC%84%B1%EB%8F%99%EA%B5%AC-%EC%84%B1%EC%88%98%EB%8F%991%EA%B0%80/", "workingTime": ["-", "08:30~19:30", "08:30~19:30", "08:30~19:30", "08:30~20:00", "08:30~19:30", "08:30~14:30", "-"]}, {"name": "\uc218\uba85\uc57d\uad6d", "lat": "37.546121678234", "lng": "127.044915171904", "url": "/info/%EC%88%98%EB%AA%85%EC%95%BD%EA%B5%AD-%EC%84%9C%EC%9A%B8%ED%8A%B9%EB%B3%84%EC%8B%9C-%EC%84%B1%EB%8F%99%EA%B5%AC-%EC%84%B1%EC%88%98%EB%8F%991%EA%B0%80/", "workingTime": ["1,2,3,4,5\uc9f8\uc8fc09:00~21:00", "09:00~21:00", "09:00~21:00", "09:00~21:00", "09:00~21:00", "09:00~21:00", "09:00~21:00", "-"]}, {"name": "\uc131\uc740\uc57d\uad6d", "lat": "37.5492992342", "lng": "127.0478865033", "url": "/info/%EC%84%B1%EC%9D%80%EC%95%BD%EA%B5%AD-%EC%84%9C%EC%9A%B8%ED%8A%B9%EB%B3%84%EC%8B%9C-%EC%84%B1%EB%8F%99%EA%B5%AC-%EC%84%B1%EC%88%98%EB%8F%991%EA%B0%80/", "workingTime": ["-", "09:00~21:00", "09:00~21:00", "09:00~21:00", "09:00~21:00", "09:00~21:00", "09:00~21:00", "-"]}, {"name": "\uc11c\uc6b8\uc232\ud31c\ud504\ub77c\uc790\uc57d\uad6d", "lat": "37.5418866227463", "lng": "127.04491059446", "url": "/info/%EC%84%9C%EC%9A%B8%EC%88%B2%ED%8C%9C%ED%94%84%EB%9D%BC%EC%9E%90%EC%95%BD%EA%B5%AD-%EC%84%9C%EC%9A%B8%ED%8A%B9%EB%B3%84%EC%8B%9C-%EC%84%B1%EB%8F%99%EA%B5%AC-%EC%84%B1%EC%88%98%EB%8F%991%EA%B0%80/", "workingTime": ["-", "09:00~19:30", "09:00~19:30", "09:00~19:30", "09:00~19:30", "09:00~19:30", "09:00~15:30", "-"]}, {"name": "\ub69d\uc12c\uc2a4\ud0c0\uc57d\uad6d", "lat": "37.546433559", "lng": "127.0491022687", "url": "/info/%EB%9A%9D%EC%84%AC%EC%8A%A4%ED%83%80%EC%95%BD%EA%B5%AD-%EC%84%9C%EC%9A%B8%ED%8A%B9%EB%B3%84%EC%8B%9C-%EC%84%B1%EB%8F%99%EA%B5%AC-%EC%84%B1%EC%88%98%EB%8F%991%EA%B0%80/", "workingTime": ["-", "08:30~20:00", "08:30~21:00", "08:30~20:00", "08:30~20:00", "08:30~20:00", "08:30~15:00", "09:00~13:00"]}, {"name": "\ucf54\ucf54\uc628\ub204\ub9ac\uc57d\uad6d", "lat": "37.5463214831341", "lng": "127.049513643301", "url": "/info/%EC%BD%94%EC%BD%94%EC%98%A8%EB%88%84%EB%A6%AC%EC%95%BD%EA%B5%AD-%EC%84%9C%EC%9A%B8%ED%8A%B9%EB%B3%84%EC%8B%9C-%EC%84%B1%EB%8F%99%EA%B5%AC-%EC%84%B1%EC%88%98%EB%8F%991%EA%B0%80/", "workingTime": ["-", "08:30~20:00", "08:30~20:00", "08:30~20:00", "08:30~20:00", "08:30~20:00", "08:30~15:00", "-"]}]