[{"name": "\uc790\uc774\uc218\uc57d\uad6d", "lat": "37.506633068827895", "lng": "127.01395196990772", "url": "/info/%EC%9E%90%EC%9D%B4%EC%88%98%EC%95%BD%EA%B5%AD-%EC%84%9C%EC%9A%B8%ED%8A%B9%EB%B3%84%EC%8B%9C-%EC%84%9C%EC%B4%88%EA%B5%AC-%EB%B0%98%ED%8F%AC%EB%8F%99/", "workingTime": ["-", "08:30~19:30", "08:30~19:30", "08:30~19:30", "08:30~19:30", "08:30~19:30", "08:30~15:30", "09:00~13:00"]}, {"name": "\uc601\ub3d9\ud504\ub77c\uc790\uc57d\uad6d", "lat": "37.5085059115", "lng": "127.0221228395", "url": "/info/%EC%98%81%EB%8F%99%ED%94%84%EB%9D%BC%EC%9E%90%EC%95%BD%EA%B5%AD-%EC%84%9C%EC%9A%B8%ED%8A%B9%EB%B3%84%EC%8B%9C-%EC%84%9C%EC%B4%88%EA%B5%AC-%EB%B0%98%ED%8F%AC%EB%8F%99/", "workingTime": ["-", "09:00~20:50", "09:00~20:50", "09:00~20:50", "09:00~20:50", "09:00~20:50", "09:00~18:00", "-"]}, {"name": "\uc704\ub4dc\ud31c\uc218\uc57d\uad6d", "lat": "37.50449284378187", "lng": "127.00784436615872", "url": "/info/%EC%9C%84%EB%93%9C%ED%8C%9C%EC%88%98%EC%95%BD%EA%B5%AD-%EC%84%9C%EC%9A%B8%ED%8A%B9%EB%B3%84%EC%8B%9C-%EC%84%9C%EC%B4%88%EA%B5%AC-%EB%B0%98%ED%8F%AC%EB%8F%99/", "workingTime": ["-", "08:30~18:30", "08:30~18:30", "08:30~18:30", "08:30~18:30", "08:30~18:30", "08:30~13:00", "-"]}, {"name": "\uc2e0\ubc18\ud3ec\uc628\ub204\ub9ac\uc57d\uad6d", "lat": "37.5043989463894", "lng": "127.000809203714", "url": "/info/%EC%8B%A0%EB%B0%98%ED%8F%AC%EC%98%A8%EB%88%84%EB%A6%AC%EC%95%BD%EA%B5%AD-%EC%84%9C%EC%9A%B8%ED%8A%B9%EB%B3%84%EC%8B%9C-%EC%84%9C%EC%B4%88%EA%B5%AC-%EB%B0%98%ED%8F%AC%EB%8F%99/", "workingTime": ["-", "09:00~20:00", "09:00~20:00", "09:00~20:00", "09:00~20:00", "09:00~20:00", "09:00~17:00", "-"]}, {"name": "\uc2e0\ub17c\ud604\uc62c\ub9ac\ube0c\uc57d\uad6d", "lat": "37.507100297326616", "lng": "127.022335073857", "url": "/info/%EC%8B%A0%EB%85%BC%ED%98%84%EC%98%AC%EB%A6%AC%EB%B8%8C%EC%95%BD%EA%B5%AD-%EC%84%9C%EC%9A%B8%ED%8A%B9%EB%B3%84%EC%8B%9C-%EC%84%9C%EC%B4%88%EA%B5%AC-%EB%B0%98%ED%8F%AC%EB%8F%99/", "workingTime": ["-", "09:00~21:00", "09:00~21:00", "09:00~21:00", "09:00~21:00", "09:00~21:00", "09:00~21:00", "-"]}, {"name": "\ud589\ubcf5\ub098\ub214\uc57d\uad6d", "lat": "37.5071164190274", "lng": "127.00987139904677", "url": "/info/%ED%96%89%EB%B3%B5%EB%82%98%EB%88%94%EC%95%BD%EA%B5%AD-%EC%84%9C%EC%9A%B8%ED%8A%B9%EB%B3%84%EC%8B%9C-%EC%84%9C%EC%B4%88%EA%B5%AC-%EB%B0%98%ED%8F%AC%EB%8F%99/", "workingTime": ["-", "09:00~19:00", "09:00~19:00", "09:00~19:00", "09:00~19:00", "09:00~19:00", "09:00~15:30", "-"]}, {"name": "\ud55c\uc57d\uad6d", "lat": "37.510531548054246", "lng": "127.02111455676382", "url": "/info/%ED%95%9C%EC%95%BD%EA%B5%AD-%EC%84%9C%EC%9A%B8%ED%8A%B9%EB%B3%84%EC%8B%9C-%EC%84%9C%EC%B4%88%EA%B5%AC-%EB%B0%98%ED%8F%AC%EB%8F%99/", "workingTime": ["-", "09:00~21:00", "09:00~21:00", "09:00~21:00", "09:00~21:00", "09:00~21:00", "09:00~18:00", "-"]}, {"name": "\ub354\ud558\ub298\uc57d\uad6d", "lat": "37.507644480789224", "lng": "127.02249355706712", "url": "/info/%EB%8D%94%ED%95%98%EB%8A%98%EC%95%BD%EA%B5%AD-%EC%84%9C%EC%9A%B8%ED%8A%B9%EB%B3%84%EC%8B%9C-%EC%84%9C%EC%B4%88%EA%B5%AC-%EB%B0%98%ED%8F%AC%EB%8F%99/", "workingTime": ["-", "09:00~18:00", "09:00~18:00", "09:00~18:00", "09:00~18:00", "09:00~18:00", "09:00~18:00", "-"]}, {"name": "\uc0bc\ubbf8\uc57d\uad6d", "lat": "37.5041993272", "lng": "127.0209137039", "url": "/info/%EC%82%BC%EB%AF%B8%EC%95%BD%EA%B5%AD-%EC%84%9C%EC%9A%B8%ED%8A%B9%EB%B3%84%EC%8B%9C-%EC%84%9C%EC%B4%88%EA%B5%AC-%EB%B0%98%ED%8F%AC%EB%8F%99/", "workingTime": ["-", "10:30~21:00", "10:30~21:00", "10:30~21:00", "10:30~21:00", "10:30~21:00", "11:00~19:00", "-"]}, {"name": "\ucc9c\uc0ac\uc57d\uad6d", "lat": "37.50373399167655", "lng": "127.00598204705838", "url": "/info/%EC%B2%9C%EC%82%AC%EC%95%BD%EA%B5%AD-%EC%84%9C%EC%9A%B8%ED%8A%B9%EB%B3%84%EC%8B%9C-%EC%84%9C%EC%B4%88%EA%B5%AC-%EB%B0%98%ED%8F%AC%EB%8F%99/", "workingTime": ["-", "08:30~19:30", "08:30~19:00", "08:30~19:00", "08:30~19:00", "08:30~19:00", "08:30~18:00", "10:00~18:00"]}, {"name": "\uc0ac\ub791\uc57d\uad6d", "lat": "37.5023902684594", "lng": "126.995965286053", "url": "/info/%EC%82%AC%EB%9E%91%EC%95%BD%EA%B5%AD-%EC%84%9C%EC%9A%B8%ED%8A%B9%EB%B3%84%EC%8B%9C-%EC%84%9C%EC%B4%88%EA%B5%AC-%EB%B0%98%ED%8F%AC%EB%8F%99/", "workingTime": ["-", "09:00~18:30", "09:00~18:30", "09:00~18:30", "09:00~18:30", "09:00~18:30", "09:00~13:00", "-"]}, {"name": "\ubcf4\ubb3c\uc12c\uc57d\uad6d", "lat": "37.5071164190274", "lng": "127.00987139904677", "url": "/info/%EB%B3%B4%EB%AC%BC%EC%84%AC%EC%95%BD%EA%B5%AD-%EC%84%9C%EC%9A%B8%ED%8A%B9%EB%B3%84%EC%8B%9C-%EC%84%9C%EC%B4%88%EA%B5%AC-%EB%B0%98%ED%8F%AC%EB%8F%99/", "workingTime": ["-", "09:00~18:00", "09:00~18:00", "09:00~18:00", "09:00~18:00", "09:00~18:00", "-", "-"]}, {"name": "\ubcf4\ub78c\uc57d\uad6d", "lat": "37.503234795314796", "lng": "127.01085256875614", "url": "/info/%EB%B3%B4%EB%9E%8C%EC%95%BD%EA%B5%AD-%EC%84%9C%EC%9A%B8%ED%8A%B9%EB%B3%84%EC%8B%9C-%EC%84%9C%EC%B4%88%EA%B5%AC-%EB%B0%98%ED%8F%AC%EB%8F%99/", "workingTime": ["-", "09:30~19:30", "09:30~19:30", "09:30~19:30", "09:30~19:30", "09:30~19:30", "09:30~15:00", "-"]}, {"name": "\ubc14\ub85c\uc774\uc57d\uad6d", "lat": "37.5021563648911", "lng": "127.012024373585", "url": "/info/%EB%B0%94%EB%A1%9C%EC%9D%B4%EC%95%BD%EA%B5%AD-%EC%84%9C%EC%9A%B8%ED%8A%B9%EB%B3%84%EC%8B%9C-%EC%84%9C%EC%B4%88%EA%B5%AC-%EB%B0%98%ED%8F%AC%EB%8F%99/", "workingTime": ["1,2,3,4,5\uc9f8\uc8fc09:10~13:00", "09:30~20:00", "09:30~20:00", "09:30~20:00", "09:30~20:00", "09:30~20:00", "09:30~16:00", "-"]}, {"name": "\uc11c\ucd08\ubbf8\uc18c\uc57d\uad6d", "lat": "37.502157085737366", "lng": "127.01202403442161", "url": "/info/%EC%84%9C%EC%B4%88%EB%AF%B8%EC%86%8C%EC%95%BD%EA%B5%AD-%EC%84%9C%EC%9A%B8%ED%8A%B9%EB%B3%84%EC%8B%9C-%EC%84%9C%EC%B4%88%EA%B5%AC-%EB%B0%98%ED%8F%AC%EB%8F%99/", "workingTime": ["-", "08:30~18:30", "08:30~18:30", "08:30~18:30", "08:30~18:30", "08:30~18:30", "08:30~15:30", "-"]}, {"name": "\uae30\ub9b0\uc57d\uad6d", "lat": "37.507116419000006", "lng": "127.009871399", "url": "/info/%EA%B8%B0%EB%A6%B0%EC%95%BD%EA%B5%AD-%EC%84%9C%EC%9A%B8%ED%8A%B9%EB%B3%84%EC%8B%9C-%EC%84%9C%EC%B4%88%EA%B5%AC-%EB%B0%98%ED%8F%AC%EB%8F%99/", "workingTime": ["1,2,3,4,5\uc9f8\uc8fc22:00~25:00", "09:00~25:00", "09:00~25:00", "09:00~25:00", "09:00~25:00", "09:00~25:00", "09:00~25:00", "-"]}, {"name": "\uace0\uc5f0\ubfcc\ub9ac\uc57d\uad6d", "lat": "37.5046479936", "lng": "127.0044424357", "url": "/info/%EA%B3%A0%EC%97%B0%EB%BF%8C%EB%A6%AC%EC%95%BD%EA%B5%AD-%EC%84%9C%EC%9A%B8%ED%8A%B9%EB%B3%84%EC%8B%9C-%EC%84%9C%EC%B4%88%EA%B5%AC-%EB%B0%98%ED%8F%AC%EB%8F%99/", "workingTime": ["1,2,3,4,5\uc9f8\uc8fc09:00~22:00", "09:00~22:00", "09:00~22:00", "09:00~22:00", "09:00~22:00", "09:00~22:00", "09:00~22:00", "09:00~22:00"]}, {"name": "\uace0\uc18d\ud130\ubbf8\ub110\uc57d\uad6d", "lat": "37.5064357442307", "lng": "127.006834366246", "url": "/info/%EA%B3%A0%EC%86%8D%ED%84%B0%EB%AF%B8%EB%84%90%EC%95%BD%EA%B5%AD-%EC%84%9C%EC%9A%B8%ED%8A%B9%EB%B3%84%EC%8B%9C-%EC%84%9C%EC%B4%88%EA%B5%AC-%EB%B0%98%ED%8F%AC%EB%8F%99/", "workingTime": ["1,2,3,4,5\uc9f8\uc8fc09:00~21:00", "09:00~21:00", "09:00~21:00", "09:00~21:00", "09:00~21:00", "09:00~21:00", "09:00~21:00", "09:00~21:00"]}, {"name": "\uc774\uce35\uc740\uc57d\uad6d", "lat": "37.502157085737366", "lng": "127.01202403442161", "url": "/info/%EC%9D%B4%EC%B8%B5%EC%9D%80%EC%95%BD%EA%B5%AD-%EC%84%9C%EC%9A%B8%ED%8A%B9%EB%B3%84%EC%8B%9C-%EC%84%9C%EC%B4%88%EA%B5%AC-%EB%B0%98%ED%8F%AC%EB%8F%99/", "workingTime": ["-", "09:00~18:40", "09:00~18:40", "09:00~18:40", "09:00~18:40", "09:00~18:40", "09:00~14:30", "-"]}, {"name": "\ubc18\ud3ec\uc790\uc774\uc911\uc559\uc57d\uad6d", "lat": "37.5071156980651", "lng": "127.009873208557", "url": "/info/%EB%B0%98%ED%8F%AC%EC%9E%90%EC%9D%B4%EC%A4%91%EC%95%99%EC%95%BD%EA%B5%AD-%EC%84%9C%EC%9A%B8%ED%8A%B9%EB%B3%84%EC%8B%9C-%EC%84%9C%EC%B4%88%EA%B5%AC-%EB%B0%98%ED%8F%AC%EB%8F%99/", "workingTime": ["-", "09:00~18:30", "09:00~18:30", "09:00~18:30", "09:00~18:30", "09:00~18:30", "09:00~15:00", "-"]}, {"name": "\uc5f4\ub9b0\uc628\ub204\ub9ac\uc57d\uad6d", "lat": "37.507366411327", "lng": "127.022594811887", "url": "/info/%EC%97%B4%EB%A6%B0%EC%98%A8%EB%88%84%EB%A6%AC%EC%95%BD%EA%B5%AD-%EC%84%9C%EC%9A%B8%ED%8A%B9%EB%B3%84%EC%8B%9C-%EC%84%9C%EC%B4%88%EA%B5%AC-%EB%B0%98%ED%8F%AC%EB%8F%99/", "workingTime": ["-", "09:30~18:30", "09:30~18:30", "09:30~18:30", "09:30~18:30", "09:30~18:30", "09:00~14:00", "-"]}, {"name": "\ub17c\ud604\ubc14\ub978\uc57d\uad6d", "lat": "37.5082880328998", "lng": "127.022205905271", "url": "/info/%EB%85%BC%ED%98%84%EB%B0%94%EB%A5%B8%EC%95%BD%EA%B5%AD-%EC%84%9C%EC%9A%B8%ED%8A%B9%EB%B3%84%EC%8B%9C-%EC%84%9C%EC%B4%88%EA%B5%AC-%EB%B0%98%ED%8F%AC%EB%8F%99/", "workingTime": ["-", "09:30~19:30", "09:30~19:30", "09:30~19:30", "09:30~19:30", "09:30~20:30", "09:30~17:30", "-"]}, {"name": "\ud2f0\ud30c\ub2c8\uc57d\uad6d", "lat": "37.503036615558244", "lng": "127.01039111573074", "url": "/info/%ED%8B%B0%ED%8C%8C%EB%8B%88%EC%95%BD%EA%B5%AD-%EC%84%9C%EC%9A%B8%ED%8A%B9%EB%B3%84%EC%8B%9C-%EC%84%9C%EC%B4%88%EA%B5%AC-%EB%B0%98%ED%8F%AC%EB%8F%99/", "workingTime": ["-", "09:00~20:00", "09:00~20:00", "09:00~20:00", "09:00~20:00", "09:00~20:00", "09:00~17:00", "-"]}, {"name": "\uc0d8\ud130\uc57d\uad6d", "lat": "37.5021570857", "lng": "127.0120240344", "url": "/info/%EC%83%98%ED%84%B0%EC%95%BD%EA%B5%AD-%EC%84%9C%EC%9A%B8%ED%8A%B9%EB%B3%84%EC%8B%9C-%EC%84%9C%EC%B4%88%EA%B5%AC-%EB%B0%98%ED%8F%AC%EB%8F%99/", "workingTime": ["-", "09:00~22:00", "09:00~22:00", "09:00~22:00", "09:00~22:00", "09:00~22:00", "09:00~14:00", "-"]}, {"name": "\uc2e0\uba85\uc131\uc57d\uad6d", "lat": "37.49875908732936", "lng": "126.99857059135124", "url": "/info/%EC%8B%A0%EB%AA%85%EC%84%B1%EC%95%BD%EA%B5%AD-%EC%84%9C%EC%9A%B8%ED%8A%B9%EB%B3%84%EC%8B%9C-%EC%84%9C%EC%B4%88%EA%B5%AC-%EB%B0%98%ED%8F%AC%EB%8F%99/", "workingTime": ["-", "09:00~21:00", "09:00~21:00", "09:00~21:00", "09:00~21:00", "09:00~21:00", "09:00~21:00", "-"]}, {"name": "\uc138\ud654\uc57d\uad6d", "lat": "37.50307664402139", "lng": "126.9956662278902", "url": "/info/%EC%84%B8%ED%99%94%EC%95%BD%EA%B5%AD-%EC%84%9C%EC%9A%B8%ED%8A%B9%EB%B3%84%EC%8B%9C-%EC%84%9C%EC%B4%88%EA%B5%AC-%EB%B0%98%ED%8F%AC%EB%8F%99/", "workingTime": ["-", "08:30~18:30", "08:30~18:30", "08:30~18:30", "08:30~18:30", "08:30~18:30", "09:00~13:00", "-"]}, {"name": "\uba54\ub515\uc2a4\uc57d\uad6d", "lat": "37.50243257060162", "lng": "127.01198491316963", "url": "/info/%EB%A9%94%EB%94%95%EC%8A%A4%EC%95%BD%EA%B5%AD-%EC%84%9C%EC%9A%B8%ED%8A%B9%EB%B3%84%EC%8B%9C-%EC%84%9C%EC%B4%88%EA%B5%AC-%EB%B0%98%ED%8F%AC%EB%8F%99/", "workingTime": ["-", "08:30~19:00", "08:30~19:00", "08:30~19:00", "08:30~19:00", "08:30~19:00", "08:30~15:00", "-"]}, {"name": "\ubc18\ud3ec\ub2e4\uc815\uc57d\uad6d", "lat": "37.50496162704674", "lng": "127.00000000000001", "url": "/info/%EB%B0%98%ED%8F%AC%EB%8B%A4%EC%A0%95%EC%95%BD%EA%B5%AD-%EC%84%9C%EC%9A%B8%ED%8A%B9%EB%B3%84%EC%8B%9C-%EC%84%9C%EC%B4%88%EA%B5%AC-%EB%B0%98%ED%8F%AC%EB%8F%99/", "workingTime": ["-", "09:00~20:00", "09:00~20:00", "09:00~20:00", "09:00~20:00", "09:00~20:00", "-", "-"]}, {"name": "\ub77c\uc784\uc57d\uad6d", "lat": "37.502117506427304", "lng": "127.01136808975077", "url": "/info/%EB%9D%BC%EC%9E%84%EC%95%BD%EA%B5%AD-%EC%84%9C%EC%9A%B8%ED%8A%B9%EB%B3%84%EC%8B%9C-%EC%84%9C%EC%B4%88%EA%B5%AC-%EB%B0%98%ED%8F%AC%EB%8F%99/", "workingTime": ["-", "08:30~19:00", "08:30~19:00", "08:30~20:30", "08:30~19:00", "08:30~19:00", "08:30~15:30", "-"]}, {"name": "\ub3c4\uc77c\uc57d\uad6d", "lat": "37.50464944615799", "lng": "127.02294506551917", "url": "/info/%EB%8F%84%EC%9D%BC%EC%95%BD%EA%B5%AD-%EC%84%9C%EC%9A%B8%ED%8A%B9%EB%B3%84%EC%8B%9C-%EC%84%9C%EC%B4%88%EA%B5%AC-%EB%B0%98%ED%8F%AC%EB%8F%99/", "workingTime": ["-", "09:00~21:30", "09:00~21:30", "09:00~21:30", "09:00~21:30", "09:00~21:30", "09:00~21:30", "-"]}, {"name": "3\uce35\ud55c\uc0ac\ub791\uc57d\uad6d", "lat": "37.50454857673568", "lng": "127.00087922331", "url": "/info/3%EC%B8%B5%ED%95%9C%EC%82%AC%EB%9E%91%EC%95%BD%EA%B5%AD-%EC%84%9C%EC%9A%B8%ED%8A%B9%EB%B3%84%EC%8B%9C-%EC%84%9C%EC%B4%88%EA%B5%AC-%EB%B0%98%ED%8F%AC%EB%8F%99/", "workingTime": ["-", "09:00~18:30", "09:00~18:30", "09:00~18:30", "09:00~18:30", "09:00~18:30", "09:00~14:00", "-"]}, {"name": "\uc870\ub2ec\uccad\uc0ac\uc57d\uad6d", "lat": "37.4994973402657", "lng": "127.003335556023", "url": "/info/%EC%A1%B0%EB%8B%AC%EC%B2%AD%EC%82%AC%EC%95%BD%EA%B5%AD-%EC%84%9C%EC%9A%B8%ED%8A%B9%EB%B3%84%EC%8B%9C-%EC%84%9C%EC%B4%88%EA%B5%AC-%EB%B0%98%ED%8F%AC%EB%8F%99/", "workingTime": ["-", "08:30~18:30", "08:30~18:30", "08:30~18:30", "08:30~18:30", "08:30~18:30", "08:30~13:00", "-"]}, {"name": "\uc5d0\uc774\uce58\uc57d\uad6d", "lat": "37.5053254283579", "lng": "127.023648945463", "url": "/info/%EC%97%90%EC%9D%B4%EC%B9%98%EC%95%BD%EA%B5%AD-%EC%84%9C%EC%9A%B8%ED%8A%B9%EB%B3%84%EC%8B%9C-%EC%84%9C%EC%B4%88%EA%B5%AC-%EB%B0%98%ED%8F%AC%EB%8F%99/", "workingTime": ["-", "09:30~20:30", "09:30~21:30", "09:30~20:00", "09:30~20:30", "09:30~21:30", "09:30~18:00", "-"]}]