[{"name": "\ub355\uc218\uc57d\uad6d", "lat": "37.59729942233625", "lng": "127.07595354316272", "url": "/info/%EB%8D%95%EC%88%98%EC%95%BD%EA%B5%AD-%EC%84%9C%EC%9A%B8%ED%8A%B9%EB%B3%84%EC%8B%9C-%EC%A4%91%EB%9E%91%EA%B5%AC-%EC%A4%91%ED%99%94%EB%8F%99/", "workingTime": ["-", "08:30~18:30", "08:30~18:30", "08:30~18:30", "08:30~18:30", "08:30~18:30", "08:30~13:30", "-"]}, {"name": "\uc628\ub204\ub9ac\uc2e0\uc6a9\uc57d\uad6d", "lat": "37.59548254220228", "lng": "127.07242443846088", "url": "/info/%EC%98%A8%EB%88%84%EB%A6%AC%EC%8B%A0%EC%9A%A9%EC%95%BD%EA%B5%AD-%EC%84%9C%EC%9A%B8%ED%8A%B9%EB%B3%84%EC%8B%9C-%EC%A4%91%EB%9E%91%EA%B5%AC-%EC%A4%91%ED%99%94%EB%8F%99/", "workingTime": ["-", "10:00~20:00", "10:00~20:00", "10:00~20:00", "10:00~20:00", "10:00~20:00", "10:00~20:00", "-"]}, {"name": "\ub300\uc6d0\uc0ac\uc57d\uad6d", "lat": "37.601396702", "lng": "127.0779926626", "url": "/info/%EB%8C%80%EC%9B%90%EC%82%AC%EC%95%BD%EA%B5%AD-%EC%84%9C%EC%9A%B8%ED%8A%B9%EB%B3%84%EC%8B%9C-%EC%A4%91%EB%9E%91%EA%B5%AC-%EC%A4%91%ED%99%94%EB%8F%99/", "workingTime": ["1,2,3,4,5\uc9f8\uc8fc10:00~20:00", "08:30~22:00", "08:30~22:00", "08:30~22:00", "08:30~22:00", "08:30~22:00", "08:30~18:30", "10:00~20:00"]}, {"name": "\ub300\uc2e0\uc57d\uad6d", "lat": "37.602066666666666", "lng": "127.079655555555561", "url": "/info/%EB%8C%80%EC%8B%A0%EC%95%BD%EA%B5%AD-%EC%84%9C%EC%9A%B8%ED%8A%B9%EB%B3%84%EC%8B%9C-%EC%A4%91%EB%9E%91%EA%B5%AC-%EC%A4%91%ED%99%94%EB%8F%99/", "workingTime": ["-", "09:00~19:00", "09:00~19:00", "09:00~19:00", "09:00~19:00", "09:00~19:00", "09:00~16:30", "-"]}, {"name": "\uce60\uce60\uc57d\uad6d", "lat": "37.599774913874825", "lng": "127.08049033651389", "url": "/info/%EC%B9%A0%EC%B9%A0%EC%95%BD%EA%B5%AD-%EC%84%9C%EC%9A%B8%ED%8A%B9%EB%B3%84%EC%8B%9C-%EC%A4%91%EB%9E%91%EA%B5%AC-%EC%A4%91%ED%99%94%EB%8F%99/", "workingTime": ["-", "09:00~21:00", "09:00~21:00", "09:00~21:00", "09:00~21:00", "09:00~21:00", "09:00~21:00", "-"]}, {"name": "\ucc44\uc6c0\uc57d\uad6d", "lat": "37.60174227036689", "lng": "127.07861359728315", "url": "/info/%EC%B1%84%EC%9B%80%EC%95%BD%EA%B5%AD-%EC%84%9C%EC%9A%B8%ED%8A%B9%EB%B3%84%EC%8B%9C-%EC%A4%91%EB%9E%91%EA%B5%AC-%EC%A4%91%ED%99%94%EB%8F%99/", "workingTime": ["-", "09:00~20:00", "09:00~19:00", "09:00~20:00", "09:00~19:00", "09:00~20:00", "-", "-"]}, {"name": "\uc815\uc131\uc57d\uad6d", "lat": "37.59736360416321", "lng": "127.08090449620894", "url": "/info/%EC%A0%95%EC%84%B1%EC%95%BD%EA%B5%AD-%EC%84%9C%EC%9A%B8%ED%8A%B9%EB%B3%84%EC%8B%9C-%EC%A4%91%EB%9E%91%EA%B5%AC-%EC%A4%91%ED%99%94%EB%8F%99/", "workingTime": ["-", "09:00~19:00", "09:00~19:00", "09:00~19:00", "09:00~19:00", "09:00~19:00", "09:00~14:00", "-"]}, {"name": "\uc190\uc57d\uad6d", "lat": "37.598861527152984", "lng": "127.07742288234608", "url": "/info/%EC%86%90%EC%95%BD%EA%B5%AD-%EC%84%9C%EC%9A%B8%ED%8A%B9%EB%B3%84%EC%8B%9C-%EC%A4%91%EB%9E%91%EA%B5%AC-%EC%A4%91%ED%99%94%EB%8F%99/", "workingTime": ["-", "09:00~18:30", "09:00~18:30", "09:00~18:30", "09:00~18:30", "09:00~18:30", "09:00~14:00", "-"]}, {"name": "\uc138\ud654\ub2f9\uc57d\uad6d", "lat": "37.59589281555623", "lng": "127.07596141764586", "url": "/info/%EC%84%B8%ED%99%94%EB%8B%B9%EC%95%BD%EA%B5%AD-%EC%84%9C%EC%9A%B8%ED%8A%B9%EB%B3%84%EC%8B%9C-%EC%A4%91%EB%9E%91%EA%B5%AC-%EC%A4%91%ED%99%94%EB%8F%99/", "workingTime": ["1,2,3,4,5\uc9f8\uc8fc11:00~20:30", "11:00~20:30", "11:00~20:30", "11:00~20:30", "11:00~20:30", "11:00~20:30", "11:00~20:30", "11:00~20:30"]}, {"name": "\uc138\uacc4\ub85c\uc57d\uad6d", "lat": "37.599688702066", "lng": "127.079466740593", "url": "/info/%EC%84%B8%EA%B3%84%EB%A1%9C%EC%95%BD%EA%B5%AD-%EC%84%9C%EC%9A%B8%ED%8A%B9%EB%B3%84%EC%8B%9C-%EC%A4%91%EB%9E%91%EA%B5%AC-%EC%A4%91%ED%99%94%EB%8F%99/", "workingTime": ["-", "09:00~21:00", "09:00~21:00", "09:00~21:00", "09:00~21:00", "09:00~21:00", "09:00~21:00", "-"]}, {"name": "\ub298\ud478\ub978\uc57d\uad6d", "lat": "37.60215285550001", "lng": "127.07901264840001", "url": "/info/%EB%8A%98%ED%91%B8%EB%A5%B8%EC%95%BD%EA%B5%AD-%EC%84%9C%EC%9A%B8%ED%8A%B9%EB%B3%84%EC%8B%9C-%EC%A4%91%EB%9E%91%EA%B5%AC-%EC%A4%91%ED%99%94%EB%8F%99/", "workingTime": ["-", "09:00~19:00", "09:00~19:00", "09:00~19:00", "09:00~19:00", "09:00~19:00", "09:00~15:00", "-"]}, {"name": "\uac74\uac15\uc81c\uc77c\uc628\ub204\ub9ac\uc57d\uad6d", "lat": "37.600717823805006", "lng": "127.07998501080421", "url": "/info/%EA%B1%B4%EA%B0%95%EC%A0%9C%EC%9D%BC%EC%98%A8%EB%88%84%EB%A6%AC%EC%95%BD%EA%B5%AD-%EC%84%9C%EC%9A%B8%ED%8A%B9%EB%B3%84%EC%8B%9C-%EC%A4%91%EB%9E%91%EA%B5%AC-%EC%A4%91%ED%99%94%EB%8F%99/", "workingTime": ["-", "09:00~20:00", "09:00~20:00", "09:00~20:00", "09:00~20:00", "09:00~20:00", "09:00~15:00", "-"]}, {"name": "\ud0dc\ub989\ud504\ub77c\uc790\uc57d\uad6d", "lat": "37.59831045072358", "lng": "127.07691501944072", "url": "/info/%ED%83%9C%EB%A6%89%ED%94%84%EB%9D%BC%EC%9E%90%EC%95%BD%EA%B5%AD-%EC%84%9C%EC%9A%B8%ED%8A%B9%EB%B3%84%EC%8B%9C-%EC%A4%91%EB%9E%91%EA%B5%AC-%EC%A4%91%ED%99%94%EB%8F%99/", "workingTime": ["1,2,3,4,5\uc9f8\uc8fc15:00~19:00", "08:30~20:00", "08:30~20:00", "08:30~20:00", "08:30~20:00", "08:30~20:00", "08:30~20:00", "15:00~19:00"]}, {"name": "\uc740\ud589\uc57d\uad6d", "lat": "37.60148711307418", "lng": "127.07999388084903", "url": "/info/%EC%9D%80%ED%96%89%EC%95%BD%EA%B5%AD-%EC%84%9C%EC%9A%B8%ED%8A%B9%EB%B3%84%EC%8B%9C-%EC%A4%91%EB%9E%91%EA%B5%AC-%EC%A4%91%ED%99%94%EB%8F%99/", "workingTime": ["-", "09:00~20:00", "09:00~20:00", "09:00~20:00", "09:00~20:00", "09:00~20:00", "09:00~16:00", "-"]}, {"name": "\uc5d4\ud30c\ud2b8\uc57d\uad6d", "lat": "37.59397612704119", "lng": "127.07499478256373", "url": "/info/%EC%97%94%ED%8C%8C%ED%8A%B8%EC%95%BD%EA%B5%AD-%EC%84%9C%EC%9A%B8%ED%8A%B9%EB%B3%84%EC%8B%9C-%EC%A4%91%EB%9E%91%EA%B5%AC-%EC%A4%91%ED%99%94%EB%8F%99/", "workingTime": ["1,2,3,4,5\uc9f8\uc8fc10:00~13:00", "09:00~19:00", "09:00~19:00", "09:00~19:00", "09:00~19:00", "09:00~19:00", "09:00~17:00", "09:00~15:00"]}, {"name": "\ub85c\uc584\uc57d\uad6d", "lat": "37.595356849403", "lng": "127.0799512087186", "url": "/info/%EB%A1%9C%EC%96%84%EC%95%BD%EA%B5%AD-%EC%84%9C%EC%9A%B8%ED%8A%B9%EB%B3%84%EC%8B%9C-%EC%A4%91%EB%9E%91%EA%B5%AC-%EC%A4%91%ED%99%94%EB%8F%99/", "workingTime": ["-", "08:00~18:30", "08:00~18:30", "08:00~18:30", "08:00~18:30", "08:00~18:30", "08:00~15:30", "-"]}, {"name": "\ub3d9\uc544\uc57d\uad6d", "lat": "37.60016608358838", "lng": "127.08293220683666", "url": "/info/%EB%8F%99%EC%95%84%EC%95%BD%EA%B5%AD-%EC%84%9C%EC%9A%B8%ED%8A%B9%EB%B3%84%EC%8B%9C-%EC%A4%91%EB%9E%91%EA%B5%AC-%EC%A4%91%ED%99%94%EB%8F%99/", "workingTime": ["-", "09:00~21:30", "09:00~21:30", "09:00~21:30", "09:00~21:30", "09:00~21:30", "09:00~21:30", "-"]}, {"name": "\uc6b0\uc120\uc57d\uad6d", "lat": "37.60173119847281", "lng": "127.08145723016729", "url": "/info/%EC%9A%B0%EC%84%A0%EC%95%BD%EA%B5%AD-%EC%84%9C%EC%9A%B8%ED%8A%B9%EB%B3%84%EC%8B%9C-%EC%A4%91%EB%9E%91%EA%B5%AC-%EC%A4%91%ED%99%94%EB%8F%99/", "workingTime": ["-", "08:40~18:00", "08:40~18:00", "08:40~18:00", "08:40~18:00", "08:40~18:00", "08:40~14:00", "-"]}]