[{"name": "\uc5d0\uc774\ud2f0\uc57d\uad6d", "lat": "37.4682574779231", "lng": "127.03914160862243", "url": "/info/%EC%97%90%EC%9D%B4%ED%8B%B0%EC%95%BD%EA%B5%AD-%EC%84%9C%EC%9A%B8%ED%8A%B9%EB%B3%84%EC%8B%9C-%EC%84%9C%EC%B4%88%EA%B5%AC-%EC%96%91%EC%9E%AC%EB%8F%99/", "workingTime": ["1,2,3,4,5\uc9f8\uc8fc13:00~17:00", "09:30~17:00", "09:30~17:00", "09:30~17:00", "09:30~17:00", "09:30~17:00", "-", "-"]}, {"name": "\uc591\uc7ac\ud31c24\uc57d\uad6d", "lat": "37.4832958674", "lng": "127.0362168007", "url": "/info/%EC%96%91%EC%9E%AC%ED%8C%9C24%EC%95%BD%EA%B5%AD-%EC%84%9C%EC%9A%B8%ED%8A%B9%EB%B3%84%EC%8B%9C-%EC%84%9C%EC%B4%88%EA%B5%AC-%EC%96%91%EC%9E%AC%EB%8F%99/", "workingTime": ["-", "08:30~18:00", "08:30~18:00", "08:30~18:00", "08:30~18:00", "08:30~18:00", "08:30~13:30", "-"]}, {"name": "\uc591\uc7ac\uc18c\ub9dd\uc57d\uad6d", "lat": "37.47221558736947", "lng": "127.04072431962584", "url": "/info/%EC%96%91%EC%9E%AC%EC%86%8C%EB%A7%9D%EC%95%BD%EA%B5%AD-%EC%84%9C%EC%9A%B8%ED%8A%B9%EB%B3%84%EC%8B%9C-%EC%84%9C%EC%B4%88%EA%B5%AC-%EC%96%91%EC%9E%AC%EB%8F%99/", "workingTime": ["-", "09:00~20:00", "09:00~20:00", "09:00~20:00", "09:00~20:00", "09:00~20:00", "09:00~15:00", "-"]}, {"name": "\uc591\uc7ac\ub85c\ud558\uc2a4\uc57d\uad6d", "lat": "37.4691271602", "lng": "127.0400308204", "url": "/info/%EC%96%91%EC%9E%AC%EB%A1%9C%ED%95%98%EC%8A%A4%EC%95%BD%EA%B5%AD-%EC%84%9C%EC%9A%B8%ED%8A%B9%EB%B3%84%EC%8B%9C-%EC%84%9C%EC%B4%88%EA%B5%AC-%EC%96%91%EC%9E%AC%EB%8F%99/", "workingTime": ["-", "09:00~19:00", "09:00~19:00", "09:00~19:00", "09:00~19:00", "09:00~19:00", "09:00~14:00", "-"]}, {"name": "\uc57d\uc0ac\ub791\uc57d\uad6d", "lat": "37.48332354120099", "lng": "127.03480752081353", "url": "/info/%EC%95%BD%EC%82%AC%EB%9E%91%EC%95%BD%EA%B5%AD-%EC%84%9C%EC%9A%B8%ED%8A%B9%EB%B3%84%EC%8B%9C-%EC%84%9C%EC%B4%88%EA%B5%AC-%EC%96%91%EC%9E%AC%EB%8F%99/", "workingTime": ["-", "09:00~20:00", "09:00~18:00", "09:00~18:00", "09:00~18:00", "09:00~20:00", "09:00~16:00", "-"]}, {"name": "\ud658\uc2b9\uc57d\uad6d", "lat": "37.483435317457804", "lng": "127.03462214587293", "url": "/info/%ED%99%98%EC%8A%B9%EC%95%BD%EA%B5%AD-%EC%84%9C%EC%9A%B8%ED%8A%B9%EB%B3%84%EC%8B%9C-%EC%84%9C%EC%B4%88%EA%B5%AC-%EC%96%91%EC%9E%AC%EB%8F%99/", "workingTime": ["-", "09:00~21:00", "09:00~21:00", "09:00~21:00", "09:00~21:00", "09:00~21:00", "09:00~17:00", "-"]}, {"name": "\uba54\ub514\ud31c\uc232\uc57d\uad6d", "lat": "37.4797401993471", "lng": "127.03882290518", "url": "/info/%EB%A9%94%EB%94%94%ED%8C%9C%EC%88%B2%EC%95%BD%EA%B5%AD-%EC%84%9C%EC%9A%B8%ED%8A%B9%EB%B3%84%EC%8B%9C-%EC%84%9C%EC%B4%88%EA%B5%AC-%EC%96%91%EC%9E%AC%EB%8F%99/", "workingTime": ["-", "09:00~20:00", "09:00~20:00", "09:00~20:00", "09:00~20:00", "09:00~20:00", "09:00~16:00", "-"]}, {"name": "\ud574\ub9d1\uc740\uc57d\uad6d", "lat": "37.484415427664146", "lng": "127.03525574351636", "url": "/info/%ED%95%B4%EB%A7%91%EC%9D%80%EC%95%BD%EA%B5%AD-%EC%84%9C%EC%9A%B8%ED%8A%B9%EB%B3%84%EC%8B%9C-%EC%84%9C%EC%B4%88%EA%B5%AC-%EC%96%91%EC%9E%AC%EB%8F%99/", "workingTime": ["-", "09:00~19:00", "09:00~19:00", "09:00~19:00", "09:00~19:00", "09:00~19:00", "09:00~16:00", "-"]}, {"name": "\ud558\ub098\ub85c\uc57d\uad6d", "lat": "37.4632297048", "lng": "127.0435317366", "url": "/info/%ED%95%98%EB%82%98%EB%A1%9C%EC%95%BD%EA%B5%AD-%EC%84%9C%EC%9A%B8%ED%8A%B9%EB%B3%84%EC%8B%9C-%EC%84%9C%EC%B4%88%EA%B5%AC-%EC%96%91%EC%9E%AC%EB%8F%99/", "workingTime": ["1,2,3,4,5\uc9f8\uc8fc09:30~20:30", "09:30~20:30", "09:30~20:30", "09:30~20:30", "09:30~20:30", "09:30~20:30", "09:30~20:30", "09:30~20:30"]}, {"name": "\ub0a8\ubd80\uc7a5\uc218\uc57d\uad6d", "lat": "37.47168271927383", "lng": "127.04544677217868", "url": "/info/%EB%82%A8%EB%B6%80%EC%9E%A5%EC%88%98%EC%95%BD%EA%B5%AD-%EC%84%9C%EC%9A%B8%ED%8A%B9%EB%B3%84%EC%8B%9C-%EC%84%9C%EC%B4%88%EA%B5%AC-%EC%96%91%EC%9E%AC%EB%8F%99/", "workingTime": ["-", "09:00~21:00", "09:00~21:00", "09:00~21:00", "09:00~21:00", "09:00~21:00", "09:00~19:00", "-"]}, {"name": "\ud478\ub978\uc628\ub204\ub9ac\uc57d\uad6d", "lat": "37.4797414602", "lng": "127.0388244887", "url": "/info/%ED%91%B8%EB%A5%B8%EC%98%A8%EB%88%84%EB%A6%AC%EC%95%BD%EA%B5%AD-%EC%84%9C%EC%9A%B8%ED%8A%B9%EB%B3%84%EC%8B%9C-%EC%84%9C%EC%B4%88%EA%B5%AC-%EC%96%91%EC%9E%AC%EB%8F%99/", "workingTime": ["1,2,3,4,5\uc9f8\uc8fc09:00~21:00", "09:00~22:00", "09:00~22:00", "09:00~22:00", "09:00~22:00", "09:00~22:00", "09:00~22:00", "09:00~21:00"]}, {"name": "\uc628\uc57d\uad6d", "lat": "37.4827666361943", "lng": "127.034949554107", "url": "/info/%EC%98%A8%EC%95%BD%EA%B5%AD-%EC%84%9C%EC%9A%B8%ED%8A%B9%EB%B3%84%EC%8B%9C-%EC%84%9C%EC%B4%88%EA%B5%AC-%EC%96%91%EC%9E%AC%EB%8F%99/", "workingTime": ["-", "09:00~20:00", "09:00~21:00", "09:00~20:00", "09:00~21:00", "09:00~20:00", "09:00~14:00", "-"]}, {"name": "\uc774\uc624\ub2f9\uc57d\uad6d", "lat": "37.4694607399", "lng": "127.0444939593", "url": "/info/%EC%9D%B4%EC%98%A4%EB%8B%B9%EC%95%BD%EA%B5%AD-%EC%84%9C%EC%9A%B8%ED%8A%B9%EB%B3%84%EC%8B%9C-%EC%84%9C%EC%B4%88%EA%B5%AC-%EC%96%91%EC%9E%AC%EB%8F%99/", "workingTime": ["-", "09:00~23:00", "09:00~23:00", "09:00~23:00", "09:00~23:00", "09:00~23:00", "09:00~23:00", "-"]}, {"name": "\uc591\uc7ac\uc2e0\uc138\uacc4\uc57d\uad6d", "lat": "37.46403989013713", "lng": "127.03482397722864", "url": "/info/%EC%96%91%EC%9E%AC%EC%8B%A0%EC%84%B8%EA%B3%84%EC%95%BD%EA%B5%AD-%EC%84%9C%EC%9A%B8%ED%8A%B9%EB%B3%84%EC%8B%9C-%EC%84%9C%EC%B4%88%EA%B5%AC-%EC%96%91%EC%9E%AC%EB%8F%99/", "workingTime": ["-", "09:00~21:00", "09:00~21:00", "09:00~21:00", "09:00~21:00", "09:00~21:00", "09:00~19:00", "-"]}, {"name": "\uc591\uc7ac\uba54\ub514\uce7c\uc57d\uad6d", "lat": "37.47181367537455", "lng": "127.04579315549773", "url": "/info/%EC%96%91%EC%9E%AC%EB%A9%94%EB%94%94%EC%B9%BC%EC%95%BD%EA%B5%AD-%EC%84%9C%EC%9A%B8%ED%8A%B9%EB%B3%84%EC%8B%9C-%EC%84%9C%EC%B4%88%EA%B5%AC-%EC%96%91%EC%9E%AC%EB%8F%99/", "workingTime": ["-", "09:00~21:00", "09:00~21:00", "09:00~21:00", "09:00~21:00", "09:00~21:00", "09:00~20:00", "-"]}, {"name": "\uc2e0\uc6d0\uc57d\uad6d", "lat": "37.4697137536", "lng": "127.0425090571", "url": "/info/%EC%8B%A0%EC%9B%90%EC%95%BD%EA%B5%AD-%EC%84%9C%EC%9A%B8%ED%8A%B9%EB%B3%84%EC%8B%9C-%EC%84%9C%EC%B4%88%EA%B5%AC-%EC%96%91%EC%9E%AC%EB%8F%99/", "workingTime": ["-", "09:00~22:00", "09:00~22:00", "09:00~22:00", "09:00~22:00", "09:00~22:00", "-", "-"]}, {"name": "\ub2e4\uc778\uc57d\uad6d", "lat": "37.484503063463066", "lng": "127.03669680477736", "url": "/info/%EB%8B%A4%EC%9D%B8%EC%95%BD%EA%B5%AD-%EC%84%9C%EC%9A%B8%ED%8A%B9%EB%B3%84%EC%8B%9C-%EC%84%9C%EC%B4%88%EA%B5%AC-%EC%96%91%EC%9E%AC%EB%8F%99/", "workingTime": ["-", "09:30~18:30", "09:30~18:30", "09:30~18:30", "09:30~18:30", "09:30~18:30", "09:30~15:00", "-"]}, {"name": "\uad6c\ub8e1\uc218\uc57d\uad6d", "lat": "37.48081462931841", "lng": "127.04126265293506", "url": "/info/%EA%B5%AC%EB%A3%A1%EC%88%98%EC%95%BD%EA%B5%AD-%EC%84%9C%EC%9A%B8%ED%8A%B9%EB%B3%84%EC%8B%9C-%EC%84%9C%EC%B4%88%EA%B5%AC-%EC%96%91%EC%9E%AC%EB%8F%99/", "workingTime": ["-", "09:00~21:00", "09:00~21:00", "09:00~21:00", "09:00~21:00", "09:00~21:00", "09:00~21:00", "-"]}, {"name": "\ud734\ubca0\uc774\uc2a4\ud604\ub300\uc57d\uad6d", "lat": "37.4643623227152", "lng": "127.042663599215", "url": "/info/%ED%9C%B4%EB%B2%A0%EC%9D%B4%EC%8A%A4%ED%98%84%EB%8C%80%EC%95%BD%EA%B5%AD-%EC%84%9C%EC%9A%B8%ED%8A%B9%EB%B3%84%EC%8B%9C-%EC%84%9C%EC%B4%88%EA%B5%AC-%EC%96%91%EC%9E%AC%EB%8F%99/", "workingTime": ["-", "08:00~17:30", "08:00~17:30", "08:00~17:30", "08:00~17:30", "08:00~17:30", "-", "-"]}]