[{"name": "\uacf5\ub355\uc81c\uc77c\uc57d\uad6d", "lat": "37.5445849310546", "lng": "126.95276773044", "url": "/info/%EA%B3%B5%EB%8D%95%EC%A0%9C%EC%9D%BC%EC%95%BD%EA%B5%AD-%EC%84%9C%EC%9A%B8%ED%8A%B9%EB%B3%84%EC%8B%9C-%EB%A7%88%ED%8F%AC%EA%B5%AC-%EA%B3%B5%EB%8D%95%EB%8F%99/", "workingTime": ["-", "09:00~20:00", "09:00~20:00", "09:00~20:00", "09:00~20:00", "09:00~20:00", "09:00~16:00", "-"]}, {"name": "\uc2e0\uc601\uc57d\uad6d", "lat": "37.54389240054957", "lng": "126.9500846756812", "url": "/info/%EC%8B%A0%EC%98%81%EC%95%BD%EA%B5%AD-%EC%84%9C%EC%9A%B8%ED%8A%B9%EB%B3%84%EC%8B%9C-%EB%A7%88%ED%8F%AC%EA%B5%AC-%EA%B3%B5%EB%8D%95%EB%8F%99/", "workingTime": ["-", "10:00~19:30", "10:00~19:00", "10:00~19:30", "10:00~19:00", "10:00~19:30", "10:00~15:00", "-"]}, {"name": "\ud478\ub978\uc57d\uad6d", "lat": "37.5509188621", "lng": "126.9557926352", "url": "/info/%ED%91%B8%EB%A5%B8%EC%95%BD%EA%B5%AD-%EC%84%9C%EC%9A%B8%ED%8A%B9%EB%B3%84%EC%8B%9C-%EB%A7%88%ED%8F%AC%EA%B5%AC-%EA%B3%B5%EB%8D%95%EB%8F%99/", "workingTime": ["-", "09:00~21:00", "09:00~21:00", "09:00~21:00", "09:00~21:00", "09:00~21:00", "09:00~16:00", "-"]}, {"name": "\ud330\ub9ac\uc2a4\uc57d\uad6d", "lat": "37.54746566981306", "lng": "126.95314328592076", "url": "/info/%ED%8C%B0%EB%A6%AC%EC%8A%A4%EC%95%BD%EA%B5%AD-%EC%84%9C%EC%9A%B8%ED%8A%B9%EB%B3%84%EC%8B%9C-%EB%A7%88%ED%8F%AC%EA%B5%AC-%EA%B3%B5%EB%8D%95%EB%8F%99/", "workingTime": ["-", "09:00~19:00", "09:00~19:00", "09:00~19:00", "09:00~19:00", "09:00~19:00", "09:00~14:00", "-"]}, {"name": "\uc885\uc624\uc57d\uad6d", "lat": "37.55097563120771", "lng": "126.96202225962222", "url": "/info/%EC%A2%85%EC%98%A4%EC%95%BD%EA%B5%AD-%EC%84%9C%EC%9A%B8%ED%8A%B9%EB%B3%84%EC%8B%9C-%EB%A7%88%ED%8F%AC%EA%B5%AC-%EA%B3%B5%EB%8D%95%EB%8F%99/", "workingTime": ["-", "08:30~21:30", "08:30~21:30", "08:30~21:30", "08:30~21:30", "08:30~21:30", "08:30~21:30", "-"]}, {"name": "\uc778\ud61c\uc57d\uad6d", "lat": "37.544585471886755", "lng": "126.95276829588279", "url": "/info/%EC%9D%B8%ED%98%9C%EC%95%BD%EA%B5%AD-%EC%84%9C%EC%9A%B8%ED%8A%B9%EB%B3%84%EC%8B%9C-%EB%A7%88%ED%8F%AC%EA%B5%AC-%EA%B3%B5%EB%8D%95%EB%8F%99/", "workingTime": ["-", "09:00~19:00", "09:00~19:00", "09:00~20:00", "09:00~19:00", "09:00~19:00", "09:00~16:00", "-"]}, {"name": "\uc11c\uc6b8\uc57d\uad6d", "lat": "37.5479378173", "lng": "126.9543685546", "url": "/info/%EC%84%9C%EC%9A%B8%EC%95%BD%EA%B5%AD-%EC%84%9C%EC%9A%B8%ED%8A%B9%EB%B3%84%EC%8B%9C-%EB%A7%88%ED%8F%AC%EA%B5%AC-%EA%B3%B5%EB%8D%95%EB%8F%99/", "workingTime": ["-", "09:00~19:40", "09:00~19:40", "09:00~19:40", "09:00~19:40", "09:00~19:40", "09:00~15:00", "-"]}, {"name": "\uc0d8\ud130\uc57d\uad6d", "lat": "37.549360803410536", "lng": "126.96299081582032", "url": "/info/%EC%83%98%ED%84%B0%EC%95%BD%EA%B5%AD-%EC%84%9C%EC%9A%B8%ED%8A%B9%EB%B3%84%EC%8B%9C-%EB%A7%88%ED%8F%AC%EA%B5%AC-%EA%B3%B5%EB%8D%95%EB%8F%99/", "workingTime": ["-", "09:00~22:00", "09:00~22:00", "09:00~22:00", "09:00~22:00", "09:00~22:00", "09:00~22:00", "-"]}, {"name": "\uc544\uc774\ube44\uc57d\uad6d", "lat": "37.54401130628534", "lng": "126.95275875695894", "url": "/info/%EC%95%84%EC%9D%B4%EB%B9%84%EC%95%BD%EA%B5%AD-%EC%84%9C%EC%9A%B8%ED%8A%B9%EB%B3%84%EC%8B%9C-%EB%A7%88%ED%8F%AC%EA%B5%AC-%EA%B3%B5%EB%8D%95%EB%8F%99/", "workingTime": ["-", "09:00~19:00", "09:00~19:00", "09:00~19:00", "09:00~19:00", "09:00~19:00", "09:00~15:00", "-"]}, {"name": "\ub9c8\ub9ac\uc57d\uad6d", "lat": "37.54514354675648", "lng": "126.95037018029866", "url": "/info/%EB%A7%88%EB%A6%AC%EC%95%BD%EA%B5%AD-%EC%84%9C%EC%9A%B8%ED%8A%B9%EB%B3%84%EC%8B%9C-%EB%A7%88%ED%8F%AC%EA%B5%AC-%EA%B3%B5%EB%8D%95%EB%8F%99/", "workingTime": ["-", "09:00~20:00", "09:00~20:00", "09:00~20:00", "09:00~20:00", "09:00~20:00", "09:00~15:00", "-"]}, {"name": "\uadfc\ud654\uc0ac\uc57d\uad6d", "lat": "37.5448958963", "lng": "126.9539856736", "url": "/info/%EA%B7%BC%ED%99%94%EC%82%AC%EC%95%BD%EA%B5%AD-%EC%84%9C%EC%9A%B8%ED%8A%B9%EB%B3%84%EC%8B%9C-%EB%A7%88%ED%8F%AC%EA%B5%AC-%EA%B3%B5%EB%8D%95%EB%8F%99/", "workingTime": ["-", "09:00~20:00", "09:00~20:00", "09:00~20:00", "09:00~20:00", "09:00~20:00", "09:00~20:00", "-"]}, {"name": "\ud574\ub9d1\uc740\uc57d\uad6d", "lat": "37.5456912411", "lng": "126.9511516935", "url": "/info/%ED%95%B4%EB%A7%91%EC%9D%80%EC%95%BD%EA%B5%AD-%EC%84%9C%EC%9A%B8%ED%8A%B9%EB%B3%84%EC%8B%9C-%EB%A7%88%ED%8F%AC%EA%B5%AC-%EA%B3%B5%EB%8D%95%EB%8F%99/", "workingTime": ["-", "09:30~19:00", "09:30~19:00", "09:30~19:00", "09:30~19:00", "09:30~19:00", "09:30~14:00", "-"]}, {"name": "\ubd04\uc57d\uad6d", "lat": "37.5452627685789", "lng": "126.94870244291", "url": "/info/%EB%B4%84%EC%95%BD%EA%B5%AD-%EC%84%9C%EC%9A%B8%ED%8A%B9%EB%B3%84%EC%8B%9C-%EB%A7%88%ED%8F%AC%EA%B5%AC-%EA%B3%B5%EB%8D%95%EB%8F%99/", "workingTime": ["-", "09:30~19:00", "09:30~19:00", "09:30~19:00", "09:30~19:00", "09:30~19:00", "09:30~14:00", "-"]}, {"name": "\ud638\uc815\uc57d\uad6d", "lat": "37.54898309140593", "lng": "126.96339936891872", "url": "/info/%ED%98%B8%EC%A0%95%EC%95%BD%EA%B5%AD-%EC%84%9C%EC%9A%B8%ED%8A%B9%EB%B3%84%EC%8B%9C-%EB%A7%88%ED%8F%AC%EA%B5%AC-%EA%B3%B5%EB%8D%95%EB%8F%99/", "workingTime": ["-", "09:00~19:00", "09:00~19:00", "09:00~19:00", "09:00~19:00", "09:00~19:00", "09:00~13:00", "-"]}, {"name": "\uc138\uba85\uc57d\uad6d", "lat": "37.54622910704114", "lng": "126.9521709218891", "url": "/info/%EC%84%B8%EB%AA%85%EC%95%BD%EA%B5%AD-%EC%84%9C%EC%9A%B8%ED%8A%B9%EB%B3%84%EC%8B%9C-%EB%A7%88%ED%8F%AC%EA%B5%AC-%EA%B3%B5%EB%8D%95%EB%8F%99/", "workingTime": ["-", "10:00~20:00", "10:00~20:00", "10:00~20:00", "10:00~20:00", "10:00~20:00", "10:00~16:00", "-"]}, {"name": "\uc131\uc740\uc57d\uad6d", "lat": "37.5500096752", "lng": "126.96346576789999", "url": "/info/%EC%84%B1%EC%9D%80%EC%95%BD%EA%B5%AD-%EC%84%9C%EC%9A%B8%ED%8A%B9%EB%B3%84%EC%8B%9C-%EB%A7%88%ED%8F%AC%EA%B5%AC-%EA%B3%B5%EB%8D%95%EB%8F%99/", "workingTime": ["-", "09:00~19:00", "09:00~19:00", "09:00~19:00", "09:00~19:00", "09:00~19:00", "09:00~16:00", "-"]}]