[{"name": "\uc2dc\ud2f0\ud504\ub77c\uc790\uc57d\uad6d", "lat": "37.49440714908826", "lng": "126.84110119530132", "url": "/info/%EC%8B%9C%ED%8B%B0%ED%94%84%EB%9D%BC%EC%9E%90%EC%95%BD%EA%B5%AD-%EC%84%9C%EC%9A%B8%ED%8A%B9%EB%B3%84%EC%8B%9C-%EA%B5%AC%EB%A1%9C%EA%B5%AC-%EC%98%A4%EB%A5%98%EB%8F%99/", "workingTime": ["-", "08:30~18:30", "08:30~18:30", "08:30~18:30", "08:30~18:30", "08:30~18:30", "08:30~14:30", "-"]}, {"name": "\uc6b0\ub9ac\uc57d\uad6d", "lat": "37.49240230871766", "lng": "126.84338679230503", "url": "/info/%EC%9A%B0%EB%A6%AC%EC%95%BD%EA%B5%AD-%EC%84%9C%EC%9A%B8%ED%8A%B9%EB%B3%84%EC%8B%9C-%EA%B5%AC%EB%A1%9C%EA%B5%AC-%EC%98%A4%EB%A5%98%EB%8F%99/", "workingTime": ["-", "08:30~18:30", "08:30~18:30", "08:30~18:30", "08:30~18:30", "08:30~18:30", "08:30~14:00", "-"]}, {"name": "\uc624\ub958\uc628\ub204\ub9ac\uc57d\uad6d", "lat": "37.49602417535325", "lng": "126.84325257565106", "url": "/info/%EC%98%A4%EB%A5%98%EC%98%A8%EB%88%84%EB%A6%AC%EC%95%BD%EA%B5%AD-%EC%84%9C%EC%9A%B8%ED%8A%B9%EB%B3%84%EC%8B%9C-%EA%B5%AC%EB%A1%9C%EA%B5%AC-%EC%98%A4%EB%A5%98%EB%8F%99/", "workingTime": ["-", "09:00~21:00", "09:00~21:00", "09:00~21:00", "09:00~21:00", "09:00~21:00", "09:00~16:00", "-"]}, {"name": "\ud0dc\uc591\uc57d\uad6d", "lat": "37.495594900295096", "lng": "126.8422832423378", "url": "/info/%ED%83%9C%EC%96%91%EC%95%BD%EA%B5%AD-%EC%84%9C%EC%9A%B8%ED%8A%B9%EB%B3%84%EC%8B%9C-%EA%B5%AC%EB%A1%9C%EA%B5%AC-%EC%98%A4%EB%A5%98%EB%8F%99/", "workingTime": ["1,2,3,4,5\uc9f8\uc8fc10:00~22:00", "09:00~22:00", "09:00~22:00", "09:00~22:00", "09:00~22:00", "09:00~22:00", "09:00~22:00", "10:00~22:00"]}, {"name": "\ubd80\ubd80\uc57d\uad6d", "lat": "37.49222969336933", "lng": "126.84367210876567", "url": "/info/%EB%B6%80%EB%B6%80%EC%95%BD%EA%B5%AD-%EC%84%9C%EC%9A%B8%ED%8A%B9%EB%B3%84%EC%8B%9C-%EA%B5%AC%EB%A1%9C%EA%B5%AC-%EC%98%A4%EB%A5%98%EB%8F%99/", "workingTime": ["-", "09:00~19:30", "09:00~19:30", "09:00~19:30", "09:00~19:30", "09:00~19:30", "09:00~16:00", "-"]}, {"name": "\uc9c4\uc194\uc57d\uad6d", "lat": "37.49652659843723", "lng": "126.84435975142509", "url": "/info/%EC%A7%84%EC%86%94%EC%95%BD%EA%B5%AD-%EC%84%9C%EC%9A%B8%ED%8A%B9%EB%B3%84%EC%8B%9C-%EA%B5%AC%EB%A1%9C%EA%B5%AC-%EC%98%A4%EB%A5%98%EB%8F%99/", "workingTime": ["-", "09:00~20:00", "09:00~20:00", "09:00~20:00", "09:00~20:00", "09:00~20:00", "09:00~16:00", "-"]}, {"name": "\uc138\uba85\uc57d\uad6d", "lat": "37.49098343938425", "lng": "126.84152174068842", "url": "/info/%EC%84%B8%EB%AA%85%EC%95%BD%EA%B5%AD-%EC%84%9C%EC%9A%B8%ED%8A%B9%EB%B3%84%EC%8B%9C-%EA%B5%AC%EB%A1%9C%EA%B5%AC-%EC%98%A4%EB%A5%98%EB%8F%99/", "workingTime": ["-", "09:00~19:00", "09:00~19:00", "09:00~19:00", "09:00~19:00", "09:00~19:00", "09:00~14:00", "-"]}, {"name": "\uc131\uc2ec\uc57d\uad6d", "lat": "37.495403918012784", "lng": "126.84337452698007", "url": "/info/%EC%84%B1%EC%8B%AC%EC%95%BD%EA%B5%AD-%EC%84%9C%EC%9A%B8%ED%8A%B9%EB%B3%84%EC%8B%9C-%EA%B5%AC%EB%A1%9C%EA%B5%AC-%EC%98%A4%EB%A5%98%EB%8F%99/", "workingTime": ["-", "09:00~18:00", "09:00~18:00", "09:00~18:00", "09:00~18:00", "09:00~18:00", "09:00~14:00", "-"]}, {"name": "\uad6c\ub85c\ubbf8\uc18c\uc57d\uad6d", "lat": "37.4934809262", "lng": "126.8441534819", "url": "/info/%EA%B5%AC%EB%A1%9C%EB%AF%B8%EC%86%8C%EC%95%BD%EA%B5%AD-%EC%84%9C%EC%9A%B8%ED%8A%B9%EB%B3%84%EC%8B%9C-%EA%B5%AC%EB%A1%9C%EA%B5%AC-%EC%98%A4%EB%A5%98%EB%8F%99/", "workingTime": ["-", "09:00~21:00", "09:00~21:00", "09:00~21:00", "09:00~21:00", "09:00~21:00", "09:00~16:00", "-"]}, {"name": "\ubd04\uc57d\uad6d", "lat": "37.4956897995191", "lng": "126.843855441547", "url": "/info/%EB%B4%84%EC%95%BD%EA%B5%AD-%EC%84%9C%EC%9A%B8%ED%8A%B9%EB%B3%84%EC%8B%9C-%EA%B5%AC%EB%A1%9C%EA%B5%AC-%EC%98%A4%EB%A5%98%EB%8F%99/", "workingTime": ["-", "08:00~21:00", "08:00~21:00", "08:00~21:00", "08:00~21:00", "08:00~21:00", "09:00~15:00", "-"]}, {"name": "\uc778\uc131\uc57d\uad6d", "lat": "37.4911698352242", "lng": "126.84056754919", "url": "/info/%EC%9D%B8%EC%84%B1%EC%95%BD%EA%B5%AD-%EC%84%9C%EC%9A%B8%ED%8A%B9%EB%B3%84%EC%8B%9C-%EA%B5%AC%EB%A1%9C%EA%B5%AC-%EC%98%A4%EB%A5%98%EB%8F%99/", "workingTime": ["-", "09:00~19:00", "09:00~19:00", "09:00~19:00", "09:00~19:00", "09:00~19:00", "08:30~16:00", "-"]}, {"name": "\ucc38\uc628\ub204\ub9ac\uc57d\uad6d", "lat": "37.486711427882064", "lng": "126.83833190217686", "url": "/info/%EC%B0%B8%EC%98%A8%EB%88%84%EB%A6%AC%EC%95%BD%EA%B5%AD-%EC%84%9C%EC%9A%B8%ED%8A%B9%EB%B3%84%EC%8B%9C-%EA%B5%AC%EB%A1%9C%EA%B5%AC-%EC%98%A4%EB%A5%98%EB%8F%99/", "workingTime": ["-", "09:00~20:00", "09:00~20:00", "09:00~20:00", "09:00~20:00", "09:00~20:00", "09:00~16:30", "-"]}, {"name": "\uc624\ub958\uc911\uc559\uc57d\uad6d", "lat": "37.495829011759255", "lng": "126.84284136062942", "url": "/info/%EC%98%A4%EB%A5%98%EC%A4%91%EC%95%99%EC%95%BD%EA%B5%AD-%EC%84%9C%EC%9A%B8%ED%8A%B9%EB%B3%84%EC%8B%9C-%EA%B5%AC%EB%A1%9C%EA%B5%AC-%EC%98%A4%EB%A5%98%EB%8F%99/", "workingTime": ["-", "09:00~19:00", "09:00~19:00", "09:00~19:00", "09:00~19:00", "09:00~19:00", "09:00~16:00", "-"]}, {"name": "\ubc31\ub450\uc57d\uad6d", "lat": "37.491269444444441", "lng": "126.842094444444442", "url": "/info/%EB%B0%B1%EB%91%90%EC%95%BD%EA%B5%AD-%EC%84%9C%EC%9A%B8%ED%8A%B9%EB%B3%84%EC%8B%9C-%EA%B5%AC%EB%A1%9C%EA%B5%AC-%EC%98%A4%EB%A5%98%EB%8F%99/", "workingTime": ["-", "09:00~22:00", "09:00~22:00", "09:00~22:00", "09:00~22:00", "09:00~22:00", "-", "-"]}, {"name": "\ub2e4\ub098\uc57d\uad6d", "lat": "37.49621371562664", "lng": "126.84486701619299", "url": "/info/%EB%8B%A4%EB%82%98%EC%95%BD%EA%B5%AD-%EC%84%9C%EC%9A%B8%ED%8A%B9%EB%B3%84%EC%8B%9C-%EA%B5%AC%EB%A1%9C%EA%B5%AC-%EC%98%A4%EB%A5%98%EB%8F%99/", "workingTime": ["-", "09:00~21:00", "09:00~21:00", "09:00~21:00", "09:00~21:00", "09:00~21:00", "09:00~17:00", "-"]}, {"name": "\uad6c\ub85c\uc885\ub85c\uc57d\uad6d", "lat": "37.49576019223067", "lng": "126.84258367533705", "url": "/info/%EA%B5%AC%EB%A1%9C%EC%A2%85%EB%A1%9C%EC%95%BD%EA%B5%AD-%EC%84%9C%EC%9A%B8%ED%8A%B9%EB%B3%84%EC%8B%9C-%EA%B5%AC%EB%A1%9C%EA%B5%AC-%EC%98%A4%EB%A5%98%EB%8F%99/", "workingTime": ["1,2,3,4,5\uc9f8\uc8fc11:00~21:00", "09:00~22:00", "09:00~22:00", "09:00~22:00", "09:00~22:00", "09:00~22:00", "09:00~22:00", "09:00~22:00"]}, {"name": "\uac1c\uc131\uc57d\uad6d", "lat": "37.4943597757", "lng": "126.841048713", "url": "/info/%EA%B0%9C%EC%84%B1%EC%95%BD%EA%B5%AD-%EC%84%9C%EC%9A%B8%ED%8A%B9%EB%B3%84%EC%8B%9C-%EA%B5%AC%EB%A1%9C%EA%B5%AC-%EC%98%A4%EB%A5%98%EB%8F%99/", "workingTime": ["-", "09:00~18:00", "09:00~18:00", "09:00~18:00", "09:00~18:00", "09:00~18:00", "09:00~13:00", "-"]}]