[{"name": "\uc774\ud654\uc57d\uad6d", "lat": "37.6047542475415", "lng": "127.023040195601", "url": "/info/%EC%9D%B4%ED%99%94%EC%95%BD%EA%B5%AD-%EC%84%9C%EC%9A%B8%ED%8A%B9%EB%B3%84%EC%8B%9C-%EC%84%B1%EB%B6%81%EA%B5%AC-%EA%B8%B8%EC%9D%8C%EB%8F%99/", "workingTime": ["-", "09:00~20:00", "09:00~20:00", "09:00~20:00", "09:00~20:00", "09:00~20:00", "09:00~15:00", "-"]}, {"name": "\uc2ed\uc790\uc57d\uad6d", "lat": "37.60790355716172", "lng": "127.02399600127704", "url": "/info/%EC%8B%AD%EC%9E%90%EC%95%BD%EA%B5%AD-%EC%84%9C%EC%9A%B8%ED%8A%B9%EB%B3%84%EC%8B%9C-%EC%84%B1%EB%B6%81%EA%B5%AC-%EA%B8%B8%EC%9D%8C%EB%8F%99/", "workingTime": ["1,2,3,4,5\uc9f8\uc8fc09:00~21:30", "09:00~21:30", "09:00~21:30", "09:00~21:30", "09:00~21:30", "09:00~21:30", "09:00~21:30", "09:00~21:30"]}, {"name": "\uc2e0\uc138\uc6d0\uc57d\uad6d", "lat": "37.60433235039724", "lng": "127.02238221147677", "url": "/info/%EC%8B%A0%EC%84%B8%EC%9B%90%EC%95%BD%EA%B5%AD-%EC%84%9C%EC%9A%B8%ED%8A%B9%EB%B3%84%EC%8B%9C-%EC%84%B1%EB%B6%81%EA%B5%AC-%EA%B8%B8%EC%9D%8C%EB%8F%99/", "workingTime": ["-", "09:00~19:00", "09:00~19:00", "09:00~19:00", "09:00~19:00", "09:00~19:00", "09:00~15:00", "-"]}, {"name": "\ud638\uc218\uc628\ub204\ub9ac\uc57d\uad6d", "lat": "37.60886921459084", "lng": "127.02905576079003", "url": "/info/%ED%98%B8%EC%88%98%EC%98%A8%EB%88%84%EB%A6%AC%EC%95%BD%EA%B5%AD-%EC%84%9C%EC%9A%B8%ED%8A%B9%EB%B3%84%EC%8B%9C-%EC%84%B1%EB%B6%81%EA%B5%AC-%EA%B8%B8%EC%9D%8C%EB%8F%99/", "workingTime": ["-", "09:00~18:30", "09:00~18:30", "09:00~18:30", "09:00~18:30", "09:00~18:30", "09:00~15:30", "-"]}, {"name": "\ud604\ub300\uc57d\uad6d", "lat": "37.60900291160807", "lng": "127.02324889582562", "url": "/info/%ED%98%84%EB%8C%80%EC%95%BD%EA%B5%AD-%EC%84%9C%EC%9A%B8%ED%8A%B9%EB%B3%84%EC%8B%9C-%EC%84%B1%EB%B6%81%EA%B5%AC-%EA%B8%B8%EC%9D%8C%EB%8F%99/", "workingTime": ["-", "09:30~18:30", "09:30~18:30", "09:30~18:30", "09:30~18:30", "09:30~18:30", "09:30~12:30", "-"]}, {"name": "\uc6f0\ud31c\uc57d\uad6d", "lat": "37.6094417730405", "lng": "127.019323702394", "url": "/info/%EC%9B%B0%ED%8C%9C%EC%95%BD%EA%B5%AD-%EC%84%9C%EC%9A%B8%ED%8A%B9%EB%B3%84%EC%8B%9C-%EC%84%B1%EB%B6%81%EA%B5%AC-%EA%B8%B8%EC%9D%8C%EB%8F%99/", "workingTime": ["-", "09:00~18:00", "09:00~18:00", "09:00~18:00", "09:00~18:00", "09:00~18:00", "09:00~13:00", "-"]}, {"name": "\ub798\ubbf8\uc548\uc57d\uad6d", "lat": "37.611985769436984", "lng": "127.02878590247518", "url": "/info/%EB%9E%98%EB%AF%B8%EC%95%88%EC%95%BD%EA%B5%AD-%EC%84%9C%EC%9A%B8%ED%8A%B9%EB%B3%84%EC%8B%9C-%EC%84%B1%EB%B6%81%EA%B5%AC-%EA%B8%B8%EC%9D%8C%EB%8F%99/", "workingTime": ["-", "09:00~19:00", "09:00~19:00", "09:00~19:00", "09:00~19:00", "09:00~19:00", "09:00~14:00", "-"]}, {"name": "\ud587\ub2d8\uc57d\uad6d", "lat": "37.6050492482263", "lng": "127.022009385841", "url": "/info/%ED%96%87%EB%8B%98%EC%95%BD%EA%B5%AD-%EC%84%9C%EC%9A%B8%ED%8A%B9%EB%B3%84%EC%8B%9C-%EC%84%B1%EB%B6%81%EA%B5%AC-%EA%B8%B8%EC%9D%8C%EB%8F%99/", "workingTime": ["-", "09:00~19:30", "09:00~19:30", "09:00~19:30", "09:00~19:30", "09:00~19:30", "09:00~16:00", "-"]}, {"name": "\ub3d9\ubd80\uc57d\uad6d", "lat": "37.61182191611399", "lng": "127.02392853568892", "url": "/info/%EB%8F%99%EB%B6%80%EC%95%BD%EA%B5%AD-%EC%84%9C%EC%9A%B8%ED%8A%B9%EB%B3%84%EC%8B%9C-%EC%84%B1%EB%B6%81%EA%B5%AC-%EA%B8%B8%EC%9D%8C%EB%8F%99/", "workingTime": ["1,3\uc9f8\uc8fc15:00~19:00", "09:30~21:00", "09:30~21:00", "09:30~21:00", "09:30~21:00", "09:30~21:00", "09:30~19:00", "10:00~19:00"]}, {"name": "\ud55c\uac15\uc57d\uad6d", "lat": "37.60942669714058", "lng": "127.02984498386772", "url": "/info/%ED%95%9C%EA%B0%95%EC%95%BD%EA%B5%AD-%EC%84%9C%EC%9A%B8%ED%8A%B9%EB%B3%84%EC%8B%9C-%EC%84%B1%EB%B6%81%EA%B5%AC-%EA%B8%B8%EC%9D%8C%EB%8F%99/", "workingTime": ["-", "08:30~19:30", "08:30~19:30", "08:30~19:30", "08:30~19:30", "08:30~19:30", "08:00~16:30", "-"]}, {"name": "\ub3c4\ub2f4\uc57d\uad6d", "lat": "37.6073728413", "lng": "127.0282178647", "url": "/info/%EB%8F%84%EB%8B%B4%EC%95%BD%EA%B5%AD-%EC%84%9C%EC%9A%B8%ED%8A%B9%EB%B3%84%EC%8B%9C-%EC%84%B1%EB%B6%81%EA%B5%AC-%EA%B8%B8%EC%9D%8C%EB%8F%99/", "workingTime": ["-", "09:00~19:00", "09:00~19:00", "09:00~19:00", "09:00~19:00", "09:00~19:00", "09:00~14:00", "10:00~14:00"]}, {"name": "\uc0bc\uce35\uc57d\uad6d", "lat": "37.60295629561416", "lng": "127.02368579831183", "url": "/info/%EC%82%BC%EC%B8%B5%EC%95%BD%EA%B5%AD-%EC%84%9C%EC%9A%B8%ED%8A%B9%EB%B3%84%EC%8B%9C-%EC%84%B1%EB%B6%81%EA%B5%AC-%EA%B8%B8%EC%9D%8C%EB%8F%99/", "workingTime": ["-", "09:00~19:00", "09:00~19:00", "09:00~19:00", "09:00~19:00", "09:00~19:00", "09:00~16:00", "09:00~12:00"]}, {"name": "\ucf69\uc57d\uad6d", "lat": "37.60475388735003", "lng": "127.02303917625781", "url": "/info/%EC%BD%A9%EC%95%BD%EA%B5%AD-%EC%84%9C%EC%9A%B8%ED%8A%B9%EB%B3%84%EC%8B%9C-%EC%84%B1%EB%B6%81%EA%B5%AC-%EA%B8%B8%EC%9D%8C%EB%8F%99/", "workingTime": ["-", "09:00~18:30", "09:00~18:30", "09:00~18:30", "09:00~18:30", "09:00~18:30", "09:00~13:00", "-"]}, {"name": "\uc13c\ud130\ud53c\uc2a4\uc815\uc57d\uad6d", "lat": "37.611985769436984", "lng": "127.02878590247518", "url": "/info/%EC%84%BC%ED%84%B0%ED%94%BC%EC%8A%A4%EC%A0%95%EC%95%BD%EA%B5%AD-%EC%84%9C%EC%9A%B8%ED%8A%B9%EB%B3%84%EC%8B%9C-%EC%84%B1%EB%B6%81%EA%B5%AC-%EA%B8%B8%EC%9D%8C%EB%8F%99/", "workingTime": ["-", "09:00~18:30", "09:00~18:30", "09:00~18:30", "09:00~18:30", "09:00~18:30", "09:00~13:00", "-"]}, {"name": "365\uc57d\uad6d", "lat": "37.60863031932832", "lng": "127.02945960242635", "url": "/info/365%EC%95%BD%EA%B5%AD-%EC%84%9C%EC%9A%B8%ED%8A%B9%EB%B3%84%EC%8B%9C-%EC%84%B1%EB%B6%81%EA%B5%AC-%EA%B8%B8%EC%9D%8C%EB%8F%99/", "workingTime": ["1,2,3,4,5\uc9f8\uc8fc09:00~20:30", "09:00~20:30", "09:00~20:30", "09:00~20:30", "09:00~20:30", "09:00~20:30", "09:00~20:30", "09:00~20:30"]}, {"name": "\uc120\ud55c\uc57d\uad6d", "lat": "37.60475388735003", "lng": "127.02303917625781", "url": "/info/%EC%84%A0%ED%95%9C%EC%95%BD%EA%B5%AD-%EC%84%9C%EC%9A%B8%ED%8A%B9%EB%B3%84%EC%8B%9C-%EC%84%B1%EB%B6%81%EA%B5%AC-%EA%B8%B8%EC%9D%8C%EB%8F%99/", "workingTime": ["-", "09:00~18:00", "09:00~18:00", "09:00~18:00", "09:00~18:00", "09:00~18:00", "09:00~14:00", "-"]}, {"name": "\uae38\uc74c\uc2dc\uc7a5\uc57d\uad6d", "lat": "37.602971384237", "lng": "127.01975395747179", "url": "/info/%EA%B8%B8%EC%9D%8C%EC%8B%9C%EC%9E%A5%EC%95%BD%EA%B5%AD-%EC%84%9C%EC%9A%B8%ED%8A%B9%EB%B3%84%EC%8B%9C-%EC%84%B1%EB%B6%81%EA%B5%AC-%EA%B8%B8%EC%9D%8C%EB%8F%99/", "workingTime": ["-", "08:30~20:30", "08:30~20:30", "08:30~20:30", "08:30~20:30", "08:30~20:30", "08:30~13:00", "-"]}, {"name": "\uae38\uc74c\uba54\ub514\uce7c\uc57d\uad6d", "lat": "37.60436072544234", "lng": "127.02466077878185", "url": "/info/%EA%B8%B8%EC%9D%8C%EB%A9%94%EB%94%94%EC%B9%BC%EC%95%BD%EA%B5%AD-%EC%84%9C%EC%9A%B8%ED%8A%B9%EB%B3%84%EC%8B%9C-%EC%84%B1%EB%B6%81%EA%B5%AC-%EA%B8%B8%EC%9D%8C%EB%8F%99/", "workingTime": ["-", "09:00~20:00", "09:00~20:00", "09:00~20:00", "09:00~20:00", "09:00~20:00", "09:00~14:30", "-"]}, {"name": "\uc635\ud2f0\ub9c8e-\ud3b8\ud55c\uc57d\uad6d", "lat": "37.6107262562", "lng": "127.0196704881", "url": "/info/%EC%98%B5%ED%8B%B0%EB%A7%88e-%ED%8E%B8%ED%95%9C%EC%95%BD%EA%B5%AD-%EC%84%9C%EC%9A%B8%ED%8A%B9%EB%B3%84%EC%8B%9C-%EC%84%B1%EB%B6%81%EA%B5%AC-%EA%B8%B8%EC%9D%8C%EB%8F%99/", "workingTime": ["-", "09:00~19:00", "09:00~19:00", "09:00~19:00", "09:00~19:00", "09:00~19:00", "09:00~15:00", "-"]}, {"name": "\uc544\ub984\ub2e4\uc6b4\uc57d\uad6d", "lat": "37.60670838050094", "lng": "127.02148533046508", "url": "/info/%EC%95%84%EB%A6%84%EB%8B%A4%EC%9A%B4%EC%95%BD%EA%B5%AD-%EC%84%9C%EC%9A%B8%ED%8A%B9%EB%B3%84%EC%8B%9C-%EC%84%B1%EB%B6%81%EA%B5%AC-%EA%B8%B8%EC%9D%8C%EB%8F%99/", "workingTime": ["-", "09:00~18:30", "09:00~18:30", "09:00~18:30", "09:00~18:30", "09:00~18:30", "09:00~18:00", "09:00~12:30"]}]