[{"name": "\uc544\ud504\uc9c0\ub9c8\uc57d\uad6d", "lat": "37.5922597719712", "lng": "127.017109140536", "url": "/info/%EC%95%84%ED%94%84%EC%A7%80%EB%A7%88%EC%95%BD%EA%B5%AD-%EC%84%9C%EC%9A%B8%ED%8A%B9%EB%B3%84%EC%8B%9C-%EC%84%B1%EB%B6%81%EA%B5%AC-%EB%8F%99%EC%84%A0%EB%8F%991%EA%B0%80/", "workingTime": ["-", "10:00~20:30", "10:00~20:30", "10:00~20:30", "10:00~20:30", "10:00~20:30", "09:00~19:00", "-"]}, {"name": "\uc721\uce35\uc57d\uad6d", "lat": "37.59257350035878", "lng": "127.01708860457896", "url": "/info/%EC%9C%A1%EC%B8%B5%EC%95%BD%EA%B5%AD-%EC%84%9C%EC%9A%B8%ED%8A%B9%EB%B3%84%EC%8B%9C-%EC%84%B1%EB%B6%81%EA%B5%AC-%EB%8F%99%EC%84%A0%EB%8F%991%EA%B0%80/", "workingTime": ["-", "09:30~20:00", "09:30~20:00", "09:30~20:00", "09:30~20:00", "09:30~20:00", "09:30~16:00", "-"]}, {"name": "\ud589\ubcf5\ud55c\uc57d\uad6d", "lat": "37.59113168583449", "lng": "127.01859193439176", "url": "/info/%ED%96%89%EB%B3%B5%ED%95%9C%EC%95%BD%EA%B5%AD-%EC%84%9C%EC%9A%B8%ED%8A%B9%EB%B3%84%EC%8B%9C-%EC%84%B1%EB%B6%81%EA%B5%AC-%EB%8F%99%EC%84%A0%EB%8F%991%EA%B0%80/", "workingTime": ["1,2,3,4,5\uc9f8\uc8fc09:30~23:00", "09:30~23:10", "09:30~23:00", "09:30~23:00", "09:30~23:00", "09:30~23:00", "09:30~23:00", "09:30~23:00"]}, {"name": "\ub2e4\uc62c\uc57d\uad6d", "lat": "37.5932214569063", "lng": "127.017943869754", "url": "/info/%EB%8B%A4%EC%98%AC%EC%95%BD%EA%B5%AD-%EC%84%9C%EC%9A%B8%ED%8A%B9%EB%B3%84%EC%8B%9C-%EC%84%B1%EB%B6%81%EA%B5%AC-%EB%8F%99%EC%84%A0%EB%8F%991%EA%B0%80/", "workingTime": ["1,2,3,4,5\uc9f8\uc8fc11:00~18:00", "09:00~21:00", "09:00~21:00", "09:00~21:00", "09:00~21:00", "09:00~21:00", "09:00~21:00", "11:00~18:00"]}, {"name": "\uc138\uc6d0\uc57d\uad6d", "lat": "37.5937733569", "lng": "127.0188281128", "url": "/info/%EC%84%B8%EC%9B%90%EC%95%BD%EA%B5%AD-%EC%84%9C%EC%9A%B8%ED%8A%B9%EB%B3%84%EC%8B%9C-%EC%84%B1%EB%B6%81%EA%B5%AC-%EB%8F%99%EC%84%A0%EB%8F%991%EA%B0%80/", "workingTime": ["1,2,3,4,5\uc9f8\uc8fc15:00~23:00", "09:00~23:00", "09:00~23:00", "09:00~23:00", "09:00~23:00", "09:00~23:00", "09:00~23:00", "09:00~23:00"]}, {"name": "\uacc4\uc0b0\uc628\ub204\ub9ac\uc57d\uad6d", "lat": "37.59066700715044", "lng": "127.0170247824615", "url": "/info/%EA%B3%84%EC%82%B0%EC%98%A8%EB%88%84%EB%A6%AC%EC%95%BD%EA%B5%AD-%EC%84%9C%EC%9A%B8%ED%8A%B9%EB%B3%84%EC%8B%9C-%EC%84%B1%EB%B6%81%EA%B5%AC-%EB%8F%99%EC%84%A0%EB%8F%991%EA%B0%80/", "workingTime": ["1,2,3,4,5\uc9f8\uc8fc15:00~22:00", "10:00~22:00", "10:00~22:00", "10:00~22:00", "10:00~22:00", "10:00~22:00", "10:00~22:00", "15:00~22:00"]}]