[{"name": "\uc2e0\uae08\ud638\uc57d\uad6d", "lat": "37.55477570377633", "lng": "127.02037596865509", "url": "/info/%EC%8B%A0%EA%B8%88%ED%98%B8%EC%95%BD%EA%B5%AD-%EC%84%9C%EC%9A%B8%ED%8A%B9%EB%B3%84%EC%8B%9C-%EC%84%B1%EB%8F%99%EA%B5%AC-%EA%B8%88%ED%98%B8%EB%8F%991%EA%B0%80/", "workingTime": ["-", "09:00~19:30", "09:00~19:30", "09:00~19:30", "09:00~19:30", "09:00~19:30", "09:00~15:30", "-"]}, {"name": "\ud654\uc0dd\uc57d\uad6d", "lat": "37.55486094512387", "lng": "127.02031221583331", "url": "/info/%ED%99%94%EC%83%9D%EC%95%BD%EA%B5%AD-%EC%84%9C%EC%9A%B8%ED%8A%B9%EB%B3%84%EC%8B%9C-%EC%84%B1%EB%8F%99%EA%B5%AC-%EA%B8%88%ED%98%B8%EB%8F%991%EA%B0%80/", "workingTime": ["-", "09:00~20:00", "09:00~20:00", "09:00~20:00", "09:00~20:00", "09:00~20:00", "09:00~15:30", "-"]}, {"name": "\ud5c8\ube0c\uc57d\uad6d", "lat": "37.55504475332594", "lng": "127.02031224507896", "url": "/info/%ED%97%88%EB%B8%8C%EC%95%BD%EA%B5%AD-%EC%84%9C%EC%9A%B8%ED%8A%B9%EB%B3%84%EC%8B%9C-%EC%84%B1%EB%8F%99%EA%B5%AC-%EA%B8%88%ED%98%B8%EB%8F%991%EA%B0%80/", "workingTime": ["-", "08:30~19:30", "08:30~19:30", "08:30~19:30", "08:30~19:30", "08:30~19:30", "08:30~16:00", "-"]}, {"name": "\uc131\ub3d9\uc628\ub204\ub9ac\uc57d\uad6d", "lat": "37.5554078641", "lng": "127.0249660296", "url": "/info/%EC%84%B1%EB%8F%99%EC%98%A8%EB%88%84%EB%A6%AC%EC%95%BD%EA%B5%AD-%EC%84%9C%EC%9A%B8%ED%8A%B9%EB%B3%84%EC%8B%9C-%EC%84%B1%EB%8F%99%EA%B5%AC-%EA%B8%88%ED%98%B8%EB%8F%991%EA%B0%80/", "workingTime": ["-", "09:30~18:30", "09:30~18:30", "09:30~18:30", "09:30~18:30", "09:30~18:30", "09:30~13:30", "-"]}, {"name": "\uc57d\uc0ac\ub791\uc635\ud2f0\ub9c8\uc57d\uad6d", "lat": "37.55550164955468", "lng": "127.02455413022349", "url": "/info/%EC%95%BD%EC%82%AC%EB%9E%91%EC%98%B5%ED%8B%B0%EB%A7%88%EC%95%BD%EA%B5%AD-%EC%84%9C%EC%9A%B8%ED%8A%B9%EB%B3%84%EC%8B%9C-%EC%84%B1%EB%8F%99%EA%B5%AC-%EA%B8%88%ED%98%B8%EB%8F%991%EA%B0%80/", "workingTime": ["-", "09:00~20:00", "09:00~20:00", "09:00~20:00", "09:00~20:00", "09:00~20:00", "09:00~18:00", "-"]}, {"name": "\ub098\ubb34\uc57d\uad6d", "lat": "37.55166451307012", "lng": "127.02570307413419", "url": "/info/%EB%82%98%EB%AC%B4%EC%95%BD%EA%B5%AD-%EC%84%9C%EC%9A%B8%ED%8A%B9%EB%B3%84%EC%8B%9C-%EC%84%B1%EB%8F%99%EA%B5%AC-%EA%B8%88%ED%98%B8%EB%8F%991%EA%B0%80/", "workingTime": ["-", "09:00~19:30", "09:00~19:30", "09:00~19:30", "09:00~19:30", "09:00~19:30", "09:00~14:30", "-"]}]