[{"name": "\ub3d9\ub0a8\uc57d\uad6d", "lat": "37.570099999999996", "lng": "126.991186111111105", "url": "/info/%EB%8F%99%EB%82%A8%EC%95%BD%EA%B5%AD-%EC%84%9C%EC%9A%B8%ED%8A%B9%EB%B3%84%EC%8B%9C-%EC%A2%85%EB%A1%9C%EA%B5%AC-%EC%A2%85%EB%A1%9C3%EA%B0%80/", "workingTime": ["1,2,3,4,5\uc9f8\uc8fc12:00~20:00", "09:00~22:00", "09:00~22:00", "09:00~22:00", "09:00~22:00", "09:00~22:00", "09:00~22:00", "-"]}, {"name": "\ud0dc\ud3c9\uc591\uc57d\uad6d", "lat": "37.570055205507806", "lng": "126.991929503414", "url": "/info/%ED%83%9C%ED%8F%89%EC%96%91%EC%95%BD%EA%B5%AD-%EC%84%9C%EC%9A%B8%ED%8A%B9%EB%B3%84%EC%8B%9C-%EC%A2%85%EB%A1%9C%EA%B5%AC-%EC%A2%85%EB%A1%9C3%EA%B0%80/", "workingTime": ["2,4\uc9f8\uc8fc10:00~19:00", "08:30~19:50", "08:30~19:50", "08:30~19:50", "08:30~19:50", "08:30~19:50", "10:00~19:00", "-"]}, {"name": "\uc885\ub85c\uc13c\ud2b8\ub7f4\uc57d\uad6d", "lat": "37.570693640064", "lng": "126.991773676246", "url": "/info/%EC%A2%85%EB%A1%9C%EC%84%BC%ED%8A%B8%EB%9F%B4%EC%95%BD%EA%B5%AD-%EC%84%9C%EC%9A%B8%ED%8A%B9%EB%B3%84%EC%8B%9C-%EC%A2%85%EB%A1%9C%EA%B5%AC-%EC%A2%85%EB%A1%9C3%EA%B0%80/", "workingTime": ["-", "09:00~20:00", "09:00~20:00", "09:00~20:00", "09:00~20:00", "09:00~20:00", "09:00~20:00", "-"]}, {"name": "\uc885\ub85c\uc131\uc9c0\uc57d\uad6d", "lat": "37.5711402785938", "lng": "126.991994361467", "url": "/info/%EC%A2%85%EB%A1%9C%EC%84%B1%EC%A7%80%EC%95%BD%EA%B5%AD-%EC%84%9C%EC%9A%B8%ED%8A%B9%EB%B3%84%EC%8B%9C-%EC%A2%85%EB%A1%9C%EA%B5%AC-%EC%A2%85%EB%A1%9C3%EA%B0%80/", "workingTime": ["1,2,3,4,5\uc9f8\uc8fc10:00~19:00", "08:00~21:00", "08:00~21:00", "08:00~21:00", "08:00~21:00", "08:00~21:00", "10:00~20:00", "-"]}, {"name": "\ub2e4\ub098\uc57d\uad6d", "lat": "37.57015053", "lng": "126.991917834", "url": "/info/%EB%8B%A4%EB%82%98%EC%95%BD%EA%B5%AD-%EC%84%9C%EC%9A%B8%ED%8A%B9%EB%B3%84%EC%8B%9C-%EC%A2%85%EB%A1%9C%EA%B5%AC-%EC%A2%85%EB%A1%9C3%EA%B0%80/", "workingTime": ["-", "09:00~20:00", "09:00~20:00", "09:00~20:00", "09:00~20:00", "09:00~20:00", "09:00~20:00", "-"]}]