[{"name": "\uc815\ubb38\ub2e4\uc0ac\ub791\uc57d\uad6d", "lat": "37.5270993326", "lng": "127.114822931", "url": "/info/%EC%A0%95%EB%AC%B8%EB%8B%A4%EC%82%AC%EB%9E%91%EC%95%BD%EA%B5%AD-%EC%84%9C%EC%9A%B8%ED%8A%B9%EB%B3%84%EC%8B%9C-%EC%86%A1%ED%8C%8C%EA%B5%AC-%ED%92%8D%EB%82%A9%EB%8F%99/", "workingTime": ["-", "08:30~18:30", "08:30~18:30", "08:30~18:30", "08:30~18:30", "08:30~18:30", "-", "-"]}, {"name": "\uc0c8\ubd04\uc57d\uad6d", "lat": "37.5339692631435", "lng": "127.118672783875", "url": "/info/%EC%83%88%EB%B4%84%EC%95%BD%EA%B5%AD-%EC%84%9C%EC%9A%B8%ED%8A%B9%EB%B3%84%EC%8B%9C-%EC%86%A1%ED%8C%8C%EA%B5%AC-%ED%92%8D%EB%82%A9%EB%8F%99/", "workingTime": ["-", "09:00~18:30", "09:00~18:30", "09:00~18:30", "09:00~18:30", "09:00~18:30", "09:00~13:30", "-"]}, {"name": "\uc544\uc0b0\ud070\uae38\uc57d\uad6d", "lat": "37.5264289133171", "lng": "127.117735099812", "url": "/info/%EC%95%84%EC%82%B0%ED%81%B0%EA%B8%B8%EC%95%BD%EA%B5%AD-%EC%84%9C%EC%9A%B8%ED%8A%B9%EB%B3%84%EC%8B%9C-%EC%86%A1%ED%8C%8C%EA%B5%AC-%ED%92%8D%EB%82%A9%EB%8F%99/", "workingTime": ["-", "09:30~18:30", "09:30~18:30", "09:30~18:30", "09:30~18:30", "09:30~18:30", "10:00~13:00", "-"]}, {"name": "\uc544\uc0b0\uc57d\uad6d", "lat": "37.530434631", "lng": "127.11317174", "url": "/info/%EC%95%84%EC%82%B0%EC%95%BD%EA%B5%AD-%EC%84%9C%EC%9A%B8%ED%8A%B9%EB%B3%84%EC%8B%9C-%EC%86%A1%ED%8C%8C%EA%B5%AC-%ED%92%8D%EB%82%A9%EB%8F%99/", "workingTime": ["-", "09:00~19:00", "09:00~19:00", "09:00~19:00", "09:00~19:00", "09:00~19:00", "09:00~12:00", "-"]}, {"name": "\uc2e0\uc544\uc0b0\uc57d\uad6d", "lat": "37.52697249524175", "lng": "127.11553771992098", "url": "/info/%EC%8B%A0%EC%95%84%EC%82%B0%EC%95%BD%EA%B5%AD-%EC%84%9C%EC%9A%B8%ED%8A%B9%EB%B3%84%EC%8B%9C-%EC%86%A1%ED%8C%8C%EA%B5%AC-%ED%92%8D%EB%82%A9%EB%8F%99/", "workingTime": ["-", "09:00~18:00", "09:00~18:00", "09:00~18:00", "09:00~18:00", "09:00~18:00", "-", "-"]}, {"name": "\uc2dc\uc7a5\uc628\ub204\ub9ac\uc57d\uad6d", "lat": "37.53713713717253", "lng": "127.1213691061676", "url": "/info/%EC%8B%9C%EC%9E%A5%EC%98%A8%EB%88%84%EB%A6%AC%EC%95%BD%EA%B5%AD-%EC%84%9C%EC%9A%B8%ED%8A%B9%EB%B3%84%EC%8B%9C-%EC%86%A1%ED%8C%8C%EA%B5%AC-%ED%92%8D%EB%82%A9%EB%8F%99/", "workingTime": ["1,2,3,4,5\uc9f8\uc8fc08:30~21:00", "08:30~21:00", "08:30~21:00", "08:30~21:00", "08:30~21:00", "08:30~21:00", "08:30~21:00", "08:30~21:00"]}, {"name": "\ud589\ubcf5\ud55c\uc6b0\ub9ac\uc57d\uad6d", "lat": "37.536982132872424", "lng": "127.12140053565349", "url": "/info/%ED%96%89%EB%B3%B5%ED%95%9C%EC%9A%B0%EB%A6%AC%EC%95%BD%EA%B5%AD-%EC%84%9C%EC%9A%B8%ED%8A%B9%EB%B3%84%EC%8B%9C-%EC%86%A1%ED%8C%8C%EA%B5%AC-%ED%92%8D%EB%82%A9%EB%8F%99/", "workingTime": ["-", "09:00~19:00", "09:00~19:00", "09:00~19:00", "09:00~19:00", "09:00~19:00", "09:00~14:00", "-"]}, {"name": "\uc635\ud2f0\ub9c8\ud558\ub098\uc57d\uad6d", "lat": "37.53377693347702", "lng": "127.118177662487", "url": "/info/%EC%98%B5%ED%8B%B0%EB%A7%88%ED%95%98%EB%82%98%EC%95%BD%EA%B5%AD-%EC%84%9C%EC%9A%B8%ED%8A%B9%EB%B3%84%EC%8B%9C-%EC%86%A1%ED%8C%8C%EA%B5%AC-%ED%92%8D%EB%82%A9%EB%8F%99/", "workingTime": ["-", "09:00~19:00", "09:00~19:00", "09:00~19:00", "09:00~19:00", "09:00~19:00", "09:00~14:00", "-"]}, {"name": "\uc62c\ub9ac\ube0c\uc57d\uad6d", "lat": "37.52713124252077", "lng": "127.11535697653258", "url": "/info/%EC%98%AC%EB%A6%AC%EB%B8%8C%EC%95%BD%EA%B5%AD-%EC%84%9C%EC%9A%B8%ED%8A%B9%EB%B3%84%EC%8B%9C-%EC%86%A1%ED%8C%8C%EA%B5%AC-%ED%92%8D%EB%82%A9%EB%8F%99/", "workingTime": ["-", "08:30~18:30", "08:30~18:30", "08:30~18:30", "08:30~18:30", "08:30~18:30", "-", "-"]}, {"name": "\ub300\ud559\uc57d\uad6d", "lat": "37.5273747176543", "lng": "127.113945344419", "url": "/info/%EB%8C%80%ED%95%99%EC%95%BD%EA%B5%AD-%EC%84%9C%EC%9A%B8%ED%8A%B9%EB%B3%84%EC%8B%9C-%EC%86%A1%ED%8C%8C%EA%B5%AC-%ED%92%8D%EB%82%A9%EB%8F%99/", "workingTime": ["-", "08:30~18:30", "08:30~18:30", "08:30~18:30", "08:30~18:30", "08:30~18:30", "-", "-"]}, {"name": "\uc0ac\uac70\ub9ac\ud604\ub300\uc57d\uad6d", "lat": "37.526365018", "lng": "127.1175685861", "url": "/info/%EC%82%AC%EA%B1%B0%EB%A6%AC%ED%98%84%EB%8C%80%EC%95%BD%EA%B5%AD-%EC%84%9C%EC%9A%B8%ED%8A%B9%EB%B3%84%EC%8B%9C-%EC%86%A1%ED%8C%8C%EA%B5%AC-%ED%92%8D%EB%82%A9%EB%8F%99/", "workingTime": ["-", "09:00~18:15", "09:00~18:15", "09:00~18:15", "09:00~18:15", "09:00~18:15", "-", "-"]}, {"name": "\uc8fc\ucc28\ud3b8\ud55c\uc544\uc0b0\uba54\ub514\uce7c\uc57d\uad6d", "lat": "37.52728723970638", "lng": "127.11430283822745", "url": "/info/%EC%A3%BC%EC%B0%A8%ED%8E%B8%ED%95%9C%EC%95%84%EC%82%B0%EB%A9%94%EB%94%94%EC%B9%BC%EC%95%BD%EA%B5%AD-%EC%84%9C%EC%9A%B8%ED%8A%B9%EB%B3%84%EC%8B%9C-%EC%86%A1%ED%8C%8C%EA%B5%AC-%ED%92%8D%EB%82%A9%EB%8F%99/", "workingTime": ["-", "09:00~18:30", "09:00~18:30", "09:00~18:30", "09:00~18:30", "09:00~18:30", "-", "-"]}, {"name": "\uc8fc\ucc28\ubc14\ub85c\uc57d\uad6d", "lat": "37.5269213868273", "lng": "127.115190897064", "url": "/info/%EC%A3%BC%EC%B0%A8%EB%B0%94%EB%A1%9C%EC%95%BD%EA%B5%AD-%EC%84%9C%EC%9A%B8%ED%8A%B9%EB%B3%84%EC%8B%9C-%EC%86%A1%ED%8C%8C%EA%B5%AC-%ED%92%8D%EB%82%A9%EB%8F%99/", "workingTime": ["-", "08:30~19:00", "08:30~19:00", "08:30~19:00", "08:30~19:00", "08:30~19:00", "-", "-"]}, {"name": "\uc1a1\ud30c\uc6b0\ub9ac\uc57d\uad6d", "lat": "37.528942083904695", "lng": "127.11735996086283", "url": "/info/%EC%86%A1%ED%8C%8C%EC%9A%B0%EB%A6%AC%EC%95%BD%EA%B5%AD-%EC%84%9C%EC%9A%B8%ED%8A%B9%EB%B3%84%EC%8B%9C-%EC%86%A1%ED%8C%8C%EA%B5%AC-%ED%92%8D%EB%82%A9%EB%8F%99/", "workingTime": ["-", "09:00~20:00", "09:00~20:00", "09:00~20:00", "09:00~20:00", "09:00~20:00", "09:00~19:00", "-"]}, {"name": "\ubbf8\ub798\uc544\uc0b0\uc57d\uad6d", "lat": "37.5271664636823", "lng": "127.114630711984", "url": "/info/%EB%AF%B8%EB%9E%98%EC%95%84%EC%82%B0%EC%95%BD%EA%B5%AD-%EC%84%9C%EC%9A%B8%ED%8A%B9%EB%B3%84%EC%8B%9C-%EC%86%A1%ED%8C%8C%EA%B5%AC-%ED%92%8D%EB%82%A9%EB%8F%99/", "workingTime": ["-", "09:00~19:00", "09:00~19:00", "09:00~19:00", "09:00~19:00", "09:00~19:00", "-", "-"]}, {"name": "\uac00\uc7a5\ud3b8\ud55c\ub300\uc601\uc57d\uad6d", "lat": "37.52723667545024", "lng": "127.11442039638274", "url": "/info/%EA%B0%80%EC%9E%A5%ED%8E%B8%ED%95%9C%EB%8C%80%EC%98%81%EC%95%BD%EA%B5%AD-%EC%84%9C%EC%9A%B8%ED%8A%B9%EB%B3%84%EC%8B%9C-%EC%86%A1%ED%8C%8C%EA%B5%AC-%ED%92%8D%EB%82%A9%EB%8F%99/", "workingTime": ["-", "09:00~18:00", "09:00~18:00", "09:00~18:00", "09:00~18:00", "09:00~18:00", "-", "-"]}, {"name": "\uac00\uc7a5\ube60\ub978\ucc9c\uc0ac\uc57d\uad6d", "lat": "37.5264402340298", "lng": "127.114931882654", "url": "/info/%EA%B0%80%EC%9E%A5%EB%B9%A0%EB%A5%B8%EC%B2%9C%EC%82%AC%EC%95%BD%EA%B5%AD-%EC%84%9C%EC%9A%B8%ED%8A%B9%EB%B3%84%EC%8B%9C-%EC%86%A1%ED%8C%8C%EA%B5%AC-%ED%92%8D%EB%82%A9%EB%8F%99/", "workingTime": ["-", "08:30~21:00", "08:30~21:00", "08:30~21:00", "08:30~21:00", "08:30~21:00", "-", "-"]}, {"name": "\uac00\uae4c\uc6b4\uc774\ud654\uc57d\uad6d", "lat": "37.52643969475743", "lng": "127.11493052427409", "url": "/info/%EA%B0%80%EA%B9%8C%EC%9A%B4%EC%9D%B4%ED%99%94%EC%95%BD%EA%B5%AD-%EC%84%9C%EC%9A%B8%ED%8A%B9%EB%B3%84%EC%8B%9C-%EC%86%A1%ED%8C%8C%EA%B5%AC-%ED%92%8D%EB%82%A9%EB%8F%99/", "workingTime": ["-", "09:00~18:30", "09:00~18:30", "09:00~18:30", "09:00~18:30", "09:00~18:30", "-", "-"]}, {"name": "\uac00\uae4c\uc6b4\uc0c8\uc11c\uc6b8\uc57d\uad6d", "lat": "37.53082470524614", "lng": "127.11228986789233", "url": "/info/%EA%B0%80%EA%B9%8C%EC%9A%B4%EC%83%88%EC%84%9C%EC%9A%B8%EC%95%BD%EA%B5%AD-%EC%84%9C%EC%9A%B8%ED%8A%B9%EB%B3%84%EC%8B%9C-%EC%86%A1%ED%8C%8C%EA%B5%AC-%ED%92%8D%EB%82%A9%EB%8F%99/", "workingTime": ["-", "08:30~18:30", "08:30~18:30", "08:30~18:30", "08:30~18:30", "08:30~18:30", "-", "-"]}, {"name": "\uac00\uc7a5\ud070\ud604\ub300\uc544\uc0b0\uc57d\uad6d", "lat": "37.527077381233255", "lng": "127.11515325882553", "url": "/info/%EA%B0%80%EC%9E%A5%ED%81%B0%ED%98%84%EB%8C%80%EC%95%84%EC%82%B0%EC%95%BD%EA%B5%AD-%EC%84%9C%EC%9A%B8%ED%8A%B9%EB%B3%84%EC%8B%9C-%EC%86%A1%ED%8C%8C%EA%B5%AC-%ED%92%8D%EB%82%A9%EB%8F%99/", "workingTime": ["-", "09:00~18:50", "09:00~18:50", "09:00~18:50", "09:00~18:50", "09:00~18:50", "-", "-"]}, {"name": "\ub298\ubd04\uc57d\uad6d", "lat": "37.5280338232329", "lng": "127.118409964876", "url": "/info/%EB%8A%98%EB%B4%84%EC%95%BD%EA%B5%AD-%EC%84%9C%EC%9A%B8%ED%8A%B9%EB%B3%84%EC%8B%9C-%EC%86%A1%ED%8C%8C%EA%B5%AC-%ED%92%8D%EB%82%A9%EB%8F%99/", "workingTime": ["-", "09:00~19:00", "09:00~19:00", "09:00~19:00", "09:00~19:00", "09:00~19:00", "09:00~15:00", "-"]}, {"name": "\ub2e4\uc0ac\ub791\uc57d\uad6d", "lat": "37.5305910872711", "lng": "127.112750545786", "url": "/info/%EB%8B%A4%EC%82%AC%EB%9E%91%EC%95%BD%EA%B5%AD-%EC%84%9C%EC%9A%B8%ED%8A%B9%EB%B3%84%EC%8B%9C-%EC%86%A1%ED%8C%8C%EA%B5%AC-%ED%92%8D%EB%82%A9%EB%8F%99/", "workingTime": ["-", "09:00~19:00", "09:00~19:00", "09:00~19:00", "09:00~19:00", "09:00~19:00", "-", "-"]}, {"name": "\ud06c\uac8c\uc5f4\ub9b0\uc57d\uad6d", "lat": "37.527366691", "lng": "127.1141400304", "url": "/info/%ED%81%AC%EA%B2%8C%EC%97%B4%EB%A6%B0%EC%95%BD%EA%B5%AD-%EC%84%9C%EC%9A%B8%ED%8A%B9%EB%B3%84%EC%8B%9C-%EC%86%A1%ED%8C%8C%EA%B5%AC-%ED%92%8D%EB%82%A9%EB%8F%99/", "workingTime": ["-", "09:00~19:00", "09:00~19:00", "09:00~19:00", "09:00~19:00", "09:00~19:00", "-", "-"]}, {"name": "\ud48d\ub0a9\ub77c\ud30c\uc57d\uad6d", "lat": "37.53762482815735", "lng": "127.11933321411168", "url": "/info/%ED%92%8D%EB%82%A9%EB%9D%BC%ED%8C%8C%EC%95%BD%EA%B5%AD-%EC%84%9C%EC%9A%B8%ED%8A%B9%EB%B3%84%EC%8B%9C-%EC%86%A1%ED%8C%8C%EA%B5%AC-%ED%92%8D%EB%82%A9%EB%8F%99/", "workingTime": ["-", "09:00~21:30", "09:00~21:30", "09:00~21:30", "09:00~21:30", "09:00~21:30", "09:00~21:00", "-"]}, {"name": "\ucc9c\ud638\ud478\ub978\uc57d\uad6d", "lat": "37.53668556353609", "lng": "127.12240930766819", "url": "/info/%EC%B2%9C%ED%98%B8%ED%91%B8%EB%A5%B8%EC%95%BD%EA%B5%AD-%EC%84%9C%EC%9A%B8%ED%8A%B9%EB%B3%84%EC%8B%9C-%EC%86%A1%ED%8C%8C%EA%B5%AC-%ED%92%8D%EB%82%A9%EB%8F%99/", "workingTime": ["-", "09:00~20:00", "09:00~20:00", "09:00~20:00", "09:00~20:00", "09:00~20:00", "09:00~12:00", "-"]}, {"name": "\uc77c\ubc88\uc57d\uad6d", "lat": "37.530815837638045", "lng": "127.11302766345756", "url": "/info/%EC%9D%BC%EB%B2%88%EC%95%BD%EA%B5%AD-%EC%84%9C%EC%9A%B8%ED%8A%B9%EB%B3%84%EC%8B%9C-%EC%86%A1%ED%8C%8C%EA%B5%AC-%ED%92%8D%EB%82%A9%EB%8F%99/", "workingTime": ["1,2,3,4,5\uc9f8\uc8fc09:00~17:30", "09:00~20:00", "09:00~20:00", "09:00~20:00", "09:00~20:00", "09:00~20:00", "10:00~18:00", "09:00~17:30"]}, {"name": "\uc740\uc138\uc57d\uad6d", "lat": "37.52783374669939", "lng": "127.11841276921815", "url": "/info/%EC%9D%80%EC%84%B8%EC%95%BD%EA%B5%AD-%EC%84%9C%EC%9A%B8%ED%8A%B9%EB%B3%84%EC%8B%9C-%EC%86%A1%ED%8C%8C%EA%B5%AC-%ED%92%8D%EB%82%A9%EB%8F%99/", "workingTime": ["-", "09:00~19:00", "09:00~19:00", "09:00~19:00", "09:00~19:00", "09:00~19:00", "09:00~15:00", "-"]}, {"name": "\uc0c8\ud558\ub098\uc57d\uad6d", "lat": "37.526835626020684", "lng": "127.11544702536537", "url": "/info/%EC%83%88%ED%95%98%EB%82%98%EC%95%BD%EA%B5%AD-%EC%84%9C%EC%9A%B8%ED%8A%B9%EB%B3%84%EC%8B%9C-%EC%86%A1%ED%8C%8C%EA%B5%AC-%ED%92%8D%EB%82%A9%EB%8F%99/", "workingTime": ["-", "09:00~18:30", "09:00~18:30", "09:00~18:30", "09:00~18:30", "09:00~18:30", "14:00~18:00", "-"]}, {"name": "\uc0c8\ub3d9\uc0b0\uc57d\uad6d", "lat": "37.5350731972", "lng": "127.1202478928", "url": "/info/%EC%83%88%EB%8F%99%EC%82%B0%EC%95%BD%EA%B5%AD-%EC%84%9C%EC%9A%B8%ED%8A%B9%EB%B3%84%EC%8B%9C-%EC%86%A1%ED%8C%8C%EA%B5%AC-%ED%92%8D%EB%82%A9%EB%8F%99/", "workingTime": ["-", "09:00~21:00", "09:00~21:00", "09:00~21:00", "09:00~21:00", "09:00~21:00", "09:00~21:00", "-"]}, {"name": "\uc0c8\uadf8\ub9b0\uc57d\uad6d", "lat": "37.529018097551386", "lng": "127.11612029124205", "url": "/info/%EC%83%88%EA%B7%B8%EB%A6%B0%EC%95%BD%EA%B5%AD-%EC%84%9C%EC%9A%B8%ED%8A%B9%EB%B3%84%EC%8B%9C-%EC%86%A1%ED%8C%8C%EA%B5%AC-%ED%92%8D%EB%82%A9%EB%8F%99/", "workingTime": ["-", "09:00~19:00", "09:00~19:00", "09:00~19:00", "09:00~19:00", "09:00~19:00", "09:00~15:30", "-"]}, {"name": "\uac00\uc7a5\uce5c\uc808\ud55c\uc815\ubb38\uc55e\uc911\uc559\uc57d\uad6d", "lat": "37.5271679932", "lng": "127.1146329769", "url": "/info/%EA%B0%80%EC%9E%A5%EC%B9%9C%EC%A0%88%ED%95%9C%EC%A0%95%EB%AC%B8%EC%95%9E%EC%A4%91%EC%95%99%EC%95%BD%EA%B5%AD-%EC%84%9C%EC%9A%B8%ED%8A%B9%EB%B3%84%EC%8B%9C-%EC%86%A1%ED%8C%8C%EA%B5%AC-%ED%92%8D%EB%82%A9%EB%8F%99/", "workingTime": ["-", "09:00~19:00", "09:00~19:00", "09:00~19:00", "09:00~19:00", "09:00~19:00", "-", "-"]}, {"name": "\uac00\uac00\ud638\ud638\uc870\uc740\uc57d\uad6d", "lat": "37.5308320637", "lng": "127.1121314884", "url": "/info/%EA%B0%80%EA%B0%80%ED%98%B8%ED%98%B8%EC%A1%B0%EC%9D%80%EC%95%BD%EA%B5%AD-%EC%84%9C%EC%9A%B8%ED%8A%B9%EB%B3%84%EC%8B%9C-%EC%86%A1%ED%8C%8C%EA%B5%AC-%ED%92%8D%EB%82%A9%EB%8F%99/", "workingTime": ["-", "09:00~18:30", "09:00~18:30", "09:00~18:30", "09:00~18:30", "09:00~18:30", "-", "-"]}, {"name": "\ubc1d\uc740\uc911\uc559\uc57d\uad6d", "lat": "37.5267633835", "lng": "127.115618851", "url": "/info/%EB%B0%9D%EC%9D%80%EC%A4%91%EC%95%99%EC%95%BD%EA%B5%AD-%EC%84%9C%EC%9A%B8%ED%8A%B9%EB%B3%84%EC%8B%9C-%EC%86%A1%ED%8C%8C%EA%B5%AC-%ED%92%8D%EB%82%A9%EB%8F%99/", "workingTime": ["-", "09:00~18:30", "09:00~18:30", "09:00~18:30", "09:00~18:30", "09:00~18:30", "09:00~13:00", "-"]}, {"name": "\ubbf8\ub974\uc57d\uad6d", "lat": "37.528942083904695", "lng": "127.11735996086283", "url": "/info/%EB%AF%B8%EB%A5%B4%EC%95%BD%EA%B5%AD-%EC%84%9C%EC%9A%B8%ED%8A%B9%EB%B3%84%EC%8B%9C-%EC%86%A1%ED%8C%8C%EA%B5%AC-%ED%92%8D%EB%82%A9%EB%8F%99/", "workingTime": ["-", "09:00~19:30", "09:00~19:30", "09:00~19:30", "09:00~19:30", "09:00~19:30", "09:00~15:00", "-"]}]