[{"name": "\ud76c\uad6c\uc57d\uad6d", "lat": "37.558488888888888", "lng": "126.977272222222226", "url": "/info/%ED%9D%AC%EA%B5%AC%EC%95%BD%EA%B5%AD-%EC%84%9C%EC%9A%B8%ED%8A%B9%EB%B3%84%EC%8B%9C-%EC%A4%91%EA%B5%AC-%EB%82%A8%EC%B0%BD%EB%8F%99/", "workingTime": ["-", "09:00~18:30", "09:00~18:30", "09:00~18:30", "09:00~18:30", "09:00~18:30", "09:00~17:00", "-"]}, {"name": "\ud68c\ud604\uc57d\uad6d", "lat": "37.55729744944495", "lng": "126.97706217577036", "url": "/info/%ED%9A%8C%ED%98%84%EC%95%BD%EA%B5%AD-%EC%84%9C%EC%9A%B8%ED%8A%B9%EB%B3%84%EC%8B%9C-%EC%A4%91%EA%B5%AC-%EB%82%A8%EC%B0%BD%EB%8F%99/", "workingTime": ["-", "09:00~19:00", "09:00~19:00", "09:00~19:00", "09:00~19:00", "09:00~19:00", "09:00~14:00", "-"]}, {"name": "\uc11c\uc6b8\uc655\uc57d\uad6d", "lat": "37.560869191797885", "lng": "126.97814301532836", "url": "/info/%EC%84%9C%EC%9A%B8%EC%99%95%EC%95%BD%EA%B5%AD-%EC%84%9C%EC%9A%B8%ED%8A%B9%EB%B3%84%EC%8B%9C-%EC%A4%91%EA%B5%AC-%EB%82%A8%EC%B0%BD%EB%8F%99/", "workingTime": ["2,4\uc9f8\uc8fc09:00~16:00", "07:30~19:00", "07:30~19:00", "07:30~19:00", "07:30~19:00", "07:30~19:00", "07:30~19:00", "09:00~16:00"]}, {"name": "\uad11\uc8fc\ucc38\uc57d\uad6d", "lat": "37.5580322138886", "lng": "126.97832431036257", "url": "/info/%EA%B4%91%EC%A3%BC%EC%B0%B8%EC%95%BD%EA%B5%AD-%EC%84%9C%EC%9A%B8%ED%8A%B9%EB%B3%84%EC%8B%9C-%EC%A4%91%EA%B5%AC-%EB%82%A8%EC%B0%BD%EB%8F%99/", "workingTime": ["1,2,3,4,5\uc9f8\uc8fc22:00~25:00", "08:00~21:00", "08:00~25:00", "08:00~21:00", "08:00~25:00", "08:00~21:00", "08:00~21:00", "-"]}, {"name": "\uc11c\ud604\uc628\ub204\ub9ac\uc57d\uad6d", "lat": "37.55937010196476", "lng": "126.97894931365157", "url": "/info/%EC%84%9C%ED%98%84%EC%98%A8%EB%88%84%EB%A6%AC%EC%95%BD%EA%B5%AD-%EC%84%9C%EC%9A%B8%ED%8A%B9%EB%B3%84%EC%8B%9C-%EC%A4%91%EA%B5%AC-%EB%82%A8%EC%B0%BD%EB%8F%99/", "workingTime": ["-", "09:00~18:30", "09:00~18:30", "09:00~18:30", "09:00~18:30", "09:00~18:30", "09:00~15:00", "-"]}, {"name": "\uae08\uc624\uc57d\uad6d", "lat": "37.55935928055946", "lng": "126.97889951843821", "url": "/info/%EA%B8%88%EC%98%A4%EC%95%BD%EA%B5%AD-%EC%84%9C%EC%9A%B8%ED%8A%B9%EB%B3%84%EC%8B%9C-%EC%A4%91%EA%B5%AC-%EB%82%A8%EC%B0%BD%EB%8F%99/", "workingTime": ["-", "09:00~18:30", "09:00~18:30", "09:00~18:30", "09:00~18:30", "09:00~18:30", "09:00~16:00", "-"]}]