[{"name": "\uc740\uc57d\uad6d", "lat": "37.5698020382057", "lng": "126.904699040069", "url": "/info/%EC%9D%80%EC%95%BD%EA%B5%AD-%EC%84%9C%EC%9A%B8%ED%8A%B9%EB%B3%84%EC%8B%9C-%EB%A7%88%ED%8F%AC%EA%B5%AC-%EC%84%B1%EC%82%B0%EB%8F%99/", "workingTime": ["-", "08:00~18:00", "08:00~18:00", "08:00~18:00", "08:00~18:00", "08:00~18:00", "08:00~13:00", "-"]}, {"name": "\uc774\ud654\uc57d\uad6d", "lat": "37.559547485788705", "lng": "126.90724711799032", "url": "/info/%EC%9D%B4%ED%99%94%EC%95%BD%EA%B5%AD-%EC%84%9C%EC%9A%B8%ED%8A%B9%EB%B3%84%EC%8B%9C-%EB%A7%88%ED%8F%AC%EA%B5%AC-%EC%84%B1%EC%82%B0%EB%8F%99/", "workingTime": ["-", "09:00~21:00", "09:00~20:00", "09:00~21:00", "09:00~21:00", "09:00~21:00", "09:00~20:00", "09:00~20:00"]}, {"name": "\ud6a8\uc131\uc57d\uad6d", "lat": "37.56120579020749", "lng": "126.91759895476054", "url": "/info/%ED%9A%A8%EC%84%B1%EC%95%BD%EA%B5%AD-%EC%84%9C%EC%9A%B8%ED%8A%B9%EB%B3%84%EC%8B%9C-%EB%A7%88%ED%8F%AC%EA%B5%AC-%EC%84%B1%EC%82%B0%EB%8F%99/", "workingTime": ["-", "12:00~21:00", "12:00~21:00", "12:00~21:00", "12:00~21:00", "12:00~21:00", "12:00~20:00", "-"]}, {"name": "\ub300\uc601\uc57d\uad6d", "lat": "37.56747884628697", "lng": "126.91061039166135", "url": "/info/%EB%8C%80%EC%98%81%EC%95%BD%EA%B5%AD-%EC%84%9C%EC%9A%B8%ED%8A%B9%EB%B3%84%EC%8B%9C-%EB%A7%88%ED%8F%AC%EA%B5%AC-%EC%84%B1%EC%82%B0%EB%8F%99/", "workingTime": ["-", "09:00~20:00", "09:00~20:00", "09:00~20:00", "09:00~20:00", "09:00~20:00", "09:00~17:00", "-"]}, {"name": "\uc9c0\uc120\uc57d\uad6d", "lat": "37.56794256441916", "lng": "126.9078830368244", "url": "/info/%EC%A7%80%EC%84%A0%EC%95%BD%EA%B5%AD-%EC%84%9C%EC%9A%B8%ED%8A%B9%EB%B3%84%EC%8B%9C-%EB%A7%88%ED%8F%AC%EA%B5%AC-%EC%84%B1%EC%82%B0%EB%8F%99/", "workingTime": ["2,4\uc9f8\uc8fc15:00~21:00", "10:00~21:30", "10:00~21:30", "10:00~21:30", "10:00~21:30", "10:00~21:30", "10:00~21:30", "-"]}, {"name": "\ubc14\ub2e4\uc57d\uad6d", "lat": "37.5599308118771", "lng": "126.916342567679", "url": "/info/%EB%B0%94%EB%8B%A4%EC%95%BD%EA%B5%AD-%EC%84%9C%EC%9A%B8%ED%8A%B9%EB%B3%84%EC%8B%9C-%EB%A7%88%ED%8F%AC%EA%B5%AC-%EC%84%B1%EC%82%B0%EB%8F%99/", "workingTime": ["-", "09:00~19:00", "09:00~19:00", "09:00~19:00", "09:00~19:00", "09:00~19:00", "09:00~15:00", "-"]}, {"name": "\uc218\ub824\ud55c\uc57d\uad6d", "lat": "37.56490980353532", "lng": "126.91168755485259", "url": "/info/%EC%88%98%EB%A0%A4%ED%95%9C%EC%95%BD%EA%B5%AD-%EC%84%9C%EC%9A%B8%ED%8A%B9%EB%B3%84%EC%8B%9C-%EB%A7%88%ED%8F%AC%EA%B5%AC-%EC%84%B1%EC%82%B0%EB%8F%99/", "workingTime": ["1,2,3,4,5\uc9f8\uc8fc08:30~18:00", "08:30~20:30", "08:30~20:30", "08:30~20:30", "08:30~20:30", "08:30~20:30", "08:30~18:00", "-"]}, {"name": "\uc131\uc0b0\ud604\ub300\uc57d\uad6d", "lat": "37.56504612025903", "lng": "126.90149939313201", "url": "/info/%EC%84%B1%EC%82%B0%ED%98%84%EB%8C%80%EC%95%BD%EA%B5%AD-%EC%84%9C%EC%9A%B8%ED%8A%B9%EB%B3%84%EC%8B%9C-%EB%A7%88%ED%8F%AC%EA%B5%AC-%EC%84%B1%EC%82%B0%EB%8F%99/", "workingTime": ["-", "09:00~18:00", "09:00~18:00", "09:00~18:00", "09:00~18:00", "09:00~18:00", "09:00~13:00", "-"]}, {"name": "\uc900\uc57d\uad6d", "lat": "37.56701666289852", "lng": "126.9097970173701", "url": "/info/%EC%A4%80%EC%95%BD%EA%B5%AD-%EC%84%9C%EC%9A%B8%ED%8A%B9%EB%B3%84%EC%8B%9C-%EB%A7%88%ED%8F%AC%EA%B5%AC-%EC%84%B1%EC%82%B0%EB%8F%99/", "workingTime": ["1,2,3,4,5\uc9f8\uc8fc10:00~16:00", "09:00~19:30", "09:00~19:30", "09:00~19:30", "09:00~19:30", "09:00~19:30", "09:00~16:30", "-"]}, {"name": "\uc911\uc6d0\uc57d\uad6d", "lat": "37.56837775274537", "lng": "126.90789268825142", "url": "/info/%EC%A4%91%EC%9B%90%EC%95%BD%EA%B5%AD-%EC%84%9C%EC%9A%B8%ED%8A%B9%EB%B3%84%EC%8B%9C-%EB%A7%88%ED%8F%AC%EA%B5%AC-%EC%84%B1%EC%82%B0%EB%8F%99/", "workingTime": ["-", "09:00~21:00", "09:00~21:00", "09:00~21:00", "09:00~21:00", "09:00~21:00", "09:00~21:00", "-"]}, {"name": "\uc628\ub204\ub9ac\uc57d\uad6d", "lat": "37.564215259711155", "lng": "126.91303756194448", "url": "/info/%EC%98%A8%EB%88%84%EB%A6%AC%EC%95%BD%EA%B5%AD-%EC%84%9C%EC%9A%B8%ED%8A%B9%EB%B3%84%EC%8B%9C-%EB%A7%88%ED%8F%AC%EA%B5%AC-%EC%84%B1%EC%82%B0%EB%8F%99/", "workingTime": ["-", "09:00~22:00", "09:00~22:00", "09:00~22:00", "09:00~22:00", "09:00~22:00", "09:00~22:00", "-"]}, {"name": "\ub9c8\ud3ec\ubcf4\uac74\uc57d\uad6d", "lat": "37.5653998374", "lng": "126.9021327823", "url": "/info/%EB%A7%88%ED%8F%AC%EB%B3%B4%EA%B1%B4%EC%95%BD%EA%B5%AD-%EC%84%9C%EC%9A%B8%ED%8A%B9%EB%B3%84%EC%8B%9C-%EB%A7%88%ED%8F%AC%EA%B5%AC-%EC%84%B1%EC%82%B0%EB%8F%99/", "workingTime": ["-", "09:00~21:00", "09:00~21:00", "09:00~21:00", "09:00~21:00", "09:00~21:00", "09:00~21:00", "09:00~21:00"]}]