[{"name": "\uc2e0\ub77c\uc57d\uad6d", "lat": "37.5501440372826", "lng": "127.06707085026656", "url": "/info/%EC%8B%A0%EB%9D%BC%EC%95%BD%EA%B5%AD-%EC%84%9C%EC%9A%B8%ED%8A%B9%EB%B3%84%EC%8B%9C-%EC%84%B1%EB%8F%99%EA%B5%AC-%EC%86%A1%EC%A0%95%EB%8F%99/", "workingTime": ["1,3,5\uc9f8\uc8fc09:00~22:30", "09:00~22:30", "09:00~22:30", "09:00~22:30", "09:00~22:30", "09:00~22:30", "09:00~22:30", "11:00~22:00"]}, {"name": "\uc655\uc57d\uad6d", "lat": "37.54842213020001", "lng": "127.0656524895", "url": "/info/%EC%99%95%EC%95%BD%EA%B5%AD-%EC%84%9C%EC%9A%B8%ED%8A%B9%EB%B3%84%EC%8B%9C-%EC%84%B1%EB%8F%99%EA%B5%AC-%EC%86%A1%EC%A0%95%EB%8F%99/", "workingTime": ["-", "08:30~16:00", "08:30~16:00", "08:30~16:00", "08:30~16:00", "08:30~16:00", "-", "10:00~22:00"]}, {"name": "\ud55c\uae38\uc57d\uad6d", "lat": "37.5548644589556", "lng": "127.070927789885", "url": "/info/%ED%95%9C%EA%B8%B8%EC%95%BD%EA%B5%AD-%EC%84%9C%EC%9A%B8%ED%8A%B9%EB%B3%84%EC%8B%9C-%EC%84%B1%EB%8F%99%EA%B5%AC-%EC%86%A1%EC%A0%95%EB%8F%99/", "workingTime": ["1,2,3,4,5\uc9f8\uc8fc10:00~22:00", "09:30~22:00", "09:30~22:00", "09:30~22:00", "09:30~22:00", "09:30~22:00", "10:00~22:00", "-"]}, {"name": "\uc0c8\uc778\uc120\uc57d\uad6d", "lat": "37.551498692699994", "lng": "127.0678596884", "url": "/info/%EC%83%88%EC%9D%B8%EC%84%A0%EC%95%BD%EA%B5%AD-%EC%84%9C%EC%9A%B8%ED%8A%B9%EB%B3%84%EC%8B%9C-%EC%84%B1%EB%8F%99%EA%B5%AC-%EC%86%A1%EC%A0%95%EB%8F%99/", "workingTime": ["-", "09:00~23:00", "09:00~23:00", "09:00~23:00", "09:00~23:00", "09:00~23:00", "09:00~23:00", "09:00~22:00"]}, {"name": "\uc0c8\uc655\uc57d\uad6d", "lat": "37.5484400065", "lng": "127.0659105163", "url": "/info/%EC%83%88%EC%99%95%EC%95%BD%EA%B5%AD-%EC%84%9C%EC%9A%B8%ED%8A%B9%EB%B3%84%EC%8B%9C-%EC%84%B1%EB%8F%99%EA%B5%AC-%EC%86%A1%EC%A0%95%EB%8F%99/", "workingTime": ["-", "09:00~15:00", "09:00~15:00", "09:00~15:00", "09:00~15:00", "09:00~15:00", "-", "-"]}]