[{"name": "\uc5f4\ub9b0\uc57d\uad6d", "lat": "37.57149127967133", "lng": "127.02178488409479", "url": "/info/%EC%97%B4%EB%A6%B0%EC%95%BD%EA%B5%AD-%EC%84%9C%EC%9A%B8%ED%8A%B9%EB%B3%84%EC%8B%9C-%EC%A4%91%EA%B5%AC-%ED%99%A9%ED%95%99%EB%8F%99/", "workingTime": ["1,3,5\uc9f8\uc8fc10:00~21:00", "10:00~21:00", "10:00~21:00", "10:00~21:00", "10:00~21:00", "10:00~21:00", "10:00~21:00", "-"]}, {"name": "\uc54c\ud30c\uc57d\uad6d", "lat": "37.569914896569664", "lng": "127.0197457786096", "url": "/info/%EC%95%8C%ED%8C%8C%EC%95%BD%EA%B5%AD-%EC%84%9C%EC%9A%B8%ED%8A%B9%EB%B3%84%EC%8B%9C-%EC%A4%91%EA%B5%AC-%ED%99%A9%ED%95%99%EB%8F%99/", "workingTime": ["-", "10:00~17:00", "10:00~17:00", "10:00~17:00", "10:00~17:00", "10:00~17:00", "-", "-"]}, {"name": "\uc2e0\ub2f9\uc870\uc740\uc57d\uad6d", "lat": "37.5656256395", "lng": "127.0226286958", "url": "/info/%EC%8B%A0%EB%8B%B9%EC%A1%B0%EC%9D%80%EC%95%BD%EA%B5%AD-%EC%84%9C%EC%9A%B8%ED%8A%B9%EB%B3%84%EC%8B%9C-%EC%A4%91%EA%B5%AC-%ED%99%A9%ED%95%99%EB%8F%99/", "workingTime": ["-", "09:00~19:00", "09:00~19:00", "09:00~19:00", "09:00~19:00", "09:00~19:00", "09:00~14:00", "-"]}, {"name": "\ub77c\uc784\uc57d\uad6d", "lat": "37.5660419798503", "lng": "127.021721835241", "url": "/info/%EB%9D%BC%EC%9E%84%EC%95%BD%EA%B5%AD-%EC%84%9C%EC%9A%B8%ED%8A%B9%EB%B3%84%EC%8B%9C-%EC%A4%91%EA%B5%AC-%ED%99%A9%ED%95%99%EB%8F%99/", "workingTime": ["-", "09:00~19:00", "09:00~19:00", "09:00~19:00", "09:00~19:00", "09:00~19:00", "09:00~14:00", "-"]}, {"name": "\ud0c0\uc6cc\uc57d\uad6d", "lat": "37.56588374192652", "lng": "127.02159124683686", "url": "/info/%ED%83%80%EC%9B%8C%EC%95%BD%EA%B5%AD-%EC%84%9C%EC%9A%B8%ED%8A%B9%EB%B3%84%EC%8B%9C-%EC%A4%91%EA%B5%AC-%ED%99%A9%ED%95%99%EB%8F%99/", "workingTime": ["-", "08:30~20:00", "08:30~19:00", "08:30~19:00", "08:30~20:00", "08:30~19:00", "08:30~14:00", "-"]}, {"name": "\ubc31\ud604\uc57d\uad6d", "lat": "37.5703251212", "lng": "127.0232051525", "url": "/info/%EB%B0%B1%ED%98%84%EC%95%BD%EA%B5%AD-%EC%84%9C%EC%9A%B8%ED%8A%B9%EB%B3%84%EC%8B%9C-%EC%A4%91%EA%B5%AC-%ED%99%A9%ED%95%99%EB%8F%99/", "workingTime": ["-", "09:00~19:30", "09:00~19:30", "09:00~21:00", "09:00~19:30", "09:00~19:30", "09:00~15:00", "09:00~13:00"]}, {"name": "\uc194\uc57d\uad6d", "lat": "37.5660402676934", "lng": "127.0217233062061", "url": "/info/%EC%86%94%EC%95%BD%EA%B5%AD-%EC%84%9C%EC%9A%B8%ED%8A%B9%EB%B3%84%EC%8B%9C-%EC%A4%91%EA%B5%AC-%ED%99%A9%ED%95%99%EB%8F%99/", "workingTime": ["-", "08:00~19:30", "08:00~19:30", "08:00~19:30", "08:00~19:30", "08:00~19:30", "08:00~17:00", "-"]}, {"name": "\uc0c1\uc0b0\uc57d\uad6d", "lat": "37.56591801590664", "lng": "127.02009789452231", "url": "/info/%EC%83%81%EC%82%B0%EC%95%BD%EA%B5%AD-%EC%84%9C%EC%9A%B8%ED%8A%B9%EB%B3%84%EC%8B%9C-%EC%A4%91%EA%B5%AC-%ED%99%A9%ED%95%99%EB%8F%99/", "workingTime": ["2,4,5\uc9f8\uc8fc09:30~21:00", "08:00~21:40", "08:00~21:40", "08:00~21:40", "08:00~21:40", "08:00~21:40", "08:00~21:40", "09:00~22:00"]}, {"name": "\ub3c5\uc77c\uc0ac\uc57d\uad6d", "lat": "37.570375597245025", "lng": "127.01934235670175", "url": "/info/%EB%8F%85%EC%9D%BC%EC%82%AC%EC%95%BD%EA%B5%AD-%EC%84%9C%EC%9A%B8%ED%8A%B9%EB%B3%84%EC%8B%9C-%EC%A4%91%EA%B5%AC-%ED%99%A9%ED%95%99%EB%8F%99/", "workingTime": ["-", "09:00~18:00", "09:00~18:00", "09:00~18:00", "09:00~18:00", "09:00~18:00", "08:00~18:00", "-"]}]