[{"name": "\uc7a5\ubbf8\ubbf8\uc18c\uc57d\uad6d", "lat": "37.5178804066184", "lng": "127.1018054402421", "url": "/info/%EC%9E%A5%EB%AF%B8%EB%AF%B8%EC%86%8C%EC%95%BD%EA%B5%AD-%EC%84%9C%EC%9A%B8%ED%8A%B9%EB%B3%84%EC%8B%9C-%EC%86%A1%ED%8C%8C%EA%B5%AC-%EC%8B%A0%EC%B2%9C%EB%8F%99/", "workingTime": ["-", "08:30~19:00", "08:30~19:00", "08:30~19:00", "08:30~19:00", "08:30~19:00", "08:30~19:00", "-"]}, {"name": "\uc7a0\uc2e4\uc120\uc57d\uad6d", "lat": "37.5159272595028", "lng": "127.099643159822", "url": "/info/%EC%9E%A0%EC%8B%A4%EC%84%A0%EC%95%BD%EA%B5%AD-%EC%84%9C%EC%9A%B8%ED%8A%B9%EB%B3%84%EC%8B%9C-%EC%86%A1%ED%8C%8C%EA%B5%AC-%EC%8B%A0%EC%B2%9C%EB%8F%99/", "workingTime": ["-", "08:30~21:00", "08:30~19:30", "08:30~19:30", "08:30~21:00", "08:30~19:30", "08:30~17:00", "-"]}, {"name": "\ud658\uc2b9\uc13c\ud130\uc57d\uad6d", "lat": "37.5113185408", "lng": "127.1017507699", "url": "/info/%ED%99%98%EC%8A%B9%EC%84%BC%ED%84%B0%EC%95%BD%EA%B5%AD-%EC%84%9C%EC%9A%B8%ED%8A%B9%EB%B3%84%EC%8B%9C-%EC%86%A1%ED%8C%8C%EA%B5%AC-%EC%8B%A0%EC%B2%9C%EB%8F%99/", "workingTime": ["1,2,3,4,5\uc9f8\uc8fc09:00~23:00", "08:00~23:00", "08:00~23:00", "08:00~23:00", "08:00~23:00", "08:00~23:00", "09:00~23:00", "09:00~23:00"]}, {"name": "\uc704\ub4dc\ud31c\uac00\uae4c\uc6b4\uc9c0\ud558\ucca0\uc57d\uad6d", "lat": "37.5208819816451", "lng": "127.104421421949", "url": "/info/%EC%9C%84%EB%93%9C%ED%8C%9C%EA%B0%80%EA%B9%8C%EC%9A%B4%EC%A7%80%ED%95%98%EC%B2%A0%EC%95%BD%EA%B5%AD-%EC%84%9C%EC%9A%B8%ED%8A%B9%EB%B3%84%EC%8B%9C-%EC%86%A1%ED%8C%8C%EA%B5%AC-%EC%8B%A0%EC%B2%9C%EB%8F%99/", "workingTime": ["-", "09:00~19:00", "09:00~19:00", "09:00~19:00", "09:00~19:00", "09:00~19:00", "-", "-"]}, {"name": "\uc6d4\ub4dc\ud0c0\uc6cc\uc57d\uad6d", "lat": "37.5137525026", "lng": "127.1044460998", "url": "/info/%EC%9B%94%EB%93%9C%ED%83%80%EC%9B%8C%EC%95%BD%EA%B5%AD-%EC%84%9C%EC%9A%B8%ED%8A%B9%EB%B3%84%EC%8B%9C-%EC%86%A1%ED%8C%8C%EA%B5%AC-%EC%8B%A0%EC%B2%9C%EB%8F%99/", "workingTime": ["1,3,5\uc9f8\uc8fc10:00~22:00", "10:00~22:00", "10:00~22:00", "10:00~22:00", "10:00~22:00", "10:00~22:00", "10:00~22:00", "-"]}, {"name": "\ub8e8\ud130\uc57d\uad6d", "lat": "37.5152529828", "lng": "127.1030682174", "url": "/info/%EB%A3%A8%ED%84%B0%EC%95%BD%EA%B5%AD-%EC%84%9C%EC%9A%B8%ED%8A%B9%EB%B3%84%EC%8B%9C-%EC%86%A1%ED%8C%8C%EA%B5%AC-%EC%8B%A0%EC%B2%9C%EB%8F%99/", "workingTime": ["-", "08:30~20:00", "08:30~20:00", "08:30~20:00", "08:30~20:00", "08:30~20:00", "08:30~16:00", "-"]}, {"name": "\ub4dc\ub9bc\uc57d\uad6d", "lat": "37.5203140390086", "lng": "127.113265047998", "url": "/info/%EB%93%9C%EB%A6%BC%EC%95%BD%EA%B5%AD-%EC%84%9C%EC%9A%B8%ED%8A%B9%EB%B3%84%EC%8B%9C-%EC%86%A1%ED%8C%8C%EA%B5%AC-%EC%8B%A0%EC%B2%9C%EB%8F%99/", "workingTime": ["-", "08:30~19:00", "08:30~19:00", "08:30~19:00", "08:30~19:00", "08:30~19:00", "08:30~14:00", "-"]}, {"name": "\ud574\uc624\ub984\uc57d\uad6d", "lat": "37.5173453453", "lng": "127.1007092383", "url": "/info/%ED%95%B4%EC%98%A4%EB%A6%84%EC%95%BD%EA%B5%AD-%EC%84%9C%EC%9A%B8%ED%8A%B9%EB%B3%84%EC%8B%9C-%EC%86%A1%ED%8C%8C%EA%B5%AC-%EC%8B%A0%EC%B2%9C%EB%8F%99/", "workingTime": ["-", "08:00~19:00", "08:00~19:00", "08:00~19:00", "08:00~19:00", "08:00~19:00", "09:00~13:00", "-"]}, {"name": "\uc628\ub204\ub9ac\uce90\uc2ac\ud504\ub77c\uc790\uc57d\uad6d", "lat": "37.51449358597823", "lng": "127.10071052280625", "url": "/info/%EC%98%A8%EB%88%84%EB%A6%AC%EC%BA%90%EC%8A%AC%ED%94%84%EB%9D%BC%EC%9E%90%EC%95%BD%EA%B5%AD-%EC%84%9C%EC%9A%B8%ED%8A%B9%EB%B3%84%EC%8B%9C-%EC%86%A1%ED%8C%8C%EA%B5%AC-%EC%8B%A0%EC%B2%9C%EB%8F%99/", "workingTime": ["-", "10:00~20:00", "10:00~20:00", "10:00~20:00", "10:00~20:00", "10:00~20:00", "10:00~18:00", "-"]}, {"name": "\uc624\uba54\ub514\uc57d\uad6d", "lat": "37.5208812623", "lng": "127.1044198373", "url": "/info/%EC%98%A4%EB%A9%94%EB%94%94%EC%95%BD%EA%B5%AD-%EC%84%9C%EC%9A%B8%ED%8A%B9%EB%B3%84%EC%8B%9C-%EC%86%A1%ED%8C%8C%EA%B5%AC-%EC%8B%A0%EC%B2%9C%EB%8F%99/", "workingTime": ["-", "09:00~19:00", "09:00~19:00", "09:00~19:00", "09:00~19:00", "09:00~19:00", "09:00~14:00", "-"]}, {"name": "\uc0bc\uc6d0\uc57d\uad6d", "lat": "37.52075042115179", "lng": "127.10454678463816", "url": "/info/%EC%82%BC%EC%9B%90%EC%95%BD%EA%B5%AD-%EC%84%9C%EC%9A%B8%ED%8A%B9%EB%B3%84%EC%8B%9C-%EC%86%A1%ED%8C%8C%EA%B5%AC-%EC%8B%A0%EC%B2%9C%EB%8F%99/", "workingTime": ["-", "09:00~19:00", "09:00~19:00", "09:00~19:00", "09:00~19:00", "09:00~19:00", "09:00~15:00", "-"]}, {"name": "\ucc38\uc57d\uad6d", "lat": "37.5174835359", "lng": "127.1034468301", "url": "/info/%EC%B0%B8%EC%95%BD%EA%B5%AD-%EC%84%9C%EC%9A%B8%ED%8A%B9%EB%B3%84%EC%8B%9C-%EC%86%A1%ED%8C%8C%EA%B5%AC-%EC%8B%A0%EC%B2%9C%EB%8F%99/", "workingTime": ["-", "09:00~20:00", "09:00~20:00", "09:00~20:00", "09:00~20:00", "09:00~19:00", "09:00~14:00", "-"]}, {"name": "\uba54\ub514\ud31c\uc6b0\uc8fc\uc57d\uad6d", "lat": "37.5203144895", "lng": "127.1132650487", "url": "/info/%EB%A9%94%EB%94%94%ED%8C%9C%EC%9A%B0%EC%A3%BC%EC%95%BD%EA%B5%AD-%EC%84%9C%EC%9A%B8%ED%8A%B9%EB%B3%84%EC%8B%9C-%EC%86%A1%ED%8C%8C%EA%B5%AC-%EC%8B%A0%EC%B2%9C%EB%8F%99/", "workingTime": ["-", "08:30~19:00", "08:30~19:00", "08:30~19:00", "08:30~19:00", "08:30~19:00", "08:30~14:00", "-"]}, {"name": "3\uce35\ud558\ub098\uc57d\uad6d", "lat": "37.51784436682761", "lng": "127.10180539201366", "url": "/info/3%EC%B8%B5%ED%95%98%EB%82%98%EC%95%BD%EA%B5%AD-%EC%84%9C%EC%9A%B8%ED%8A%B9%EB%B3%84%EC%8B%9C-%EC%86%A1%ED%8C%8C%EA%B5%AC-%EC%8B%A0%EC%B2%9C%EB%8F%99/", "workingTime": ["-", "08:30~19:00", "08:30~19:00", "08:30~19:00", "08:30~19:00", "08:30~19:00", "09:00~15:00", "-"]}, {"name": "2\ud638\uc120\uc544\uc0b0\ub098\ub098\uc57d\uad6d", "lat": "37.5206867318088", "lng": "127.103811089444", "url": "/info/2%ED%98%B8%EC%84%A0%EC%95%84%EC%82%B0%EB%82%98%EB%82%98%EC%95%BD%EA%B5%AD-%EC%84%9C%EC%9A%B8%ED%8A%B9%EB%B3%84%EC%8B%9C-%EC%86%A1%ED%8C%8C%EA%B5%AC-%EC%8B%A0%EC%B2%9C%EB%8F%99/", "workingTime": ["-", "08:30~18:30", "08:30~18:30", "08:30~18:30", "08:30~18:30", "08:30~18:30", "-", "-"]}, {"name": "\ub0a8\uc77c\uc628\ub204\ub9ac\uc57d\uad6d", "lat": "37.52032507131131", "lng": "127.11350487956707", "url": "/info/%EB%82%A8%EC%9D%BC%EC%98%A8%EB%88%84%EB%A6%AC%EC%95%BD%EA%B5%AD-%EC%84%9C%EC%9A%B8%ED%8A%B9%EB%B3%84%EC%8B%9C-%EC%86%A1%ED%8C%8C%EA%B5%AC-%EC%8B%A0%EC%B2%9C%EB%8F%99/", "workingTime": ["-", "08:30~18:30", "08:30~18:30", "08:30~18:30", "08:30~21:00", "08:30~18:30", "08:30~14:00", "-"]}, {"name": "\ub098\ub8e8\uc5ed\uc0ac\uac70\ub9ac\ud604\ub300\uc57d\uad6d", "lat": "37.5213592954462", "lng": "127.104971745978", "url": "/info/%EB%82%98%EB%A3%A8%EC%97%AD%EC%82%AC%EA%B1%B0%EB%A6%AC%ED%98%84%EB%8C%80%EC%95%BD%EA%B5%AD-%EC%84%9C%EC%9A%B8%ED%8A%B9%EB%B3%84%EC%8B%9C-%EC%86%A1%ED%8C%8C%EA%B5%AC-%EC%8B%A0%EC%B2%9C%EB%8F%99/", "workingTime": ["-", "09:00~19:00", "09:00~19:00", "09:00~19:00", "09:00~19:00", "09:00~19:00", "-", "-"]}, {"name": "\uad7f\ub370\uc774\uc57d\uad6d", "lat": "37.5157873297768", "lng": "127.099112358834", "url": "/info/%EA%B5%BF%EB%8D%B0%EC%9D%B4%EC%95%BD%EA%B5%AD-%EC%84%9C%EC%9A%B8%ED%8A%B9%EB%B3%84%EC%8B%9C-%EC%86%A1%ED%8C%8C%EA%B5%AC-%EC%8B%A0%EC%B2%9C%EB%8F%99/", "workingTime": ["-", "08:30~19:30", "08:30~19:30", "08:30~19:30", "08:30~19:30", "08:30~19:30", "09:00~15:00", "-"]}, {"name": "\uc628\ub204\ub9ac\uc194\uc57d\uad6d", "lat": "37.51788140382211", "lng": "127.10180492697252", "url": "/info/%EC%98%A8%EB%88%84%EB%A6%AC%EC%86%94%EC%95%BD%EA%B5%AD-%EC%84%9C%EC%9A%B8%ED%8A%B9%EB%B3%84%EC%8B%9C-%EC%86%A1%ED%8C%8C%EA%B5%AC-%EC%8B%A0%EC%B2%9C%EB%8F%99/", "workingTime": ["-", "08:50~19:20", "08:50~19:20", "08:50~19:20", "08:50~19:20", "08:50~19:20", "08:50~16:20", "-"]}, {"name": "\ud55c\uacb0\uc57d\uad6d", "lat": "37.51781554267752", "lng": "127.10179630419731", "url": "/info/%ED%95%9C%EA%B2%B0%EC%95%BD%EA%B5%AD-%EC%84%9C%EC%9A%B8%ED%8A%B9%EB%B3%84%EC%8B%9C-%EC%86%A1%ED%8C%8C%EA%B5%AC-%EC%8B%A0%EC%B2%9C%EB%8F%99/", "workingTime": ["-", "08:30~18:30", "08:30~18:30", "08:30~18:30", "08:30~18:30", "08:30~18:30", "08:30~13:00", "-"]}, {"name": "\uacf5\uac10\uc57d\uad6d", "lat": "37.5138710747422", "lng": "127.106364392884", "url": "/info/%EA%B3%B5%EA%B0%90%EC%95%BD%EA%B5%AD-%EC%84%9C%EC%9A%B8%ED%8A%B9%EB%B3%84%EC%8B%9C-%EC%86%A1%ED%8C%8C%EA%B5%AC-%EC%8B%A0%EC%B2%9C%EB%8F%99/", "workingTime": ["1,2,3,4,5\uc9f8\uc8fc09:00~13:30", "09:00~20:30", "09:00~20:30", "09:00~20:30", "09:00~20:30", "09:00~20:30", "09:00~15:30", "09:00~13:00"]}, {"name": "\uc6d4\ub4dc\uc911\uc559\uc57d\uad6d", "lat": "37.51752754255821", "lng": "127.10142037665366", "url": "/info/%EC%9B%94%EB%93%9C%EC%A4%91%EC%95%99%EC%95%BD%EA%B5%AD-%EC%84%9C%EC%9A%B8%ED%8A%B9%EB%B3%84%EC%8B%9C-%EC%86%A1%ED%8C%8C%EA%B5%AC-%EC%8B%A0%EC%B2%9C%EB%8F%99/", "workingTime": ["1,2,3,4,5\uc9f8\uc8fc10:00~19:00", "10:00~21:00", "10:00~21:00", "10:00~21:00", "10:00~21:00", "10:00~21:00", "10:00~19:00", "10:00~19:00"]}, {"name": "\ucd08\ub85d\uc57d\uad6d", "lat": "37.52087659980469", "lng": "127.10450171005766", "url": "/info/%EC%B4%88%EB%A1%9D%EC%95%BD%EA%B5%AD-%EC%84%9C%EC%9A%B8%ED%8A%B9%EB%B3%84%EC%8B%9C-%EC%86%A1%ED%8C%8C%EA%B5%AC-%EC%8B%A0%EC%B2%9C%EB%8F%99/", "workingTime": ["-", "09:00~19:00", "09:00~19:00", "09:00~19:00", "09:00~19:00", "09:00~19:00", "-", "-"]}, {"name": "\ud30c\ud06c\ub9ac\uc624\uc624\ub80c\uc9c0\uc57d\uad6d", "lat": "37.52095593462494", "lng": "127.10444752135207", "url": "/info/%ED%8C%8C%ED%81%AC%EB%A6%AC%EC%98%A4%EC%98%A4%EB%A0%8C%EC%A7%80%EC%95%BD%EA%B5%AD-%EC%84%9C%EC%9A%B8%ED%8A%B9%EB%B3%84%EC%8B%9C-%EC%86%A1%ED%8C%8C%EA%B5%AC-%EC%8B%A0%EC%B2%9C%EB%8F%99/", "workingTime": ["-", "09:00~19:00", "09:00~19:00", "09:00~19:00", "09:00~19:00", "09:00~19:00", "09:00~15:00", "-"]}, {"name": "\uc7a0\uc2e4\ubbf8\uc18c\uc57d\uad6d", "lat": "37.5162513486", "lng": "127.10300624649999", "url": "/info/%EC%9E%A0%EC%8B%A4%EB%AF%B8%EC%86%8C%EC%95%BD%EA%B5%AD-%EC%84%9C%EC%9A%B8%ED%8A%B9%EB%B3%84%EC%8B%9C-%EC%86%A1%ED%8C%8C%EA%B5%AC-%EC%8B%A0%EC%B2%9C%EB%8F%99/", "workingTime": ["-", "10:00~22:00", "10:00~22:00", "10:00~22:00", "10:00~22:00", "10:00~22:00", "-", "10:00~22:00"]}, {"name": "\uc704\ub4dc\ud31c\uc7a0\uc2e4\ub098\ub8e8\uc5ed\uc57d\uad6d", "lat": "37.5200634444", "lng": "127.1040883876", "url": "/info/%EC%9C%84%EB%93%9C%ED%8C%9C%EC%9E%A0%EC%8B%A4%EB%82%98%EB%A3%A8%EC%97%AD%EC%95%BD%EA%B5%AD-%EC%84%9C%EC%9A%B8%ED%8A%B9%EB%B3%84%EC%8B%9C-%EC%86%A1%ED%8C%8C%EA%B5%AC-%EC%8B%A0%EC%B2%9C%EB%8F%99/", "workingTime": ["-", "09:00~19:00", "09:00~19:00", "09:00~19:00", "09:00~19:00", "09:00~19:00", "-", "-"]}, {"name": "\uc5d0\ubca4\uc5d0\uc140\uc57d\uad6d", "lat": "37.5150936841648", "lng": "127.09971082383923", "url": "/info/%EC%97%90%EB%B2%A4%EC%97%90%EC%85%80%EC%95%BD%EA%B5%AD-%EC%84%9C%EC%9A%B8%ED%8A%B9%EB%B3%84%EC%8B%9C-%EC%86%A1%ED%8C%8C%EA%B5%AC-%EC%8B%A0%EC%B2%9C%EB%8F%99/", "workingTime": ["-", "08:30~19:00", "08:30~19:00", "08:30~19:00", "08:30~19:00", "08:30~19:00", "09:00~16:00", "-"]}, {"name": "\uc0c1\uc77c\uc57d\uad6d", "lat": "37.516336908763826", "lng": "127.10407416238523", "url": "/info/%EC%83%81%EC%9D%BC%EC%95%BD%EA%B5%AD-%EC%84%9C%EC%9A%B8%ED%8A%B9%EB%B3%84%EC%8B%9C-%EC%86%A1%ED%8C%8C%EA%B5%AC-%EC%8B%A0%EC%B2%9C%EB%8F%99/", "workingTime": ["-", "08:30~20:00", "08:30~20:00", "08:30~20:00", "08:30~20:00", "08:30~20:00", "-", "-"]}, {"name": "\uc2dc\uadf8\ub2c8\ucc98\uc57d\uad6d", "lat": "37.51375250260386", "lng": "127.10444609981751", "url": "/info/%EC%8B%9C%EA%B7%B8%EB%8B%88%EC%B2%98%EC%95%BD%EA%B5%AD-%EC%84%9C%EC%9A%B8%ED%8A%B9%EB%B3%84%EC%8B%9C-%EC%86%A1%ED%8C%8C%EA%B5%AC-%EC%8B%A0%EC%B2%9C%EB%8F%99/", "workingTime": ["-", "08:00~20:00", "08:00~20:00", "08:00~20:00", "08:00~20:00", "08:00~20:00", "09:00~19:00", "11:00~19:00"]}, {"name": "\uc0bc\uc131\uc218\uc57d\uad6d", "lat": "37.51657725057876", "lng": "127.101224008613", "url": "/info/%EC%82%BC%EC%84%B1%EC%88%98%EC%95%BD%EA%B5%AD-%EC%84%9C%EC%9A%B8%ED%8A%B9%EB%B3%84%EC%8B%9C-%EC%86%A1%ED%8C%8C%EA%B5%AC-%EC%8B%A0%EC%B2%9C%EB%8F%99/", "workingTime": ["-", "08:30~19:30", "08:30~19:30", "08:30~19:30", "08:30~19:30", "08:30~19:30", "09:00~14:00", "-"]}, {"name": "\uc54c\ud30c\uc57d\uad6d", "lat": "37.5146152773177", "lng": "127.102522142353", "url": "/info/%EC%95%8C%ED%8C%8C%EC%95%BD%EA%B5%AD-%EC%84%9C%EC%9A%B8%ED%8A%B9%EB%B3%84%EC%8B%9C-%EC%86%A1%ED%8C%8C%EA%B5%AC-%EC%8B%A0%EC%B2%9C%EB%8F%99/", "workingTime": ["-", "09:00~20:30", "09:00~20:30", "09:00~20:30", "09:00~20:30", "09:00~20:30", "09:30~16:00", "-"]}, {"name": "\uc9c0\ub2c8\uc57d\uad6d", "lat": "37.5149771693164", "lng": "127.10421637903", "url": "/info/%EC%A7%80%EB%8B%88%EC%95%BD%EA%B5%AD-%EC%84%9C%EC%9A%B8%ED%8A%B9%EB%B3%84%EC%8B%9C-%EC%86%A1%ED%8C%8C%EA%B5%AC-%EC%8B%A0%EC%B2%9C%EB%8F%99/", "workingTime": ["1,2,3,4,5\uc9f8\uc8fc09:00~22:00", "09:00~22:00", "09:00~22:00", "09:00~22:00", "09:00~22:00", "09:00~22:00", "09:00~22:00", "09:00~22:00"]}, {"name": "\uc27c\ud45c\uc57d\uad6d", "lat": "37.513859279255", "lng": "127.101857941447", "url": "/info/%EC%89%BC%ED%91%9C%EC%95%BD%EA%B5%AD-%EC%84%9C%EC%9A%B8%ED%8A%B9%EB%B3%84%EC%8B%9C-%EC%86%A1%ED%8C%8C%EA%B5%AC-%EC%8B%A0%EC%B2%9C%EB%8F%99/", "workingTime": ["1,2,3,4,5\uc9f8\uc8fc07:00~23:00", "07:00~23:00", "07:00~23:00", "07:00~23:00", "07:00~23:00", "07:00~23:00", "07:00~23:00", "07:00~23:00"]}, {"name": "\uc2a4\ud0c0\uc57d\uad6d", "lat": "37.5153245163", "lng": "127.0995030036", "url": "/info/%EC%8A%A4%ED%83%80%EC%95%BD%EA%B5%AD-%EC%84%9C%EC%9A%B8%ED%8A%B9%EB%B3%84%EC%8B%9C-%EC%86%A1%ED%8C%8C%EA%B5%AC-%EC%8B%A0%EC%B2%9C%EB%8F%99/", "workingTime": ["-", "08:30~20:00", "08:30~20:00", "08:30~20:00", "08:30~20:00", "08:30~20:00", "08:30~16:00", "-"]}, {"name": "\uc1a1\ud30c\ubbf8\uc18c\uc57d\uad6d", "lat": "37.5203144895", "lng": "127.1132650487", "url": "/info/%EC%86%A1%ED%8C%8C%EB%AF%B8%EC%86%8C%EC%95%BD%EA%B5%AD-%EC%84%9C%EC%9A%B8%ED%8A%B9%EB%B3%84%EC%8B%9C-%EC%86%A1%ED%8C%8C%EA%B5%AC-%EC%8B%A0%EC%B2%9C%EB%8F%99/", "workingTime": ["-", "08:40~20:00", "08:40~20:00", "08:40~20:00", "08:40~20:00", "08:40~20:00", "08:40~15:00", "-"]}]