[{"name": "\ub4dc\ub9bc\uc57d\uad6d", "lat": "37.5245996466", "lng": "126.8692798146", "url": "/info/%EB%93%9C%EB%A6%BC%EC%95%BD%EA%B5%AD-%EC%84%9C%EC%9A%B8%ED%8A%B9%EB%B3%84%EC%8B%9C-%EC%96%91%EC%B2%9C%EA%B5%AC-%EB%AA%A9%EB%8F%99/", "workingTime": ["-", "09:00~19:00", "09:00~19:00", "09:00~19:00", "09:00~19:00", "09:00~19:00", "09:00~16:00", "-"]}, {"name": "\ub098\ub098\uc57d\uad6d", "lat": "37.5158920877714", "lng": "126.861530100802", "url": "/info/%EB%82%98%EB%82%98%EC%95%BD%EA%B5%AD-%EC%84%9C%EC%9A%B8%ED%8A%B9%EB%B3%84%EC%8B%9C-%EC%96%91%EC%B2%9C%EA%B5%AC-%EB%AA%A9%EB%8F%99/", "workingTime": ["-", "08:30~20:30", "08:30~20:30", "08:30~20:30", "08:30~20:30", "08:30~20:30", "08:30~14:00", "-"]}, {"name": "\uc77c\ub4f1\uc57d\uad6d", "lat": "37.5484817493435", "lng": "126.866159640554", "url": "/info/%EC%9D%BC%EB%93%B1%EC%95%BD%EA%B5%AD-%EC%84%9C%EC%9A%B8%ED%8A%B9%EB%B3%84%EC%8B%9C-%EC%96%91%EC%B2%9C%EA%B5%AC-%EB%AA%A9%EB%8F%99/", "workingTime": ["-", "09:00~19:00", "09:00~19:00", "09:00~19:00", "09:00~19:00", "09:00~19:00", "09:00~14:00", "-"]}, {"name": "\ubd04\ubd04\uc57d\uad6d", "lat": "37.5258249034772", "lng": "126.86877855363801", "url": "/info/%EB%B4%84%EB%B4%84%EC%95%BD%EA%B5%AD-%EC%84%9C%EC%9A%B8%ED%8A%B9%EB%B3%84%EC%8B%9C-%EC%96%91%EC%B2%9C%EA%B5%AC-%EB%AA%A9%EB%8F%99/", "workingTime": ["-", "09:30~20:00", "09:30~20:00", "09:30~20:00", "13:00~20:00", "09:30~20:00", "09:30~20:00", "-"]}, {"name": "\ubaa9\ub3d9\ud55c\ubbf8\uc57d\uad6d", "lat": "37.50823208503446", "lng": "126.86454000331247", "url": "/info/%EB%AA%A9%EB%8F%99%ED%95%9C%EB%AF%B8%EC%95%BD%EA%B5%AD-%EC%84%9C%EC%9A%B8%ED%8A%B9%EB%B3%84%EC%8B%9C-%EC%96%91%EC%B2%9C%EA%B5%AC-%EB%AA%A9%EB%8F%99/", "workingTime": ["1,2,3,4,5\uc9f8\uc8fc09:00~20:00", "08:00~21:00", "08:00~21:00", "08:00~21:00", "08:00~21:00", "08:00~21:00", "08:00~21:00", "09:00~20:00"]}, {"name": "\uc608\uc8fc\uc57d\uad6d", "lat": "37.536394639717436", "lng": "126.8785597259261", "url": "/info/%EC%98%88%EC%A3%BC%EC%95%BD%EA%B5%AD-%EC%84%9C%EC%9A%B8%ED%8A%B9%EB%B3%84%EC%8B%9C-%EC%96%91%EC%B2%9C%EA%B5%AC-%EB%AA%A9%EB%8F%99/", "workingTime": ["-", "09:00~19:00", "09:00~19:00", "09:00~19:00", "09:00~19:00", "09:00~19:00", "09:00~15:00", "-"]}, {"name": "\uc2e0\ubaa9\uc57d\uad6d", "lat": "37.53704269158086", "lng": "126.87158635114254", "url": "/info/%EC%8B%A0%EB%AA%A9%EC%95%BD%EA%B5%AD-%EC%84%9C%EC%9A%B8%ED%8A%B9%EB%B3%84%EC%8B%9C-%EC%96%91%EC%B2%9C%EA%B5%AC-%EB%AA%A9%EB%8F%99/", "workingTime": ["-", "09:00~19:00", "09:00~19:00", "09:00~19:00", "09:00~19:00", "09:00~19:00", "09:00~15:00", "-"]}, {"name": "\uc2e0\uad6d\uacbd\uc57d\uad6d", "lat": "37.54568477752976", "lng": "126.87084985663618", "url": "/info/%EC%8B%A0%EA%B5%AD%EA%B2%BD%EC%95%BD%EA%B5%AD-%EC%84%9C%EC%9A%B8%ED%8A%B9%EB%B3%84%EC%8B%9C-%EC%96%91%EC%B2%9C%EA%B5%AC-%EB%AA%A9%EB%8F%99/", "workingTime": ["1,2,3,4,5\uc9f8\uc8fc11:00~14:00", "09:00~19:30", "09:00~19:30", "09:00~19:30", "09:00~19:30", "09:00~19:30", "09:00~14:30", "09:00~12:00"]}, {"name": "\ud64d\uc77c\ud0dc\ud3c9\uc591\uc57d\uad6d", "lat": "37.52905093617372", "lng": "126.86368546620567", "url": "/info/%ED%99%8D%EC%9D%BC%ED%83%9C%ED%8F%89%EC%96%91%EC%95%BD%EA%B5%AD-%EC%84%9C%EC%9A%B8%ED%8A%B9%EB%B3%84%EC%8B%9C-%EC%96%91%EC%B2%9C%EA%B5%AC-%EB%AA%A9%EB%8F%99/", "workingTime": ["1,2,3,4,5\uc9f8\uc8fc10:00~19:00", "08:30~20:00", "08:30~20:00", "08:30~20:00", "08:30~20:00", "08:30~20:00", "08:30~20:00", "08:30~18:00"]}, {"name": "\ud64d\uc775\ud6c4\ubb38\uc57d\uad6d", "lat": "37.53202940051699", "lng": "126.86456936361904", "url": "/info/%ED%99%8D%EC%9D%B5%ED%9B%84%EB%AC%B8%EC%95%BD%EA%B5%AD-%EC%84%9C%EC%9A%B8%ED%8A%B9%EB%B3%84%EC%8B%9C-%EC%96%91%EC%B2%9C%EA%B5%AC-%EB%AA%A9%EB%8F%99/", "workingTime": ["-", "09:00~18:00", "09:00~18:00", "09:00~18:00", "09:00~18:00", "09:00~18:00", "09:00~13:30", "-"]}, {"name": "\uc2a4\ub9c8\ud2b8\uc57d\uad6d", "lat": "37.5189418545223", "lng": "126.870471203827", "url": "/info/%EC%8A%A4%EB%A7%88%ED%8A%B8%EC%95%BD%EA%B5%AD-%EC%84%9C%EC%9A%B8%ED%8A%B9%EB%B3%84%EC%8B%9C-%EC%96%91%EC%B2%9C%EA%B5%AC-%EB%AA%A9%EB%8F%99/", "workingTime": ["-", "09:00~19:00", "09:00~19:00", "09:00~19:00", "09:00~19:00", "09:00~19:00", "09:00~14:00", "-"]}, {"name": "\ud589\ubcf5\ud55c\uc628\ub204\ub9ac\uc57d\uad6d", "lat": "37.516907525295345", "lng": "126.87150804669122", "url": "/info/%ED%96%89%EB%B3%B5%ED%95%9C%EC%98%A8%EB%88%84%EB%A6%AC%EC%95%BD%EA%B5%AD-%EC%84%9C%EC%9A%B8%ED%8A%B9%EB%B3%84%EC%8B%9C-%EC%96%91%EC%B2%9C%EA%B5%AC-%EB%AA%A9%EB%8F%99/", "workingTime": ["-", "09:00~20:00", "09:00~19:00", "09:00~20:00", "09:00~19:00", "09:00~19:00", "09:00~16:30", "-"]}, {"name": "\ub9e4\uc77c\uc5ec\ub294\uc57d\uad6d", "lat": "37.52748536314733", "lng": "126.87156907636813", "url": "/info/%EB%A7%A4%EC%9D%BC%EC%97%AC%EB%8A%94%EC%95%BD%EA%B5%AD-%EC%84%9C%EC%9A%B8%ED%8A%B9%EB%B3%84%EC%8B%9C-%EC%96%91%EC%B2%9C%EA%B5%AC-%EB%AA%A9%EB%8F%99/", "workingTime": ["09:00~24:00(\uc5f0\ub77d\ud6c4\ubc29\ubb38\uc694\ub9dd)", "09:00~24:00", "09:00~24:00", "09:00~24:00", "09:00~24:00", "09:00~24:00", "09:00~24:00", "09:00~24:00"]}, {"name": "\uc6d4\ub4dc\uc57d\uad6d", "lat": "37.53600485794545", "lng": "126.87802631878031", "url": "/info/%EC%9B%94%EB%93%9C%EC%95%BD%EA%B5%AD-%EC%84%9C%EC%9A%B8%ED%8A%B9%EB%B3%84%EC%8B%9C-%EC%96%91%EC%B2%9C%EA%B5%AC-%EB%AA%A9%EB%8F%99/", "workingTime": ["-", "09:00~21:00", "09:00~21:00", "09:00~21:00", "09:00~21:00", "09:00~21:00", "09:00~21:00", "-"]}, {"name": "\uba54\ub514\ud31c\uae08\ube5b\uc57d\uad6d", "lat": "37.53560517116819", "lng": "126.87875754618413", "url": "/info/%EB%A9%94%EB%94%94%ED%8C%9C%EA%B8%88%EB%B9%9B%EC%95%BD%EA%B5%AD-%EC%84%9C%EC%9A%B8%ED%8A%B9%EB%B3%84%EC%8B%9C-%EC%96%91%EC%B2%9C%EA%B5%AC-%EB%AA%A9%EB%8F%99/", "workingTime": ["-", "09:00~20:00", "09:00~20:00", "09:00~20:00", "09:00~20:00", "09:00~20:00", "09:00~16:00", "-"]}, {"name": "\ud31c\ucf54\ub9ac\uc544\uc57d\uad6d", "lat": "37.532288336524225", "lng": "126.86409373524316", "url": "/info/%ED%8C%9C%EC%BD%94%EB%A6%AC%EC%95%84%EC%95%BD%EA%B5%AD-%EC%84%9C%EC%9A%B8%ED%8A%B9%EB%B3%84%EC%8B%9C-%EC%96%91%EC%B2%9C%EA%B5%AC-%EB%AA%A9%EB%8F%99/", "workingTime": ["-", "09:00~21:30", "09:00~21:30", "09:00~21:30", "09:00~21:30", "09:00~21:30", "09:00~20:00", "-"]}, {"name": "\ud587\uc0b4\uc57d\uad6d", "lat": "37.53602534911394", "lng": "126.87019670484835", "url": "/info/%ED%96%87%EC%82%B4%EC%95%BD%EA%B5%AD-%EC%84%9C%EC%9A%B8%ED%8A%B9%EB%B3%84%EC%8B%9C-%EC%96%91%EC%B2%9C%EA%B5%AC-%EB%AA%A9%EB%8F%99/", "workingTime": ["-", "09:00~20:00", "09:00~20:00", "09:00~20:00", "09:00~20:00", "09:00~20:00", "08:00~18:00", "-"]}, {"name": "\ud587\uc0b4\uc560\uc57d\uad6d", "lat": "37.546296570835835", "lng": "126.87387420001772", "url": "/info/%ED%96%87%EC%82%B4%EC%95%A0%EC%95%BD%EA%B5%AD-%EC%84%9C%EC%9A%B8%ED%8A%B9%EB%B3%84%EC%8B%9C-%EC%96%91%EC%B2%9C%EA%B5%AC-%EB%AA%A9%EB%8F%99/", "workingTime": ["-", "08:40~20:00", "08:40~20:00", "08:40~20:00", "08:40~20:00", "08:40~20:00", "08:40~16:00", "-"]}, {"name": "\ud574\ub4e0\uc774\ud654\uc57d\uad6d", "lat": "37.537359278133614", "lng": "126.88485545120471", "url": "/info/%ED%95%B4%EB%93%A0%EC%9D%B4%ED%99%94%EC%95%BD%EA%B5%AD-%EC%84%9C%EC%9A%B8%ED%8A%B9%EB%B3%84%EC%8B%9C-%EC%96%91%EC%B2%9C%EA%B5%AC-%EB%AA%A9%EB%8F%99/", "workingTime": ["-", "08:00~19:00", "08:00~19:00", "08:00~19:00", "08:00~19:00", "08:00~19:00", "08:30~14:00", "-"]}, {"name": "\ud574\ub4e0\uc544\uce68\uc57d\uad6d", "lat": "37.52819266238564", "lng": "126.87579902475926", "url": "/info/%ED%95%B4%EB%93%A0%EC%95%84%EC%B9%A8%EC%95%BD%EA%B5%AD-%EC%84%9C%EC%9A%B8%ED%8A%B9%EB%B3%84%EC%8B%9C-%EC%96%91%EC%B2%9C%EA%B5%AC-%EB%AA%A9%EB%8F%99/", "workingTime": ["-", "09:00~20:30", "09:00~20:30", "09:00~20:30", "09:00~20:30", "09:00~20:30", "09:00~18:30", "-"]}, {"name": "\ud55c\uc194\uc57d\uad6d", "lat": "37.51531140640089", "lng": "126.86231924996946", "url": "/info/%ED%95%9C%EC%86%94%EC%95%BD%EA%B5%AD-%EC%84%9C%EC%9A%B8%ED%8A%B9%EB%B3%84%EC%8B%9C-%EC%96%91%EC%B2%9C%EA%B5%AC-%EB%AA%A9%EB%8F%99/", "workingTime": ["-", "09:00~19:30", "09:00~19:30", "09:00~19:30", "09:00~19:30", "09:00~19:30", "09:00~16:30", "-"]}, {"name": "\ud55c\uc131\uc57d\uad6d", "lat": "37.52639560942718", "lng": "126.86393699482306", "url": "/info/%ED%95%9C%EC%84%B1%EC%95%BD%EA%B5%AD-%EC%84%9C%EC%9A%B8%ED%8A%B9%EB%B3%84%EC%8B%9C-%EC%96%91%EC%B2%9C%EA%B5%AC-%EB%AA%A9%EB%8F%99/", "workingTime": ["-", "09:00~19:00", "09:00~19:00", "09:00~19:00", "09:00~19:00", "09:00~19:00", "09:00~16:00", "-"]}, {"name": "\ud55c\uacb0\uc57d\uad6d", "lat": "37.5237518388", "lng": "126.875141189", "url": "/info/%ED%95%9C%EA%B2%B0%EC%95%BD%EA%B5%AD-%EC%84%9C%EC%9A%B8%ED%8A%B9%EB%B3%84%EC%8B%9C-%EC%96%91%EC%B2%9C%EA%B5%AC-%EB%AA%A9%EB%8F%99/", "workingTime": ["1,2,3,4,5\uc9f8\uc8fc08:00~19:00", "08:00~22:00", "08:00~22:00", "08:00~22:00", "08:00~22:00", "08:00~22:00", "08:00~19:00", "08:00~19:00"]}, {"name": "\ud558\ub8e8\uc57d\uad6d", "lat": "37.5328851583631", "lng": "126.864166285292", "url": "/info/%ED%95%98%EB%A3%A8%EC%95%BD%EA%B5%AD-%EC%84%9C%EC%9A%B8%ED%8A%B9%EB%B3%84%EC%8B%9C-%EC%96%91%EC%B2%9C%EA%B5%AC-%EB%AA%A9%EB%8F%99/", "workingTime": ["-", "09:00~18:00", "09:00~18:00", "09:00~18:00", "09:00~18:00", "09:00~18:00", "-", "-"]}, {"name": "\uc62c\ub9ac\ube0c\uc57d\uad6d", "lat": "37.5500824636807", "lng": "126.864188157127", "url": "/info/%EC%98%AC%EB%A6%AC%EB%B8%8C%EC%95%BD%EA%B5%AD-%EC%84%9C%EC%9A%B8%ED%8A%B9%EB%B3%84%EC%8B%9C-%EC%96%91%EC%B2%9C%EA%B5%AC-%EB%AA%A9%EB%8F%99/", "workingTime": ["-", "09:00~20:00", "09:00~20:00", "09:00~20:00", "09:00~20:00", "09:00~20:00", "09:00~15:00", "-"]}, {"name": "\ub354\uc120\uc57d\uad6d", "lat": "37.5465358791", "lng": "126.8747139275", "url": "/info/%EB%8D%94%EC%84%A0%EC%95%BD%EA%B5%AD-%EC%84%9C%EC%9A%B8%ED%8A%B9%EB%B3%84%EC%8B%9C-%EC%96%91%EC%B2%9C%EA%B5%AC-%EB%AA%A9%EB%8F%99/", "workingTime": ["-", "09:00~21:00", "09:00~19:00", "09:00~19:00", "09:00~21:00", "09:00~19:00", "09:00~15:00", "-"]}, {"name": "\uc628\ub204\ub9ac\uc720\ubbf8\uc219\uc57d\uad6d", "lat": "37.524986223935876", "lng": "126.86417712488856", "url": "/info/%EC%98%A8%EB%88%84%EB%A6%AC%EC%9C%A0%EB%AF%B8%EC%88%99%EC%95%BD%EA%B5%AD-%EC%84%9C%EC%9A%B8%ED%8A%B9%EB%B3%84%EC%8B%9C-%EC%96%91%EC%B2%9C%EA%B5%AC-%EB%AA%A9%EB%8F%99/", "workingTime": ["-", "09:30~21:00", "09:30~21:00", "09:30~21:00", "09:30~21:00", "09:30~21:00", "09:30~18:00", "-"]}, {"name": "\ud31c\uc2a4\ud1a0\ub9ac\uc57d\uad6d", "lat": "37.53024429849523", "lng": "126.87330210261256", "url": "/info/%ED%8C%9C%EC%8A%A4%ED%86%A0%EB%A6%AC%EC%95%BD%EA%B5%AD-%EC%84%9C%EC%9A%B8%ED%8A%B9%EB%B3%84%EC%8B%9C-%EC%96%91%EC%B2%9C%EA%B5%AC-%EB%AA%A9%EB%8F%99/", "workingTime": ["1,3,5\uc9f8\uc8fc10:00~22:00", "10:00~22:00", "10:00~22:00", "10:00~22:00", "10:00~22:00", "10:00~22:00", "10:00~22:00", "10:00~22:00"]}, {"name": "\ucc3d\ub300\uc628\ub204\ub9ac\uc57d\uad6d", "lat": "37.5485796313171", "lng": "126.86516410534003", "url": "/info/%EC%B0%BD%EB%8C%80%EC%98%A8%EB%88%84%EB%A6%AC%EC%95%BD%EA%B5%AD-%EC%84%9C%EC%9A%B8%ED%8A%B9%EB%B3%84%EC%8B%9C-%EC%96%91%EC%B2%9C%EA%B5%AC-%EB%AA%A9%EB%8F%99/", "workingTime": ["1,2,3,4,5\uc9f8\uc8fc10:30~22:00", "09:00~22:00", "09:00~22:00", "09:00~22:00", "09:00~22:00", "09:00~22:00", "09:00~22:00", "-"]}, {"name": "\uc885\ub85c\ud504\ub77c\uc790\uc57d\uad6d", "lat": "37.528463002942274", "lng": "126.86327022374158", "url": "/info/%EC%A2%85%EB%A1%9C%ED%94%84%EB%9D%BC%EC%9E%90%EC%95%BD%EA%B5%AD-%EC%84%9C%EC%9A%B8%ED%8A%B9%EB%B3%84%EC%8B%9C-%EC%96%91%EC%B2%9C%EA%B5%AC-%EB%AA%A9%EB%8F%99/", "workingTime": ["-", "09:00~18:15", "09:00~17:30", "09:00~17:30", "09:00~17:30", "09:00~17:30", "09:00~13:15", "-"]}, {"name": "\ubcf4\ub78c\uc57d\uad6d", "lat": "37.54441221765176", "lng": "126.87053523408713", "url": "/info/%EB%B3%B4%EB%9E%8C%EC%95%BD%EA%B5%AD-%EC%84%9C%EC%9A%B8%ED%8A%B9%EB%B3%84%EC%8B%9C-%EC%96%91%EC%B2%9C%EA%B5%AC-%EB%AA%A9%EB%8F%99/", "workingTime": ["-", "08:00~21:00", "08:00~21:00", "08:00~21:00", "08:00~21:00", "08:00~21:00", "08:00~20:00", "09:00~18:00"]}, {"name": "\ubbff\uc74c\uc57d\uad6d", "lat": "37.5497281786642", "lng": "126.864177143999", "url": "/info/%EB%AF%BF%EC%9D%8C%EC%95%BD%EA%B5%AD-%EC%84%9C%EC%9A%B8%ED%8A%B9%EB%B3%84%EC%8B%9C-%EC%96%91%EC%B2%9C%EA%B5%AC-%EB%AA%A9%EB%8F%99/", "workingTime": ["-", "09:00~19:30", "09:00~19:30", "09:00~19:30", "09:00~19:30", "09:00~19:30", "09:30~15:30", "09:30~19:00"]}, {"name": "\uc1a1\uc57d\uad6d", "lat": "37.5251089396", "lng": "126.8736275447", "url": "/info/%EC%86%A1%EC%95%BD%EA%B5%AD-%EC%84%9C%EC%9A%B8%ED%8A%B9%EB%B3%84%EC%8B%9C-%EC%96%91%EC%B2%9C%EA%B5%AC-%EB%AA%A9%EB%8F%99/", "workingTime": ["1,2,3,4,5\uc9f8\uc8fc13:00~21:30", "09:00~21:30", "09:00~21:30", "09:00~21:30", "09:00~21:30", "09:00~21:30", "09:00~21:30", "13:00~21:30"]}, {"name": "\ubaa9\ub3d9\ud589\ubcf5\ud55c\uc57d\uad6d", "lat": "37.5291435349019", "lng": "126.876008647904", "url": "/info/%EB%AA%A9%EB%8F%99%ED%96%89%EB%B3%B5%ED%95%9C%EC%95%BD%EA%B5%AD-%EC%84%9C%EC%9A%B8%ED%8A%B9%EB%B3%84%EC%8B%9C-%EC%96%91%EC%B2%9C%EA%B5%AC-%EB%AA%A9%EB%8F%99/", "workingTime": ["1,3,5\uc9f8\uc8fc10:00~21:30", "10:00~21:30", "10:00~21:30", "10:00~21:30", "10:00~21:30", "10:00~21:30", "10:00~21:30", "10:00~21:30"]}, {"name": "\ubaa9\ub3d9\ud30c\ub77c\uace4\uc57d\uad6d", "lat": "37.5299956155624", "lng": "126.875071951863", "url": "/info/%EB%AA%A9%EB%8F%99%ED%8C%8C%EB%9D%BC%EA%B3%A4%EC%95%BD%EA%B5%AD-%EC%84%9C%EC%9A%B8%ED%8A%B9%EB%B3%84%EC%8B%9C-%EC%96%91%EC%B2%9C%EA%B5%AC-%EB%AA%A9%EB%8F%99/", "workingTime": ["-", "08:30~19:00", "08:30~19:00", "08:30~19:00", "08:30~19:00", "08:30~19:00", "-", "-"]}, {"name": "\ubaa9\ub3d9\uc990\uac70\uc6b4\uc57d\uad6d", "lat": "37.527253404283684", "lng": "126.864417328972", "url": "/info/%EB%AA%A9%EB%8F%99%EC%A6%90%EA%B1%B0%EC%9A%B4%EC%95%BD%EA%B5%AD-%EC%84%9C%EC%9A%B8%ED%8A%B9%EB%B3%84%EC%8B%9C-%EC%96%91%EC%B2%9C%EA%B5%AC-%EB%AA%A9%EB%8F%99/", "workingTime": ["-", "09:30~20:00", "09:30~20:00", "09:30~20:00", "09:30~20:00", "09:30~20:00", "09:30~16:00", "-"]}, {"name": "\uc18c\ub9dd\uc57d\uad6d", "lat": "37.52457488146538", "lng": "126.87301305719015", "url": "/info/%EC%86%8C%EB%A7%9D%EC%95%BD%EA%B5%AD-%EC%84%9C%EC%9A%B8%ED%8A%B9%EB%B3%84%EC%8B%9C-%EC%96%91%EC%B2%9C%EA%B5%AC-%EB%AA%A9%EB%8F%99/", "workingTime": ["-", "09:30~21:00", "09:30~21:00", "09:30~21:00", "09:30~21:00", "09:30~21:00", "09:30~19:00", "-"]}, {"name": "\uac00\uae4c\uc6b4\uc628\ub204\ub9ac\uc57d\uad6d", "lat": "37.51753079567624", "lng": "126.86521787367428", "url": "/info/%EA%B0%80%EA%B9%8C%EC%9A%B4%EC%98%A8%EB%88%84%EB%A6%AC%EC%95%BD%EA%B5%AD-%EC%84%9C%EC%9A%B8%ED%8A%B9%EB%B3%84%EC%8B%9C-%EC%96%91%EC%B2%9C%EA%B5%AC-%EB%AA%A9%EB%8F%99/", "workingTime": ["1,2,3,4,5\uc9f8\uc8fc13:00~21:00", "09:00~21:00", "09:00~21:00", "09:00~21:00", "09:00~21:00", "09:00~21:00", "09:00~21:00", "13:00~21:00"]}, {"name": "\uc131\uc2ec\uc57d\uad6d", "lat": "37.54625347326777", "lng": "126.87739576507015", "url": "/info/%EC%84%B1%EC%8B%AC%EC%95%BD%EA%B5%AD-%EC%84%9C%EC%9A%B8%ED%8A%B9%EB%B3%84%EC%8B%9C-%EC%96%91%EC%B2%9C%EA%B5%AC-%EB%AA%A9%EB%8F%99/", "workingTime": ["-", "09:00~21:00", "09:00~21:00", "09:00~21:00", "09:00~21:00", "09:00~21:00", "09:00~20:00", "10:00~18:00"]}, {"name": "\uc11c\uac15\uc57d\uad6d", "lat": "37.546625955479776", "lng": "126.87187298677844", "url": "/info/%EC%84%9C%EA%B0%95%EC%95%BD%EA%B5%AD-%EC%84%9C%EC%9A%B8%ED%8A%B9%EB%B3%84%EC%8B%9C-%EC%96%91%EC%B2%9C%EA%B5%AC-%EB%AA%A9%EB%8F%99/", "workingTime": ["-", "09:00~21:00", "09:00~21:00", "09:00~21:00", "09:00~21:00", "09:00~21:00", "09:00~20:00", "-"]}, {"name": "\uc0c8\ubd04\uc57d\uad6d", "lat": "37.5465746024369", "lng": "126.870684126526", "url": "/info/%EC%83%88%EB%B4%84%EC%95%BD%EA%B5%AD-%EC%84%9C%EC%9A%B8%ED%8A%B9%EB%B3%84%EC%8B%9C-%EC%96%91%EC%B2%9C%EA%B5%AC-%EB%AA%A9%EB%8F%99/", "workingTime": ["-", "09:00~20:00", "09:00~20:00", "09:00~20:00", "09:00~20:00", "09:00~20:00", "09:00~15:00", "-"]}, {"name": "\uc0c8\ubaa9\ub3d9\uc57d\uad6d", "lat": "37.537479004475756", "lng": "126.88167172841996", "url": "/info/%EC%83%88%EB%AA%A9%EB%8F%99%EC%95%BD%EA%B5%AD-%EC%84%9C%EC%9A%B8%ED%8A%B9%EB%B3%84%EC%8B%9C-%EC%96%91%EC%B2%9C%EA%B5%AC-%EB%AA%A9%EB%8F%99/", "workingTime": ["-", "09:00~20:00", "09:00~20:00", "09:00~20:00", "09:00~20:00", "09:00~20:00", "09:00~16:00", "-"]}, {"name": "\ub098\ub214\uc57d\uad6d", "lat": "37.5376385452", "lng": "126.8722214914", "url": "/info/%EB%82%98%EB%88%94%EC%95%BD%EA%B5%AD-%EC%84%9C%EC%9A%B8%ED%8A%B9%EB%B3%84%EC%8B%9C-%EC%96%91%EC%B2%9C%EA%B5%AC-%EB%AA%A9%EB%8F%99/", "workingTime": ["-", "09:30~20:00", "09:30~20:00", "09:30~20:00", "09:30~20:00", "09:30~20:00", "09:30~16:00", "-"]}, {"name": "\uad6c\ub8e1\uc57d\uad6d", "lat": "37.518682314985874", "lng": "126.86065038494476", "url": "/info/%EA%B5%AC%EB%A3%A1%EC%95%BD%EA%B5%AD-%EC%84%9C%EC%9A%B8%ED%8A%B9%EB%B3%84%EC%8B%9C-%EC%96%91%EC%B2%9C%EA%B5%AC-%EB%AA%A9%EB%8F%99/", "workingTime": ["1,2,3,4,5\uc9f8\uc8fc09:30~13:30", "09:00~19:00", "09:00~19:00", "09:00~19:00", "09:00~19:00", "09:00~19:00", "09:00~16:00", "09:30~13:30"]}, {"name": "\uacbd\ub0a8\uc57d\uad6d", "lat": "37.53792144078449", "lng": "126.88120675207287", "url": "/info/%EA%B2%BD%EB%82%A8%EC%95%BD%EA%B5%AD-%EC%84%9C%EC%9A%B8%ED%8A%B9%EB%B3%84%EC%8B%9C-%EC%96%91%EC%B2%9C%EA%B5%AC-%EB%AA%A9%EB%8F%99/", "workingTime": ["-", "09:00~21:30", "09:00~21:30", "09:00~21:30", "09:00~21:30", "09:00~21:30", "09:00~21:30", "-"]}, {"name": "365 \uc0c8\ub204\ub9ac\uc57d\uad6d", "lat": "37.53288668863586", "lng": "126.86416503798519", "url": "/info/365+%EC%83%88%EB%88%84%EB%A6%AC%EC%95%BD%EA%B5%AD-%EC%84%9C%EC%9A%B8%ED%8A%B9%EB%B3%84%EC%8B%9C-%EC%96%91%EC%B2%9C%EA%B5%AC-%EB%AA%A9%EB%8F%99/", "workingTime": ["1,2,3,4,5\uc9f8\uc8fc12:00~21:00", "08:00~21:00", "08:00~21:00", "08:00~21:00", "08:00~21:00", "08:00~21:00", "08:00~19:00", "12:00~21:00"]}, {"name": "\uc6b0\ub9ac\ub4e4\uc57d\uad6d", "lat": "37.543889798039515", "lng": "126.87068097693316", "url": "/info/%EC%9A%B0%EB%A6%AC%EB%93%A4%EC%95%BD%EA%B5%AD-%EC%84%9C%EC%9A%B8%ED%8A%B9%EB%B3%84%EC%8B%9C-%EC%96%91%EC%B2%9C%EA%B5%AC-%EB%AA%A9%EB%8F%99/", "workingTime": ["-", "08:00~21:00", "08:00~21:00", "08:00~21:00", "08:00~21:00", "08:00~21:00", "08:00~20:00", "-"]}, {"name": "\uc81c\uc77c\uc57d\uad6d", "lat": "37.539426147037524", "lng": "126.86574633521141", "url": "/info/%EC%A0%9C%EC%9D%BC%EC%95%BD%EA%B5%AD-%EC%84%9C%EC%9A%B8%ED%8A%B9%EB%B3%84%EC%8B%9C-%EC%96%91%EC%B2%9C%EA%B5%AC-%EB%AA%A9%EB%8F%99/", "workingTime": ["-", "09:00~20:00", "09:00~20:00", "09:00~20:00", "09:00~20:00", "09:00~20:00", "09:00~18:00", "-"]}, {"name": "\uc790\uc5f0\uc57d\uad6d", "lat": "37.5235884341471", "lng": "126.875774509668", "url": "/info/%EC%9E%90%EC%97%B0%EC%95%BD%EA%B5%AD-%EC%84%9C%EC%9A%B8%ED%8A%B9%EB%B3%84%EC%8B%9C-%EC%96%91%EC%B2%9C%EA%B5%AC-%EB%AA%A9%EB%8F%99/", "workingTime": ["1,2,3,4,5\uc9f8\uc8fc11:00~22:00", "08:30~22:00", "08:30~22:00", "08:30~22:00", "11:00~22:00", "08:30~22:00", "09:30~22:00", "-"]}, {"name": "\uc815\ubb38\uc57d\uad6d", "lat": "37.5365585915399", "lng": "126.867466277108", "url": "/info/%EC%A0%95%EB%AC%B8%EC%95%BD%EA%B5%AD-%EC%84%9C%EC%9A%B8%ED%8A%B9%EB%B3%84%EC%8B%9C-%EC%96%91%EC%B2%9C%EA%B5%AC-%EB%AA%A9%EB%8F%99/", "workingTime": ["-", "09:00~20:00", "09:00~20:00", "09:00~20:00", "09:00~20:00", "09:00~20:00", "09:00~17:00", "-"]}, {"name": "\uc6b0\uc8fc\uc57d\uad6d", "lat": "37.50678465942861", "lng": "126.86293471975115", "url": "/info/%EC%9A%B0%EC%A3%BC%EC%95%BD%EA%B5%AD-%EC%84%9C%EC%9A%B8%ED%8A%B9%EB%B3%84%EC%8B%9C-%EC%96%91%EC%B2%9C%EA%B5%AC-%EB%AA%A9%EB%8F%99/", "workingTime": ["-", "09:30~19:00", "09:30~19:00", "09:30~19:00", "09:30~19:00", "09:30~19:00", "09:30~18:00", "-"]}, {"name": "\uac00\uc628\uc628\ub204\ub9ac\uc57d\uad6d", "lat": "37.5281783139269", "lng": "126.875771989415", "url": "/info/%EA%B0%80%EC%98%A8%EC%98%A8%EB%88%84%EB%A6%AC%EC%95%BD%EA%B5%AD-%EC%84%9C%EC%9A%B8%ED%8A%B9%EB%B3%84%EC%8B%9C-%EC%96%91%EC%B2%9C%EA%B5%AC-%EB%AA%A9%EB%8F%99/", "workingTime": ["-", "09:30~20:30", "09:30~20:30", "09:30~20:30", "09:30~20:30", "09:30~20:30", "09:30~18:30", "-"]}, {"name": "\uc601\ubbfc\uc57d\uad6d", "lat": "37.53673944083285", "lng": "126.88490167441202", "url": "/info/%EC%98%81%EB%AF%BC%EC%95%BD%EA%B5%AD-%EC%84%9C%EC%9A%B8%ED%8A%B9%EB%B3%84%EC%8B%9C-%EC%96%91%EC%B2%9C%EA%B5%AC-%EB%AA%A9%EB%8F%99/", "workingTime": ["-", "08:00~18:30", "08:00~18:30", "08:00~18:30", "08:00~18:30", "08:00~18:30", "09:00~13:30", "-"]}, {"name": "\ud31c\ube4c\ud3b8\uc548\uc57d\uad6d", "lat": "37.5396677309", "lng": "126.8690543707", "url": "/info/%ED%8C%9C%EB%B9%8C%ED%8E%B8%EC%95%88%EC%95%BD%EA%B5%AD-%EC%84%9C%EC%9A%B8%ED%8A%B9%EB%B3%84%EC%8B%9C-%EC%96%91%EC%B2%9C%EA%B5%AC-%EB%AA%A9%EB%8F%99/", "workingTime": ["-", "09:00~20:00", "09:00~20:00", "09:00~20:00", "09:00~20:00", "09:00~20:00", "09:00~15:00", "-"]}, {"name": "\ubcf4\uc0dd\uc57d\uad6d", "lat": "37.54663428906089", "lng": "126.87406085042639", "url": "/info/%EB%B3%B4%EC%83%9D%EC%95%BD%EA%B5%AD-%EC%84%9C%EC%9A%B8%ED%8A%B9%EB%B3%84%EC%8B%9C-%EC%96%91%EC%B2%9C%EA%B5%AC-%EB%AA%A9%EB%8F%99/", "workingTime": ["-", "09:00~20:00", "09:00~20:00", "09:00~20:00", "09:00~20:00", "09:00~20:00", "09:00~13:00", "-"]}, {"name": "\ubaa9\ub3d9\uc138\uba85\uc57d\uad6d", "lat": "37.548274145414126", "lng": "126.86649269717428", "url": "/info/%EB%AA%A9%EB%8F%99%EC%84%B8%EB%AA%85%EC%95%BD%EA%B5%AD-%EC%84%9C%EC%9A%B8%ED%8A%B9%EB%B3%84%EC%8B%9C-%EC%96%91%EC%B2%9C%EA%B5%AC-%EB%AA%A9%EB%8F%99/", "workingTime": ["1,2,3,4,5\uc9f8\uc8fc11:00~20:00", "09:00~21:30", "09:00~21:30", "09:00~21:30", "09:00~21:30", "09:00~21:30", "09:00~21:30", "11:00~20:00"]}, {"name": "\uac00\ub78c\uc57d\uad6d", "lat": "37.5490944622", "lng": "126.8678700324", "url": "/info/%EA%B0%80%EB%9E%8C%EC%95%BD%EA%B5%AD-%EC%84%9C%EC%9A%B8%ED%8A%B9%EB%B3%84%EC%8B%9C-%EC%96%91%EC%B2%9C%EA%B5%AC-%EB%AA%A9%EB%8F%99/", "workingTime": ["-", "09:00~20:30", "09:00~20:30", "09:00~20:30", "09:00~20:30", "09:00~20:30", "09:00~15:30", "10:00~16:00"]}, {"name": "\ubcc4\uc57d\uad6d", "lat": "37.5247760954762", "lng": "126.87582276874845", "url": "/info/%EB%B3%84%EC%95%BD%EA%B5%AD-%EC%84%9C%EC%9A%B8%ED%8A%B9%EB%B3%84%EC%8B%9C-%EC%96%91%EC%B2%9C%EA%B5%AC-%EB%AA%A9%EB%8F%99/", "workingTime": ["-", "09:00~21:00", "09:00~19:30", "09:00~20:30", "09:00~21:00", "09:00~21:00", "09:00~16:00", "-"]}, {"name": "\uba54\ub514\uce7c\uc911\uc559\uc57d\uad6d", "lat": "37.5247179669193", "lng": "126.87201729838633", "url": "/info/%EB%A9%94%EB%94%94%EC%B9%BC%EC%A4%91%EC%95%99%EC%95%BD%EA%B5%AD-%EC%84%9C%EC%9A%B8%ED%8A%B9%EB%B3%84%EC%8B%9C-%EC%96%91%EC%B2%9C%EA%B5%AC-%EB%AA%A9%EB%8F%99/", "workingTime": ["-", "09:00~18:30", "09:00~18:30", "09:00~18:30", "09:00~18:30", "09:00~18:30", "09:00~15:00", "-"]}, {"name": "\uc624\ub80c\uc9c0\ub77c\uc784\uc57d\uad6d", "lat": "37.52833075795607", "lng": "126.86376151885439", "url": "/info/%EC%98%A4%EB%A0%8C%EC%A7%80%EB%9D%BC%EC%9E%84%EC%95%BD%EA%B5%AD-%EC%84%9C%EC%9A%B8%ED%8A%B9%EB%B3%84%EC%8B%9C-%EC%96%91%EC%B2%9C%EA%B5%AC-%EB%AA%A9%EB%8F%99/", "workingTime": ["1,2,3,4,5\uc9f8\uc8fc10:00~20:00", "08:00~21:00", "08:00~21:00", "08:00~21:00", "08:00~21:00", "08:00~21:00", "08:30~20:00", "10:00~20:00"]}, {"name": "\uc911\uc559\uc57d\uad6d", "lat": "37.54667874500886", "lng": "126.87350515989006", "url": "/info/%EC%A4%91%EC%95%99%EC%95%BD%EA%B5%AD-%EC%84%9C%EC%9A%B8%ED%8A%B9%EB%B3%84%EC%8B%9C-%EC%96%91%EC%B2%9C%EA%B5%AC-%EB%AA%A9%EB%8F%99/", "workingTime": ["-", "09:00~19:00", "09:00~19:00", "09:00~19:00", "09:00~19:00", "09:00~19:00", "-", "-"]}, {"name": "\ud14c\ub9c8\ud504\ub77c\uc790\uc57d\uad6d", "lat": "37.515803847068895", "lng": "126.86120078510564", "url": "/info/%ED%85%8C%EB%A7%88%ED%94%84%EB%9D%BC%EC%9E%90%EC%95%BD%EA%B5%AD-%EC%84%9C%EC%9A%B8%ED%8A%B9%EB%B3%84%EC%8B%9C-%EC%96%91%EC%B2%9C%EA%B5%AC-%EB%AA%A9%EB%8F%99/", "workingTime": ["-", "09:00~21:00", "09:00~21:00", "09:00~21:00", "09:00~21:00", "09:00~21:00", "09:00~21:00", "-"]}, {"name": "\ud55c\uc6b8\uc57d\uad6d", "lat": "37.52585561004473", "lng": "126.87127089703827", "url": "/info/%ED%95%9C%EC%9A%B8%EC%95%BD%EA%B5%AD-%EC%84%9C%EC%9A%B8%ED%8A%B9%EB%B3%84%EC%8B%9C-%EC%96%91%EC%B2%9C%EA%B5%AC-%EB%AA%A9%EB%8F%99/", "workingTime": ["1,2,3,4,5\uc9f8\uc8fc09:00~13:00", "09:00~21:30", "09:00~21:30", "09:00~21:30", "09:00~21:30", "09:00~21:30", "09:00~15:00", "-"]}, {"name": "\ucf54\ucf54\uc57d\uad6d", "lat": "37.5328866886", "lng": "126.864165038", "url": "/info/%EC%BD%94%EC%BD%94%EC%95%BD%EA%B5%AD-%EC%84%9C%EC%9A%B8%ED%8A%B9%EB%B3%84%EC%8B%9C-%EC%96%91%EC%B2%9C%EA%B5%AC-%EB%AA%A9%EB%8F%99/", "workingTime": ["-", "08:00~19:30", "08:00~19:30", "08:00~19:30", "08:00~19:30", "08:00~19:30", "08:00~14:30", "-"]}, {"name": "\uccad\uc1a1\uc628\ub204\ub9ac\uc57d\uad6d", "lat": "37.53915649980474", "lng": "126.86632161382187", "url": "/info/%EC%B2%AD%EC%86%A1%EC%98%A8%EB%88%84%EB%A6%AC%EC%95%BD%EA%B5%AD-%EC%84%9C%EC%9A%B8%ED%8A%B9%EB%B3%84%EC%8B%9C-%EC%96%91%EC%B2%9C%EA%B5%AC-%EB%AA%A9%EB%8F%99/", "workingTime": ["-", "09:00~21:00", "09:00~21:00", "09:00~21:00", "09:00~21:00", "09:00~21:00", "09:00~21:00", "-"]}, {"name": "\uc5d0\uc774\uce58\uc57d\uad6d", "lat": "37.5248311216", "lng": "126.8700215239", "url": "/info/%EC%97%90%EC%9D%B4%EC%B9%98%EC%95%BD%EA%B5%AD-%EC%84%9C%EC%9A%B8%ED%8A%B9%EB%B3%84%EC%8B%9C-%EC%96%91%EC%B2%9C%EA%B5%AC-%EB%AA%A9%EB%8F%99/", "workingTime": ["-", "09:30~20:30", "09:30~21:30", "09:30~20:00", "09:30~20:30", "09:30~21:30", "09:30~18:00", "-"]}, {"name": "\uc0c8\uc11c\uc6b8\uc628\ub204\ub9ac\uc57d\uad6d", "lat": "37.54928590831046", "lng": "126.86745381689049", "url": "/info/%EC%83%88%EC%84%9C%EC%9A%B8%EC%98%A8%EB%88%84%EB%A6%AC%EC%95%BD%EA%B5%AD-%EC%84%9C%EC%9A%B8%ED%8A%B9%EB%B3%84%EC%8B%9C-%EC%96%91%EC%B2%9C%EA%B5%AC-%EB%AA%A9%EB%8F%99/", "workingTime": ["-", "09:00~20:00", "09:00~20:00", "09:00~20:00", "09:00~20:00", "09:00~20:00", "09:00~15:00", "-"]}, {"name": "\uc0c1\ub9c8\uc57d\uad6d", "lat": "37.52330926563223", "lng": "126.8758297454689", "url": "/info/%EC%83%81%EB%A7%88%EC%95%BD%EA%B5%AD-%EC%84%9C%EC%9A%B8%ED%8A%B9%EB%B3%84%EC%8B%9C-%EC%96%91%EC%B2%9C%EA%B5%AC-%EB%AA%A9%EB%8F%99/", "workingTime": ["1,2,3,4,5\uc9f8\uc8fc10:00~17:00", "09:00~21:00", "09:00~21:00", "09:00~21:00", "09:00~21:00", "09:00~21:00", "09:00~21:00", "10:30~17:30"]}, {"name": "\uba54\ub514\ud31c\uc7a5\uc57d\uad6d", "lat": "37.5088248929", "lng": "126.8660680621", "url": "/info/%EB%A9%94%EB%94%94%ED%8C%9C%EC%9E%A5%EC%95%BD%EA%B5%AD-%EC%84%9C%EC%9A%B8%ED%8A%B9%EB%B3%84%EC%8B%9C-%EC%96%91%EC%B2%9C%EA%B5%AC-%EB%AA%A9%EB%8F%99/", "workingTime": ["-", "09:30~19:30", "09:30~19:30", "09:30~19:30", "09:30~19:30", "09:30~19:30", "09:30~17:00", "-"]}, {"name": "\uba54\ub514\ud31c\uc11c\uc6b8\uc57d\uad6d", "lat": "37.51504027589448", "lng": "126.86160940327545", "url": "/info/%EB%A9%94%EB%94%94%ED%8C%9C%EC%84%9C%EC%9A%B8%EC%95%BD%EA%B5%AD-%EC%84%9C%EC%9A%B8%ED%8A%B9%EB%B3%84%EC%8B%9C-%EC%96%91%EC%B2%9C%EA%B5%AC-%EB%AA%A9%EB%8F%99/", "workingTime": ["-", "09:00~21:00", "09:00~21:00", "09:00~21:00", "09:00~21:00", "09:00~21:00", "09:00~21:00", "09:30~19:00"]}, {"name": "\ubcf4\ud604\uc57d\uad6d", "lat": "37.5367180713", "lng": "126.8676293762", "url": "/info/%EB%B3%B4%ED%98%84%EC%95%BD%EA%B5%AD-%EC%84%9C%EC%9A%B8%ED%8A%B9%EB%B3%84%EC%8B%9C-%EC%96%91%EC%B2%9C%EA%B5%AC-%EB%AA%A9%EB%8F%99/", "workingTime": ["-", "08:30~19:30", "08:30~19:30", "08:30~19:30", "08:30~19:30", "08:30~19:30", "08:30~14:30", "-"]}, {"name": "\ubcf4\ubbf8\uc9c4\uc628\ub204\ub9ac\uc57d\uad6d", "lat": "37.54955503415489", "lng": "126.86404426372152", "url": "/info/%EB%B3%B4%EB%AF%B8%EC%A7%84%EC%98%A8%EB%88%84%EB%A6%AC%EC%95%BD%EA%B5%AD-%EC%84%9C%EC%9A%B8%ED%8A%B9%EB%B3%84%EC%8B%9C-%EC%96%91%EC%B2%9C%EA%B5%AC-%EB%AA%A9%EB%8F%99/", "workingTime": ["-", "09:00~20:00", "09:00~20:00", "09:00~20:00", "09:00~20:00", "09:00~20:00", "09:00~17:00", "-"]}, {"name": "\ubcf4\ub8e1\uc57d\uad6d", "lat": "37.5488234149", "lng": "126.8640365395", "url": "/info/%EB%B3%B4%EB%A3%A1%EC%95%BD%EA%B5%AD-%EC%84%9C%EC%9A%B8%ED%8A%B9%EB%B3%84%EC%8B%9C-%EC%96%91%EC%B2%9C%EA%B5%AC-%EB%AA%A9%EB%8F%99/", "workingTime": ["-", "08:30~21:00", "08:30~21:00", "08:30~21:00", "08:30~21:00", "08:30~21:00", "08:30~19:00", "-"]}, {"name": "\ub808\uc2a4\ud050\uc57d\uad6d", "lat": "37.537043484649985", "lng": "126.88044820313809", "url": "/info/%EB%A0%88%EC%8A%A4%ED%81%90%EC%95%BD%EA%B5%AD-%EC%84%9C%EC%9A%B8%ED%8A%B9%EB%B3%84%EC%8B%9C-%EC%96%91%EC%B2%9C%EA%B5%AC-%EB%AA%A9%EB%8F%99/", "workingTime": ["-", "09:00~20:00", "09:00~20:00", "09:00~20:00", "09:00~20:00", "09:00~20:00", "09:00~16:00", "-"]}, {"name": "\ubc15\uc57d\uad6d", "lat": "37.54838807643131", "lng": "126.864689167455", "url": "/info/%EB%B0%95%EC%95%BD%EA%B5%AD-%EC%84%9C%EC%9A%B8%ED%8A%B9%EB%B3%84%EC%8B%9C-%EC%96%91%EC%B2%9C%EA%B5%AC-%EB%AA%A9%EB%8F%99/", "workingTime": ["-", "09:00~19:00", "09:00~19:00", "09:00~19:00", "09:00~19:00", "09:00~19:00", "09:00~17:00", "-"]}, {"name": "\ub4dc\ub9bc\uc628\ub204\ub9ac\uc57d\uad6d", "lat": "37.54187616455357", "lng": "126.86933395608146", "url": "/info/%EB%93%9C%EB%A6%BC%EC%98%A8%EB%88%84%EB%A6%AC%EC%95%BD%EA%B5%AD-%EC%84%9C%EC%9A%B8%ED%8A%B9%EB%B3%84%EC%8B%9C-%EC%96%91%EC%B2%9C%EA%B5%AC-%EB%AA%A9%EB%8F%99/", "workingTime": ["-", "09:00~21:00", "09:00~21:00", "09:00~21:00", "09:00~21:00", "09:00~21:00", "09:00~21:00", "-"]}, {"name": "\ubb34\uc9c0\uac1c\uc57d\uad6d", "lat": "37.54862120054421", "lng": "126.86370196507883", "url": "/info/%EB%AC%B4%EC%A7%80%EA%B0%9C%EC%95%BD%EA%B5%AD-%EC%84%9C%EC%9A%B8%ED%8A%B9%EB%B3%84%EC%8B%9C-%EC%96%91%EC%B2%9C%EA%B5%AC-%EB%AA%A9%EB%8F%99/", "workingTime": ["1,2,3,4,5\uc9f8\uc8fc10:30~14:30", "08:30~19:00", "08:30~19:00", "08:30~19:00", "08:30~19:00", "08:30~19:00", "08:30~16:00", "-"]}, {"name": "\ubaa9\ub3d9\uc815\ubb38\uc57d\uad6d", "lat": "37.537399256680146", "lng": "126.88485806683556", "url": "/info/%EB%AA%A9%EB%8F%99%EC%A0%95%EB%AC%B8%EC%95%BD%EA%B5%AD-%EC%84%9C%EC%9A%B8%ED%8A%B9%EB%B3%84%EC%8B%9C-%EC%96%91%EC%B2%9C%EA%B5%AC-%EB%AA%A9%EB%8F%99/", "workingTime": ["-", "08:00~19:00", "08:00~19:00", "08:00~19:00", "08:00~19:00", "08:00~19:00", "08:00~16:00", "-"]}, {"name": "\ubaa9\ub3d9\uac74\uac15\uc57d\uad6d", "lat": "37.52865451620575", "lng": "126.86324051922", "url": "/info/%EB%AA%A9%EB%8F%99%EA%B1%B4%EA%B0%95%EC%95%BD%EA%B5%AD-%EC%84%9C%EC%9A%B8%ED%8A%B9%EB%B3%84%EC%8B%9C-%EC%96%91%EC%B2%9C%EA%B5%AC-%EB%AA%A9%EB%8F%99/", "workingTime": ["-", "09:00~18:00", "09:00~18:00", "09:00~18:00", "09:00~18:00", "09:00~18:00", "09:00~14:00", "09:00~20:00"]}, {"name": "\ub300\uc6b0\ub9c8\uc774\ube4c\uc57d\uad6d", "lat": "37.549578145992314", "lng": "126.86693672450846", "url": "/info/%EB%8C%80%EC%9A%B0%EB%A7%88%EC%9D%B4%EB%B9%8C%EC%95%BD%EA%B5%AD-%EC%84%9C%EC%9A%B8%ED%8A%B9%EB%B3%84%EC%8B%9C-%EC%96%91%EC%B2%9C%EA%B5%AC-%EB%AA%A9%EB%8F%99/", "workingTime": ["-", "09:00~19:00", "09:00~19:00", "09:00~19:00", "09:00~19:00", "09:00~19:00", "09:00~15:00", "-"]}, {"name": "\uac00\uc815\uc57d\uad6d", "lat": "37.54670960810209", "lng": "126.8720453427675", "url": "/info/%EA%B0%80%EC%A0%95%EC%95%BD%EA%B5%AD-%EC%84%9C%EC%9A%B8%ED%8A%B9%EB%B3%84%EC%8B%9C-%EC%96%91%EC%B2%9C%EA%B5%AC-%EB%AA%A9%EB%8F%99/", "workingTime": ["1,2,3,4,5\uc9f8\uc8fc09:00~13:00", "09:00~21:00", "09:00~21:00", "09:00~21:00", "09:00~21:00", "09:00~21:00", "09:00~18:00", "09:00~13:00"]}, {"name": "\uc870\uc544\uc57d\uad6d", "lat": "37.515773294", "lng": "126.8628070305", "url": "/info/%EC%A1%B0%EC%95%84%EC%95%BD%EA%B5%AD-%EC%84%9C%EC%9A%B8%ED%8A%B9%EB%B3%84%EC%8B%9C-%EC%96%91%EC%B2%9C%EA%B5%AC-%EB%AA%A9%EB%8F%99/", "workingTime": ["-", "09:00~19:30", "09:00~19:30", "09:00~19:30", "09:00~19:30", "09:00~19:30", "09:00~14:00", "-"]}, {"name": "\uc88b\uc740\ud558\ub8e8\uc628\ub204\ub9ac\uc57d\uad6d", "lat": "37.5291443474", "lng": "126.8760101173", "url": "/info/%EC%A2%8B%EC%9D%80%ED%95%98%EB%A3%A8%EC%98%A8%EB%88%84%EB%A6%AC%EC%95%BD%EA%B5%AD-%EC%84%9C%EC%9A%B8%ED%8A%B9%EB%B3%84%EC%8B%9C-%EC%96%91%EC%B2%9C%EA%B5%AC-%EB%AA%A9%EB%8F%99/", "workingTime": ["1,3,5\uc9f8\uc8fc10:00~22:00", "10:00~22:00", "10:00~22:00", "10:00~22:00", "10:00~22:00", "10:00~22:00", "10:00~22:00", "10:00~22:00"]}, {"name": "\ubaa9\ub3d9\uc138\uacc4\ub85c\uc57d\uad6d", "lat": "37.522499225353776", "lng": "126.87695096032978", "url": "/info/%EB%AA%A9%EB%8F%99%EC%84%B8%EA%B3%84%EB%A1%9C%EC%95%BD%EA%B5%AD-%EC%84%9C%EC%9A%B8%ED%8A%B9%EB%B3%84%EC%8B%9C-%EC%96%91%EC%B2%9C%EA%B5%AC-%EB%AA%A9%EB%8F%99/", "workingTime": ["1,2,3,4,5\uc9f8\uc8fc09:00~21:00", "09:00~21:00", "09:00~21:00", "09:00~21:00", "09:00~21:00", "09:00~21:00", "09:00~21:00", "09:00~21:00"]}, {"name": "\ubaa9\ub3d9\ubca7\uc5d8\uc57d\uad6d", "lat": "37.53671428902167", "lng": "126.88497865154115", "url": "/info/%EB%AA%A9%EB%8F%99%EB%B2%A7%EC%97%98%EC%95%BD%EA%B5%AD-%EC%84%9C%EC%9A%B8%ED%8A%B9%EB%B3%84%EC%8B%9C-%EC%96%91%EC%B2%9C%EA%B5%AC-%EB%AA%A9%EB%8F%99/", "workingTime": ["-", "08:30~20:00", "08:30~20:00", "08:30~20:00", "08:30~20:00", "08:30~20:00", "08:30~13:00", "-"]}, {"name": "\uc870\uc740\uc57d\uad6d", "lat": "37.5082861466", "lng": "126.864535361", "url": "/info/%EC%A1%B0%EC%9D%80%EC%95%BD%EA%B5%AD-%EC%84%9C%EC%9A%B8%ED%8A%B9%EB%B3%84%EC%8B%9C-%EC%96%91%EC%B2%9C%EA%B5%AC-%EB%AA%A9%EB%8F%99/", "workingTime": ["-", "08:30~18:30", "08:30~18:30", "08:30~18:30", "08:30~18:30", "08:30~18:30", "08:30~13:00", "-"]}, {"name": "41\uc57d\uad6d", "lat": "37.5281783139269", "lng": "126.875771989415", "url": "/info/41%EC%95%BD%EA%B5%AD-%EC%84%9C%EC%9A%B8%ED%8A%B9%EB%B3%84%EC%8B%9C-%EC%96%91%EC%B2%9C%EA%B5%AC-%EB%AA%A9%EB%8F%99/", "workingTime": ["-", "09:30~20:00", "09:30~20:00", "09:30~20:00", "09:30~20:00", "09:30~20:00", "09:30~20:00", "09:30~18:00"]}]