[{"name": "\uc77c\ub4f1\uc57d\uad6d", "lat": "37.56885542666609", "lng": "126.96511371989286", "url": "/info/%EC%9D%BC%EB%93%B1%EC%95%BD%EA%B5%AD-%EC%84%9C%EC%9A%B8%ED%8A%B9%EB%B3%84%EC%8B%9C-%EC%A2%85%EB%A1%9C%EA%B5%AC-%ED%8F%89%EB%8F%99/", "workingTime": ["-", "08:30~19:00", "08:30~19:00", "08:30~19:00", "08:30~19:00", "08:30~19:00", "09:00~13:00", "-"]}, {"name": "\uc704\ub4dc\ud31c\uc0bc\uc815\ubc14\ub85c\uc57d\uad6d", "lat": "37.5688537151032", "lng": "126.965114852628", "url": "/info/%EC%9C%84%EB%93%9C%ED%8C%9C%EC%82%BC%EC%A0%95%EB%B0%94%EB%A1%9C%EC%95%BD%EA%B5%AD-%EC%84%9C%EC%9A%B8%ED%8A%B9%EB%B3%84%EC%8B%9C-%EC%A2%85%EB%A1%9C%EA%B5%AC-%ED%8F%89%EB%8F%99/", "workingTime": ["-", "08:30~18:00", "08:30~18:00", "08:30~18:00", "08:30~18:00", "08:30~18:00", "08:30~13:00", "-"]}, {"name": "\uba54\ub514\uce7c\uc57d\uad6d", "lat": "37.5689275157", "lng": "126.9651453805", "url": "/info/%EB%A9%94%EB%94%94%EC%B9%BC%EC%95%BD%EA%B5%AD-%EC%84%9C%EC%9A%B8%ED%8A%B9%EB%B3%84%EC%8B%9C-%EC%A2%85%EB%A1%9C%EA%B5%AC-%ED%8F%89%EB%8F%99/", "workingTime": ["-", "08:30~18:00", "08:30~18:00", "08:30~18:00", "08:30~18:00", "08:30~18:00", "08:30~13:00", "-"]}, {"name": "\ud558\ub098\uc57d\uad6d", "lat": "37.5688537151032", "lng": "126.965114852628", "url": "/info/%ED%95%98%EB%82%98%EC%95%BD%EA%B5%AD-%EC%84%9C%EC%9A%B8%ED%8A%B9%EB%B3%84%EC%8B%9C-%EC%A2%85%EB%A1%9C%EA%B5%AC-%ED%8F%89%EB%8F%99/", "workingTime": ["-", "08:30~18:00", "08:30~18:00", "08:30~18:00", "08:30~18:00", "08:30~18:00", "08:30~13:00", "-"]}, {"name": "\uc11c\ub300\ubb38\uad8c\uc57d\uad6d", "lat": "37.56720548002136", "lng": "126.96748697570679", "url": "/info/%EC%84%9C%EB%8C%80%EB%AC%B8%EA%B6%8C%EC%95%BD%EA%B5%AD-%EC%84%9C%EC%9A%B8%ED%8A%B9%EB%B3%84%EC%8B%9C-%EC%A2%85%EB%A1%9C%EA%B5%AC-%ED%8F%89%EB%8F%99/", "workingTime": ["-", "08:20~18:40", "08:20~18:40", "08:20~18:40", "08:20~18:40", "08:20~18:40", "08:20~14:00", "-"]}, {"name": "\ub298\ud478\ub978\uc57d\uad6d", "lat": "37.5674449313701", "lng": "126.967693785699", "url": "/info/%EB%8A%98%ED%91%B8%EB%A5%B8%EC%95%BD%EA%B5%AD-%EC%84%9C%EC%9A%B8%ED%8A%B9%EB%B3%84%EC%8B%9C-%EC%A2%85%EB%A1%9C%EA%B5%AC-%ED%8F%89%EB%8F%99/", "workingTime": ["-", "08:40~18:00", "08:40~18:00", "08:40~18:00", "08:40~18:00", "08:40~18:00", "09:00~13:00", "-"]}, {"name": "\uad7f\ubaa8\ub2dd\uc57d\uad6d", "lat": "37.568927515661215", "lng": "126.9651453805195", "url": "/info/%EA%B5%BF%EB%AA%A8%EB%8B%9D%EC%95%BD%EA%B5%AD-%EC%84%9C%EC%9A%B8%ED%8A%B9%EB%B3%84%EC%8B%9C-%EC%A2%85%EB%A1%9C%EA%B5%AC-%ED%8F%89%EB%8F%99/", "workingTime": ["-", "09:00~19:00", "09:00~19:00", "09:00~19:00", "09:00~19:00", "09:00~19:00", "09:00~14:00", "-"]}, {"name": "\uac74\uac15\ud55c\uc138\uc0c1\uc57d\uad6d", "lat": "37.567486111111108", "lng": "126.967858333333339", "url": "/info/%EA%B1%B4%EA%B0%95%ED%95%9C%EC%84%B8%EC%83%81%EC%95%BD%EA%B5%AD-%EC%84%9C%EC%9A%B8%ED%8A%B9%EB%B3%84%EC%8B%9C-%EC%A2%85%EB%A1%9C%EA%B5%AC-%ED%8F%89%EB%8F%99/", "workingTime": ["-", "09:00~18:00", "09:00~18:00", "09:00~18:00", "09:00~18:00", "09:00~18:00", "09:00~13:00", "-"]}, {"name": "\ud478\ub978\uc628\ub204\ub9ac\uc57d\uad6d", "lat": "37.5674650851645", "lng": "126.9679351220144", "url": "/info/%ED%91%B8%EB%A5%B8%EC%98%A8%EB%88%84%EB%A6%AC%EC%95%BD%EA%B5%AD-%EC%84%9C%EC%9A%B8%ED%8A%B9%EB%B3%84%EC%8B%9C-%EC%A2%85%EB%A1%9C%EA%B5%AC-%ED%8F%89%EB%8F%99/", "workingTime": ["-", "08:30~19:30", "08:30~19:30", "08:30~19:30", "08:30~19:30", "08:30~19:30", "08:30~14:00", "-"]}, {"name": "\uc0bc\uc815\ubc14\ub85c\uc57d\uad6d", "lat": "37.56799546162531", "lng": "126.96831577334152", "url": "/info/%EC%82%BC%EC%A0%95%EB%B0%94%EB%A1%9C%EC%95%BD%EA%B5%AD-%EC%84%9C%EC%9A%B8%ED%8A%B9%EB%B3%84%EC%8B%9C-%EC%A2%85%EB%A1%9C%EA%B5%AC-%ED%8F%89%EB%8F%99/", "workingTime": ["-", "08:30~18:00", "08:30~18:00", "08:30~18:00", "08:30~18:00", "08:30~18:00", "09:00~13:00", "-"]}]