[{"name": "\ub2e4\uc815\uc57d\uad6d", "lat": "37.6502819830907", "lng": "127.051377751402", "url": "/info/%EB%8B%A4%EC%A0%95%EC%95%BD%EA%B5%AD-%EC%84%9C%EC%9A%B8%ED%8A%B9%EB%B3%84%EC%8B%9C-%EB%8F%84%EB%B4%89%EA%B5%AC-%EC%B0%BD%EB%8F%99/", "workingTime": ["-", "09:00~19:00", "09:00~19:00", "09:00~19:00", "09:00~19:00", "09:00~19:00", "09:00~13:00", "-"]}, {"name": "\uc740\ud61c\uc57d\uad6d", "lat": "37.649063888888890", "lng": "127.035819444444442", "url": "/info/%EC%9D%80%ED%98%9C%EC%95%BD%EA%B5%AD-%EC%84%9C%EC%9A%B8%ED%8A%B9%EB%B3%84%EC%8B%9C-%EB%8F%84%EB%B4%89%EA%B5%AC-%EC%B0%BD%EB%8F%99/", "workingTime": ["-", "09:00~23:00", "09:00~23:00", "09:00~23:00", "09:00~23:00", "09:00~23:00", "09:00~18:00", "-"]}, {"name": "\uc601\ud6c8\uc57d\uad6d", "lat": "37.63780556913034", "lng": "127.03762405346673", "url": "/info/%EC%98%81%ED%9B%88%EC%95%BD%EA%B5%AD-%EC%84%9C%EC%9A%B8%ED%8A%B9%EB%B3%84%EC%8B%9C-%EB%8F%84%EB%B4%89%EA%B5%AC-%EC%B0%BD%EB%8F%99/", "workingTime": ["-", "09:00~21:00", "09:00~21:00", "09:00~21:00", "09:00~21:00", "09:00~21:00", "09:00~16:00", "-"]}, {"name": "\uc2e0\ucc3d\uc57d\uad6d", "lat": "37.64035720903072", "lng": "127.03995787986483", "url": "/info/%EC%8B%A0%EC%B0%BD%EC%95%BD%EA%B5%AD-%EC%84%9C%EC%9A%B8%ED%8A%B9%EB%B3%84%EC%8B%9C-%EB%8F%84%EB%B4%89%EA%B5%AC-%EC%B0%BD%EB%8F%99/", "workingTime": ["-", "09:00~19:30", "09:00~19:30", "09:00~19:30", "09:00~19:30", "09:00~19:30", "09:00~15:30", "-"]}, {"name": "\uc2e0\uc6d0\uc57d\uad6d", "lat": "37.65255057526048", "lng": "127.04633272645304", "url": "/info/%EC%8B%A0%EC%9B%90%EC%95%BD%EA%B5%AD-%EC%84%9C%EC%9A%B8%ED%8A%B9%EB%B3%84%EC%8B%9C-%EB%8F%84%EB%B4%89%EA%B5%AC-%EC%B0%BD%EB%8F%99/", "workingTime": ["-", "08:30~18:30", "08:30~18:30", "08:30~18:30", "08:30~18:30", "08:30~18:30", "08:30~13:30", "-"]}, {"name": "\ud76c\ub9dd\uc57d\uad6d", "lat": "37.6556293342038", "lng": "127.04148610317595", "url": "/info/%ED%9D%AC%EB%A7%9D%EC%95%BD%EA%B5%AD-%EC%84%9C%EC%9A%B8%ED%8A%B9%EB%B3%84%EC%8B%9C-%EB%8F%84%EB%B4%89%EA%B5%AC-%EC%B0%BD%EB%8F%99/", "workingTime": ["-", "09:00~20:00", "09:00~20:00", "09:00~20:00", "09:00~20:00", "09:00~20:00", "09:00~16:00", "-"]}, {"name": "\uc250\ub974\ube4c\uc57d\uad6d", "lat": "37.647866801713086", "lng": "127.0348801650165", "url": "/info/%EC%89%90%EB%A5%B4%EB%B9%8C%EC%95%BD%EA%B5%AD-%EC%84%9C%EC%9A%B8%ED%8A%B9%EB%B3%84%EC%8B%9C-%EB%8F%84%EB%B4%89%EA%B5%AC-%EC%B0%BD%EB%8F%99/", "workingTime": ["-", "09:00~19:30", "09:00~19:30", "09:00~19:30", "09:00~19:30", "09:00~19:30", "09:00~15:00", "-"]}, {"name": "\uc6f0\ube59\uc57d\uad6d", "lat": "37.65831441873671", "lng": "127.04103427994265", "url": "/info/%EC%9B%B0%EB%B9%99%EC%95%BD%EA%B5%AD-%EC%84%9C%EC%9A%B8%ED%8A%B9%EB%B3%84%EC%8B%9C-%EB%8F%84%EB%B4%89%EA%B5%AC-%EC%B0%BD%EB%8F%99/", "workingTime": ["-", "09:00~19:30", "09:00~19:30", "09:00~19:30", "09:00~19:30", "09:00~19:30", "09:00~16:30", "-"]}, {"name": "\ub4dc\ub9bc\uc628\ub204\ub9ac\uc57d\uad6d", "lat": "37.6594614287", "lng": "127.04803423730002", "url": "/info/%EB%93%9C%EB%A6%BC%EC%98%A8%EB%88%84%EB%A6%AC%EC%95%BD%EA%B5%AD-%EC%84%9C%EC%9A%B8%ED%8A%B9%EB%B3%84%EC%8B%9C-%EB%8F%84%EB%B4%89%EA%B5%AC-%EC%B0%BD%EB%8F%99/", "workingTime": ["-", "09:00~19:00", "09:00~19:30", "09:00~19:00", "11:00~19:30", "09:00~19:00", "09:00~14:30", "09:00~15:00"]}, {"name": "\ub354\ud2bc\ud2bc\uc57d\uad6d", "lat": "37.6518453663653", "lng": "127.046610571403", "url": "/info/%EB%8D%94%ED%8A%BC%ED%8A%BC%EC%95%BD%EA%B5%AD-%EC%84%9C%EC%9A%B8%ED%8A%B9%EB%B3%84%EC%8B%9C-%EB%8F%84%EB%B4%89%EA%B5%AC-%EC%B0%BD%EB%8F%99/", "workingTime": ["1,2,3,4,5\uc9f8\uc8fc09:00~14:00", "09:00~21:00", "09:00~20:00", "09:00~20:00", "09:00~20:00", "09:00~21:00", "09:00~16:00", "09:00~14:00"]}, {"name": "\ud558\ub098\ub85c\uc57d\uad6d", "lat": "37.65485863741103", "lng": "127.05141098980178", "url": "/info/%ED%95%98%EB%82%98%EB%A1%9C%EC%95%BD%EA%B5%AD-%EC%84%9C%EC%9A%B8%ED%8A%B9%EB%B3%84%EC%8B%9C-%EB%8F%84%EB%B4%89%EA%B5%AC-%EC%B0%BD%EB%8F%99/", "workingTime": ["-", "09:00~21:00", "09:00~21:00", "09:00~21:00", "09:00~21:00", "09:00~21:00", "09:00~21:00", "-"]}, {"name": "\ub300\uc6b0\uc57d\uad6d", "lat": "37.6426063787029", "lng": "127.037330634079", "url": "/info/%EB%8C%80%EC%9A%B0%EC%95%BD%EA%B5%AD-%EC%84%9C%EC%9A%B8%ED%8A%B9%EB%B3%84%EC%8B%9C-%EB%8F%84%EB%B4%89%EA%B5%AC-%EC%B0%BD%EB%8F%99/", "workingTime": ["-", "09:00~18:00", "09:00~18:00", "09:00~18:00", "09:00~18:00", "09:00~18:00", "09:00~13:00", "-"]}, {"name": "\uc0bc\uc131\ub298\ud478\ub978\uc57d\uad6d", "lat": "37.647875855007946", "lng": "127.03473286176066", "url": "/info/%EC%82%BC%EC%84%B1%EB%8A%98%ED%91%B8%EB%A5%B8%EC%95%BD%EA%B5%AD-%EC%84%9C%EC%9A%B8%ED%8A%B9%EB%B3%84%EC%8B%9C-%EB%8F%84%EB%B4%89%EA%B5%AC-%EC%B0%BD%EB%8F%99/", "workingTime": ["-", "08:00~19:00", "08:00~19:00", "08:00~19:00", "08:00~19:00", "08:00~19:00", "08:00~16:00", "-"]}, {"name": "\ucd08\ub871\uc57d\uad6d", "lat": "37.6520591916627", "lng": "127.046095779851", "url": "/info/%EC%B4%88%EB%A1%B1%EC%95%BD%EA%B5%AD-%EC%84%9C%EC%9A%B8%ED%8A%B9%EB%B3%84%EC%8B%9C-%EB%8F%84%EB%B4%89%EA%B5%AC-%EC%B0%BD%EB%8F%99/", "workingTime": ["-", "09:00~20:30", "09:00~19:30", "09:00~19:30", "09:00~20:30", "09:00~19:30", "09:00~14:30", "-"]}, {"name": "\uccad\uc194\ub3d9\uc544\uc57d\uad6d", "lat": "37.6568993201051", "lng": "127.04929542102305", "url": "/info/%EC%B2%AD%EC%86%94%EB%8F%99%EC%95%84%EC%95%BD%EA%B5%AD-%EC%84%9C%EC%9A%B8%ED%8A%B9%EB%B3%84%EC%8B%9C-%EB%8F%84%EB%B4%89%EA%B5%AC-%EC%B0%BD%EB%8F%99/", "workingTime": ["-", "09:30~19:00", "09:30~19:00", "09:30~19:00", "09:30~19:00", "09:30~19:00", "09:30~14:00", "-"]}, {"name": "\ucc3d\ub3d9\uc885\ub85c\uc57d\uad6d", "lat": "37.65278738897664", "lng": "127.0469511229344", "url": "/info/%EC%B0%BD%EB%8F%99%EC%A2%85%EB%A1%9C%EC%95%BD%EA%B5%AD-%EC%84%9C%EC%9A%B8%ED%8A%B9%EB%B3%84%EC%8B%9C-%EB%8F%84%EB%B4%89%EA%B5%AC-%EC%B0%BD%EB%8F%99/", "workingTime": ["1,2,3,4,5\uc9f8\uc8fc08:00~19:30", "08:00~21:30", "08:00~21:30", "08:00~21:30", "08:00~21:30", "08:00~21:30", "08:00~21:30", "08:00~19:30"]}, {"name": "\ucc29\ud55c\uc57d\uad6d", "lat": "37.6402989162", "lng": "127.0393973532", "url": "/info/%EC%B0%A9%ED%95%9C%EC%95%BD%EA%B5%AD-%EC%84%9C%EC%9A%B8%ED%8A%B9%EB%B3%84%EC%8B%9C-%EB%8F%84%EB%B4%89%EA%B5%AC-%EC%B0%BD%EB%8F%99/", "workingTime": ["-", "08:30~20:00", "08:30~20:00", "08:30~20:00", "08:30~20:00", "08:30~20:00", "08:30~14:00", "-"]}, {"name": "\ubd80\uad11\uc57d\uad6d", "lat": "37.6457751172", "lng": "127.0531334487", "url": "/info/%EB%B6%80%EA%B4%91%EC%95%BD%EA%B5%AD-%EC%84%9C%EC%9A%B8%ED%8A%B9%EB%B3%84%EC%8B%9C-%EB%8F%84%EB%B4%89%EA%B5%AC-%EC%B0%BD%EB%8F%99/", "workingTime": ["-", "09:00~20:00", "09:00~20:00", "09:00~20:00", "09:00~20:00", "09:00~20:00", "09:00~16:00", "-"]}, {"name": "\uc911\uc559\uc57d\uad6d", "lat": "37.6460093819", "lng": "127.0334719577", "url": "/info/%EC%A4%91%EC%95%99%EC%95%BD%EA%B5%AD-%EC%84%9C%EC%9A%B8%ED%8A%B9%EB%B3%84%EC%8B%9C-%EB%8F%84%EB%B4%89%EA%B5%AC-%EC%B0%BD%EB%8F%99/", "workingTime": ["-", "09:00~18:15", "09:00~18:15", "09:00~18:15", "09:00~18:15", "09:00~18:15", "09:00~13:30", "-"]}, {"name": "\ubc31\uc6b4\uc57d\uad6d", "lat": "37.64753065310896", "lng": "127.03443648262089", "url": "/info/%EB%B0%B1%EC%9A%B4%EC%95%BD%EA%B5%AD-%EC%84%9C%EC%9A%B8%ED%8A%B9%EB%B3%84%EC%8B%9C-%EB%8F%84%EB%B4%89%EA%B5%AC-%EC%B0%BD%EB%8F%99/", "workingTime": ["1,2,3,4,5\uc9f8\uc8fc13:00~19:00", "08:30~22:00", "08:30~22:00", "08:30~22:00", "08:30~22:00", "08:30~22:00", "08:30~21:00", "13:00~19:00"]}, {"name": "\uac00\uc57c\uc628\ub204\ub9ac\uc57d\uad6d", "lat": "37.65195174915679", "lng": "127.04574940861171", "url": "/info/%EA%B0%80%EC%95%BC%EC%98%A8%EB%88%84%EB%A6%AC%EC%95%BD%EA%B5%AD-%EC%84%9C%EC%9A%B8%ED%8A%B9%EB%B3%84%EC%8B%9C-%EB%8F%84%EB%B4%89%EA%B5%AC-%EC%B0%BD%EB%8F%99/", "workingTime": ["-", "08:00~18:00", "08:00~18:00", "08:00~18:00", "08:00~18:00", "08:00~18:00", "08:00~13:00", "-"]}, {"name": "\ub274\uc9c0\uba85\uc57d\uad6d", "lat": "37.63872869291572", "lng": "127.03854760591969", "url": "/info/%EB%89%B4%EC%A7%80%EB%AA%85%EC%95%BD%EA%B5%AD-%EC%84%9C%EC%9A%B8%ED%8A%B9%EB%B3%84%EC%8B%9C-%EB%8F%84%EB%B4%89%EA%B5%AC-%EC%B0%BD%EB%8F%99/", "workingTime": ["-", "09:00~20:00", "09:00~20:00", "09:00~20:00", "09:00~20:00", "09:00~20:00", "09:00~18:00", "-"]}, {"name": "\ub179\uc2ed\uc790\uc57d\uad6d", "lat": "37.63385444963799", "lng": "127.0412156885136", "url": "/info/%EB%85%B9%EC%8B%AD%EC%9E%90%EC%95%BD%EA%B5%AD-%EC%84%9C%EC%9A%B8%ED%8A%B9%EB%B3%84%EC%8B%9C-%EB%8F%84%EB%B4%89%EA%B5%AC-%EC%B0%BD%EB%8F%99/", "workingTime": ["1,2,3,4,5\uc9f8\uc8fc09:00~21:00", "09:00~21:00", "09:00~21:00", "09:00~21:00", "09:00~21:00", "09:00~21:00", "09:00~15:00", "09:00~21:00"]}, {"name": "\uc911\uc559\uc628\ub204\ub9ac\uc57d\uad6d", "lat": "37.6393874176", "lng": "127.0384949995", "url": "/info/%EC%A4%91%EC%95%99%EC%98%A8%EB%88%84%EB%A6%AC%EC%95%BD%EA%B5%AD-%EC%84%9C%EC%9A%B8%ED%8A%B9%EB%B3%84%EC%8B%9C-%EB%8F%84%EB%B4%89%EA%B5%AC-%EC%B0%BD%EB%8F%99/", "workingTime": ["-", "09:00~19:00", "09:00~19:00", "09:00~19:00", "09:00~19:00", "09:00~19:00", "09:00~13:00", "-"]}, {"name": "\uc990\uac70\uc6b4\uc57d\uad6d", "lat": "37.6530884876081", "lng": "127.046291895459", "url": "/info/%EC%A6%90%EA%B1%B0%EC%9A%B4%EC%95%BD%EA%B5%AD-%EC%84%9C%EC%9A%B8%ED%8A%B9%EB%B3%84%EC%8B%9C-%EB%8F%84%EB%B4%89%EA%B5%AC-%EC%B0%BD%EB%8F%99/", "workingTime": ["-", "09:00~20:30", "09:00~20:30", "09:00~20:30", "09:00~20:30", "09:00~20:30", "09:00~14:30", "-"]}, {"name": "\uc190\uc628\ub204\ub9ac\uc57d\uad6d", "lat": "37.66019535410809", "lng": "127.04192837273326", "url": "/info/%EC%86%90%EC%98%A8%EB%88%84%EB%A6%AC%EC%95%BD%EA%B5%AD-%EC%84%9C%EC%9A%B8%ED%8A%B9%EB%B3%84%EC%8B%9C-%EB%8F%84%EB%B4%89%EA%B5%AC-%EC%B0%BD%EB%8F%99/", "workingTime": ["-", "08:00~19:00", "08:00~19:00", "08:00~19:00", "08:00~19:00", "08:00~19:00", "08:00~14:00", "-"]}, {"name": "\ub77c\ud30c\uc628\ub204\ub9ac\uc57d\uad6d", "lat": "37.634038088285564", "lng": "127.04167802307813", "url": "/info/%EB%9D%BC%ED%8C%8C%EC%98%A8%EB%88%84%EB%A6%AC%EC%95%BD%EA%B5%AD-%EC%84%9C%EC%9A%B8%ED%8A%B9%EB%B3%84%EC%8B%9C-%EB%8F%84%EB%B4%89%EA%B5%AC-%EC%B0%BD%EB%8F%99/", "workingTime": ["1,2,3,4,5\uc9f8\uc8fc09:00~20:30", "09:00~20:30", "09:00~20:30", "09:00~20:30", "09:00~20:30", "09:00~20:30", "-", "08:30~20:30"]}, {"name": "\ucc38\uc88b\uc740\uc57d\uad6d", "lat": "37.6497063541", "lng": "127.0357354089", "url": "/info/%EC%B0%B8%EC%A2%8B%EC%9D%80%EC%95%BD%EA%B5%AD-%EC%84%9C%EC%9A%B8%ED%8A%B9%EB%B3%84%EC%8B%9C-%EB%8F%84%EB%B4%89%EA%B5%AC-%EC%B0%BD%EB%8F%99/", "workingTime": ["-", "09:00~19:00", "09:00~19:00", "09:00~19:00", "09:00~19:00", "09:00~19:00", "09:00~14:00", "-"]}, {"name": "\ucc3d\ub3d9\uc774\ud654\uc57d\uad6d", "lat": "37.65144353156126", "lng": "127.04591227601101", "url": "/info/%EC%B0%BD%EB%8F%99%EC%9D%B4%ED%99%94%EC%95%BD%EA%B5%AD-%EC%84%9C%EC%9A%B8%ED%8A%B9%EB%B3%84%EC%8B%9C-%EB%8F%84%EB%B4%89%EA%B5%AC-%EC%B0%BD%EB%8F%99/", "workingTime": ["1,2,3,4,5\uc9f8\uc8fc09:00~13:00", "08:30~19:00", "08:30~19:00", "08:30~19:00", "08:30~19:00", "08:30~19:00", "09:00~16:00", "-"]}, {"name": "\ucc3d\ub3d9\ub0a8\ub300\ubb38\uc57d\uad6d", "lat": "37.63813091159081", "lng": "127.03734778965305", "url": "/info/%EC%B0%BD%EB%8F%99%EB%82%A8%EB%8C%80%EB%AC%B8%EC%95%BD%EA%B5%AD-%EC%84%9C%EC%9A%B8%ED%8A%B9%EB%B3%84%EC%8B%9C-%EB%8F%84%EB%B4%89%EA%B5%AC-%EC%B0%BD%EB%8F%99/", "workingTime": ["1,2,3,4,5\uc9f8\uc8fc10:00~21:00", "09:00~22:00", "09:00~22:00", "09:00~22:00", "09:00~22:00", "09:00~22:00", "09:00~22:00", "-"]}, {"name": "\uc774\ud654\ud0dc\ud3c9\uc591\uc57d\uad6d", "lat": "37.639210907156496", "lng": "127.03824111572972", "url": "/info/%EC%9D%B4%ED%99%94%ED%83%9C%ED%8F%89%EC%96%91%EC%95%BD%EA%B5%AD-%EC%84%9C%EC%9A%B8%ED%8A%B9%EB%B3%84%EC%8B%9C-%EB%8F%84%EB%B4%89%EA%B5%AC-%EC%B0%BD%EB%8F%99/", "workingTime": ["1,2,3,4,5\uc9f8\uc8fc11:00~21:00", "09:00~21:30", "09:00~21:30", "09:00~21:30", "09:00~21:30", "09:00~21:30", "09:00~21:30", "09:00~21:00"]}, {"name": "\uc0c8\uc21c\ubcf4\ub2f9\uc57d\uad6d", "lat": "37.63895156669778", "lng": "127.03779684720654", "url": "/info/%EC%83%88%EC%88%9C%EB%B3%B4%EB%8B%B9%EC%95%BD%EA%B5%AD-%EC%84%9C%EC%9A%B8%ED%8A%B9%EB%B3%84%EC%8B%9C-%EB%8F%84%EB%B4%89%EA%B5%AC-%EC%B0%BD%EB%8F%99/", "workingTime": ["-", "09:00~19:00", "09:00~19:00", "09:00~19:00", "09:00~19:00", "09:00~19:00", "-", "-"]}, {"name": "\uc2a4\ud0c0\ube4c\uc57d\uad6d", "lat": "37.65253498717692", "lng": "127.04726826150088", "url": "/info/%EC%8A%A4%ED%83%80%EB%B9%8C%EC%95%BD%EA%B5%AD-%EC%84%9C%EC%9A%B8%ED%8A%B9%EB%B3%84%EC%8B%9C-%EB%8F%84%EB%B4%89%EA%B5%AC-%EC%B0%BD%EB%8F%99/", "workingTime": ["-", "09:00~19:00", "09:00~19:00", "09:00~19:00", "09:00~19:00", "09:00~19:00", "-", "-"]}, {"name": "\ubbfc\uc911\uc57d\uad6d", "lat": "37.638925000000000", "lng": "127.037986111111110", "url": "/info/%EB%AF%BC%EC%A4%91%EC%95%BD%EA%B5%AD-%EC%84%9C%EC%9A%B8%ED%8A%B9%EB%B3%84%EC%8B%9C-%EB%8F%84%EB%B4%89%EA%B5%AC-%EC%B0%BD%EB%8F%99/", "workingTime": ["-", "08:00~21:00", "08:00~21:00", "08:00~21:00", "08:00~21:00", "08:00~21:00", "08:30~18:00", "-"]}, {"name": "\ub298\ud3b8\ud55c\uc57d\uad6d", "lat": "37.63747410886628", "lng": "127.03730212098894", "url": "/info/%EB%8A%98%ED%8E%B8%ED%95%9C%EC%95%BD%EA%B5%AD-%EC%84%9C%EC%9A%B8%ED%8A%B9%EB%B3%84%EC%8B%9C-%EB%8F%84%EB%B4%89%EA%B5%AC-%EC%B0%BD%EB%8F%99/", "workingTime": ["-", "09:00~18:00", "09:00~18:00", "09:00~18:00", "09:00~18:00", "09:00~18:00", "-", "-"]}, {"name": "\uae08\ube5b\uc57d\uad6d", "lat": "37.63896291284353", "lng": "127.03865648917933", "url": "/info/%EA%B8%88%EB%B9%9B%EC%95%BD%EA%B5%AD-%EC%84%9C%EC%9A%B8%ED%8A%B9%EB%B3%84%EC%8B%9C-%EB%8F%84%EB%B4%89%EA%B5%AC-%EC%B0%BD%EB%8F%99/", "workingTime": ["-", "09:00~20:30", "09:00~20:30", "09:00~20:30", "09:00~20:30", "09:00~20:30", "09:00~16:30", "-"]}, {"name": "\uc720\ub9bc\ub2f9\uc57d\uad6d", "lat": "37.65327350693994", "lng": "127.04079241809323", "url": "/info/%EC%9C%A0%EB%A6%BC%EB%8B%B9%EC%95%BD%EA%B5%AD-%EC%84%9C%EC%9A%B8%ED%8A%B9%EB%B3%84%EC%8B%9C-%EB%8F%84%EB%B4%89%EA%B5%AC-%EC%B0%BD%EB%8F%99/", "workingTime": ["1,2,3,4,5\uc9f8\uc8fc09:00~19:00", "09:00~20:00", "09:00~20:00", "09:00~20:00", "09:00~20:00", "09:00~20:00", "10:00~13:00", "09:00~19:00"]}, {"name": "\uc885\ub85c\ud504\ub77c\uc790\uc57d\uad6d", "lat": "37.65201623326576", "lng": "127.04673535078248", "url": "/info/%EC%A2%85%EB%A1%9C%ED%94%84%EB%9D%BC%EC%9E%90%EC%95%BD%EA%B5%AD-%EC%84%9C%EC%9A%B8%ED%8A%B9%EB%B3%84%EC%8B%9C-%EB%8F%84%EB%B4%89%EA%B5%AC-%EC%B0%BD%EB%8F%99/", "workingTime": ["1,2,3,4,5\uc9f8\uc8fc09:00~22:00", "09:00~22:00", "09:00~22:00", "09:00~22:00", "09:00~22:00", "09:00~22:00", "09:00~22:00", "-"]}, {"name": "\uba85\uc0b0\uc57d\uad6d", "lat": "37.65194238696446", "lng": "127.0510029007895", "url": "/info/%EB%AA%85%EC%82%B0%EC%95%BD%EA%B5%AD-%EC%84%9C%EC%9A%B8%ED%8A%B9%EB%B3%84%EC%8B%9C-%EB%8F%84%EB%B4%89%EA%B5%AC-%EC%B0%BD%EB%8F%99/", "workingTime": ["-", "09:00~20:00", "09:00~20:00", "09:00~20:00", "09:00~20:00", "09:00~20:00", "09:00~16:00", "-"]}, {"name": "\uba54\ub514\ud31c\ud070\uc0ac\ub791\uc57d\uad6d", "lat": "37.6489965199", "lng": "127.0352682103", "url": "/info/%EB%A9%94%EB%94%94%ED%8C%9C%ED%81%B0%EC%82%AC%EB%9E%91%EC%95%BD%EA%B5%AD-%EC%84%9C%EC%9A%B8%ED%8A%B9%EB%B3%84%EC%8B%9C-%EB%8F%84%EB%B4%89%EA%B5%AC-%EC%B0%BD%EB%8F%99/", "workingTime": ["1,2,3,4,5\uc9f8\uc8fc09:00~21:00", "09:00~21:00", "09:00~21:00", "09:00~21:00", "09:00~21:00", "09:00~21:00", "09:00~21:00", "09:00~21:00"]}]