[{"name": "\uc6b0\uc8fc\uc628\ub204\ub9ac\uc57d\uad6d", "lat": "37.59422788354347", "lng": "127.01590686088952", "url": "/info/%EC%9A%B0%EC%A3%BC%EC%98%A8%EB%88%84%EB%A6%AC%EC%95%BD%EA%B5%AD-%EC%84%9C%EC%9A%B8%ED%8A%B9%EB%B3%84%EC%8B%9C-%EC%84%B1%EB%B6%81%EA%B5%AC-%EB%8F%99%EC%86%8C%EB%AC%B8%EB%8F%996%EA%B0%80/", "workingTime": ["-", "08:30~19:30", "08:30~19:30", "08:30~19:30", "08:30~19:30", "08:30~19:30", "08:30~16:00", "-"]}, {"name": "\ud558\uc580\uc57d\uad6d", "lat": "37.59373052932028", "lng": "127.01597920232825", "url": "/info/%ED%95%98%EC%96%80%EC%95%BD%EA%B5%AD-%EC%84%9C%EC%9A%B8%ED%8A%B9%EB%B3%84%EC%8B%9C-%EC%84%B1%EB%B6%81%EA%B5%AC-%EB%8F%99%EC%86%8C%EB%AC%B8%EB%8F%996%EA%B0%80/", "workingTime": ["-", "09:00~19:00", "09:00~19:00", "09:00~19:00", "09:00~19:00", "09:00~19:00", "09:00~14:00", "-"]}, {"name": "\uac74\uac15\uc57d\uad6d", "lat": "37.592083857796375", "lng": "127.01318891301398", "url": "/info/%EA%B1%B4%EA%B0%95%EC%95%BD%EA%B5%AD-%EC%84%9C%EC%9A%B8%ED%8A%B9%EB%B3%84%EC%8B%9C-%EC%84%B1%EB%B6%81%EA%B5%AC-%EB%8F%99%EC%86%8C%EB%AC%B8%EB%8F%996%EA%B0%80/", "workingTime": ["-", "09:00~20:00", "09:00~20:00", "09:00~20:00", "09:00~20:00", "09:00~20:00", "09:00~18:00", "-"]}, {"name": "\uba54\ub514\uce7c\uc57d\uad6d", "lat": "37.59311782966887", "lng": "127.01614214380187", "url": "/info/%EB%A9%94%EB%94%94%EC%B9%BC%EC%95%BD%EA%B5%AD-%EC%84%9C%EC%9A%B8%ED%8A%B9%EB%B3%84%EC%8B%9C-%EC%84%B1%EB%B6%81%EA%B5%AC-%EB%8F%99%EC%86%8C%EB%AC%B8%EB%8F%996%EA%B0%80/", "workingTime": ["-", "09:00~21:00", "09:00~21:00", "09:00~21:00", "09:00~21:00", "09:00~21:00", "09:00~17:00", "-"]}, {"name": "\uc131\uc2e0\ud544\uc57d\uad6d", "lat": "37.593467508775", "lng": "127.016133819512", "url": "/info/%EC%84%B1%EC%8B%A0%ED%95%84%EC%95%BD%EA%B5%AD-%EC%84%9C%EC%9A%B8%ED%8A%B9%EB%B3%84%EC%8B%9C-%EC%84%B1%EB%B6%81%EA%B5%AC-%EB%8F%99%EC%86%8C%EB%AC%B8%EB%8F%996%EA%B0%80/", "workingTime": ["1,2,3,4,5\uc9f8\uc8fc08:00~18:00", "08:00~21:00", "08:00~21:00", "08:00~21:00", "08:00~21:00", "08:00~21:00", "08:00~21:00", "09:00~18:00"]}]