[{"name": "\uc870\uc544\uc57d\uad6d", "lat": "37.4599560487863", "lng": "126.896699156299", "url": "/info/%EC%A1%B0%EC%95%84%EC%95%BD%EA%B5%AD-%EC%84%9C%EC%9A%B8%ED%8A%B9%EB%B3%84%EC%8B%9C-%EA%B8%88%EC%B2%9C%EA%B5%AC-%EB%8F%85%EC%82%B0%EB%8F%99/", "workingTime": ["-", "08:30~18:40", "08:30~18:40", "08:30~18:40", "08:30~18:40", "08:30~18:40", "08:30~14:30", "-"]}, {"name": "\ub3c5\uc0b0\uba54\ub514\uce7c\uc57d\uad6d", "lat": "37.465850046386976", "lng": "126.9024616431506", "url": "/info/%EB%8F%85%EC%82%B0%EB%A9%94%EB%94%94%EC%B9%BC%EC%95%BD%EA%B5%AD-%EC%84%9C%EC%9A%B8%ED%8A%B9%EB%B3%84%EC%8B%9C-%EA%B8%88%EC%B2%9C%EA%B5%AC-%EB%8F%85%EC%82%B0%EB%8F%99/", "workingTime": ["-", "09:00~19:00", "09:00~19:00", "09:00~19:00", "09:00~19:00", "09:00~19:00", "09:00~20:00", "-"]}, {"name": "\uc608\ub2ee\uc57d\uad6d", "lat": "37.46981063636464", "lng": "126.89746759669399", "url": "/info/%EC%98%88%EB%8B%AE%EC%95%BD%EA%B5%AD-%EC%84%9C%EC%9A%B8%ED%8A%B9%EB%B3%84%EC%8B%9C-%EA%B8%88%EC%B2%9C%EA%B5%AC-%EB%8F%85%EC%82%B0%EB%8F%99/", "workingTime": ["1,2,3,4,5\uc9f8\uc8fc09:00~13:00", "08:00~20:00", "08:00~20:30", "08:00~19:30", "08:00~20:30", "08:00~19:30", "08:00~17:30", "-"]}, {"name": "\uc5ec\ub984\uc57d\uad6d", "lat": "37.4693591753013", "lng": "126.897001948519", "url": "/info/%EC%97%AC%EB%A6%84%EC%95%BD%EA%B5%AD-%EC%84%9C%EC%9A%B8%ED%8A%B9%EB%B3%84%EC%8B%9C-%EA%B8%88%EC%B2%9C%EA%B5%AC-%EB%8F%85%EC%82%B0%EB%8F%99/", "workingTime": ["-", "09:00~20:00", "09:00~21:00", "09:00~20:00", "09:00~21:00", "09:00~20:00", "09:00~14:00", "-"]}, {"name": "\ud604\ub300\uc57d\uad6d", "lat": "37.46892203057645", "lng": "126.89559369663635", "url": "/info/%ED%98%84%EB%8C%80%EC%95%BD%EA%B5%AD-%EC%84%9C%EC%9A%B8%ED%8A%B9%EB%B3%84%EC%8B%9C-%EA%B8%88%EC%B2%9C%EA%B5%AC-%EB%8F%85%EC%82%B0%EB%8F%99/", "workingTime": ["-", "08:30~20:00", "08:30~20:00", "08:30~20:00", "08:30~20:00", "08:30~20:00", "09:00~15:30", "-"]}, {"name": "\uc6b0\ub9ac\uce90\uc2ac\uc57d\uad6d", "lat": "37.4600250818", "lng": "126.8972336901", "url": "/info/%EC%9A%B0%EB%A6%AC%EC%BA%90%EC%8A%AC%EC%95%BD%EA%B5%AD-%EC%84%9C%EC%9A%B8%ED%8A%B9%EB%B3%84%EC%8B%9C-%EA%B8%88%EC%B2%9C%EA%B5%AC-%EB%8F%85%EC%82%B0%EB%8F%99/", "workingTime": ["1,3,5\uc9f8\uc8fc10:00~22:00", "10:00~22:00", "10:00~22:00", "10:00~22:00", "10:00~22:00", "10:00~22:00", "10:00~22:00", "10:00~22:00"]}, {"name": "\ub86f\ub370\ud504\ub77c\uc790\uc57d\uad6d", "lat": "37.4600252634067", "lng": "126.897235272302", "url": "/info/%EB%A1%AF%EB%8D%B0%ED%94%84%EB%9D%BC%EC%9E%90%EC%95%BD%EA%B5%AD-%EC%84%9C%EC%9A%B8%ED%8A%B9%EB%B3%84%EC%8B%9C-%EA%B8%88%EC%B2%9C%EA%B5%AC-%EB%8F%85%EC%82%B0%EB%8F%99/", "workingTime": ["-", "08:30~19:30", "08:30~19:30", "08:30~19:30", "08:30~19:30", "08:30~19:30", "08:30~14:30", "-"]}, {"name": "\ub3d9\uc544\uc628\ub204\ub9ac\uc57d\uad6d", "lat": "37.4666937123822", "lng": "126.897308890065", "url": "/info/%EB%8F%99%EC%95%84%EC%98%A8%EB%88%84%EB%A6%AC%EC%95%BD%EA%B5%AD-%EC%84%9C%EC%9A%B8%ED%8A%B9%EB%B3%84%EC%8B%9C-%EA%B8%88%EC%B2%9C%EA%B5%AC-%EB%8F%85%EC%82%B0%EB%8F%99/", "workingTime": ["-", "09:00~20:30", "09:00~20:30", "09:00~20:30", "09:00~20:30", "09:00~20:30", "09:00~19:00", "-"]}, {"name": "\ud2bc\ud2bc\uc628\ub204\ub9ac\uc57d\uad6d", "lat": "37.4600252634067", "lng": "126.897235272302", "url": "/info/%ED%8A%BC%ED%8A%BC%EC%98%A8%EB%88%84%EB%A6%AC%EC%95%BD%EA%B5%AD-%EC%84%9C%EC%9A%B8%ED%8A%B9%EB%B3%84%EC%8B%9C-%EA%B8%88%EC%B2%9C%EA%B5%AC-%EB%8F%85%EC%82%B0%EB%8F%99/", "workingTime": ["-", "08:30~19:30", "08:30~19:30", "08:30~19:30", "08:30~19:30", "08:30~19:30", "08:30~15:00", "-"]}, {"name": "\ub300\uc9c0\uc57d\uad6d", "lat": "37.46923798859278", "lng": "126.90263358877644", "url": "/info/%EB%8C%80%EC%A7%80%EC%95%BD%EA%B5%AD-%EC%84%9C%EC%9A%B8%ED%8A%B9%EB%B3%84%EC%8B%9C-%EA%B8%88%EC%B2%9C%EA%B5%AC-%EB%8F%85%EC%82%B0%EB%8F%99/", "workingTime": ["-", "09:00~19:00", "09:00~19:00", "09:00~19:00", "09:00~19:00", "09:00~19:00", "09:00~20:00", "-"]}, {"name": "\ub300\uc81c\uc77c\uc57d\uad6d", "lat": "37.47235210597838", "lng": "126.90240648883962", "url": "/info/%EB%8C%80%EC%A0%9C%EC%9D%BC%EC%95%BD%EA%B5%AD-%EC%84%9C%EC%9A%B8%ED%8A%B9%EB%B3%84%EC%8B%9C-%EA%B8%88%EC%B2%9C%EA%B5%AC-%EB%8F%85%EC%82%B0%EB%8F%99/", "workingTime": ["-", "09:00~20:00", "09:00~20:00", "09:00~20:00", "09:00~20:00", "09:00~20:00", "-", "-"]}, {"name": "\ub2e4\uc6d0\uc57d\uad6d", "lat": "37.4738856522298", "lng": "126.900879351408", "url": "/info/%EB%8B%A4%EC%9B%90%EC%95%BD%EA%B5%AD-%EC%84%9C%EC%9A%B8%ED%8A%B9%EB%B3%84%EC%8B%9C-%EA%B8%88%EC%B2%9C%EA%B5%AC-%EB%8F%85%EC%82%B0%EB%8F%99/", "workingTime": ["-", "08:00~18:00", "08:00~18:00", "08:00~18:00", "08:00~18:00", "08:00~18:00", "08:00~13:00", "-"]}, {"name": "\uc870\uc740\uc57d\uad6d", "lat": "37.471161927624", "lng": "126.897740718324", "url": "/info/%EC%A1%B0%EC%9D%80%EC%95%BD%EA%B5%AD-%EC%84%9C%EC%9A%B8%ED%8A%B9%EB%B3%84%EC%8B%9C-%EA%B8%88%EC%B2%9C%EA%B5%AC-%EB%8F%85%EC%82%B0%EB%8F%99/", "workingTime": ["-", "09:00~19:00", "09:00~19:00", "09:00~19:00", "09:00~19:00", "09:00~19:00", "09:00~14:00", "-"]}, {"name": "\uc815\uc57d\uad6d", "lat": "37.4699072103", "lng": "126.897048336", "url": "/info/%EC%A0%95%EC%95%BD%EA%B5%AD-%EC%84%9C%EC%9A%B8%ED%8A%B9%EB%B3%84%EC%8B%9C-%EA%B8%88%EC%B2%9C%EA%B5%AC-%EB%8F%85%EC%82%B0%EB%8F%99/", "workingTime": ["-", "09:00~20:00", "09:00~20:00", "09:00~20:00", "09:00~20:00", "09:00~20:00", "09:00~17:00", "-"]}, {"name": "\uc815\uba85\uc57d\uad6d", "lat": "37.4694033834484", "lng": "126.89746816112404", "url": "/info/%EC%A0%95%EB%AA%85%EC%95%BD%EA%B5%AD-%EC%84%9C%EC%9A%B8%ED%8A%B9%EB%B3%84%EC%8B%9C-%EA%B8%88%EC%B2%9C%EA%B5%AC-%EB%8F%85%EC%82%B0%EB%8F%99/", "workingTime": ["-", "09:00~19:30", "09:00~19:30", "09:00~19:30", "09:00~19:30", "09:00~19:30", "09:00~15:00", "-"]}, {"name": "\uba85\uc57d\uad6d", "lat": "37.47599350012073", "lng": "126.89805974975795", "url": "/info/%EB%AA%85%EC%95%BD%EA%B5%AD-%EC%84%9C%EC%9A%B8%ED%8A%B9%EB%B3%84%EC%8B%9C-%EA%B8%88%EC%B2%9C%EA%B5%AC-%EB%8F%85%EC%82%B0%EB%8F%99/", "workingTime": ["-", "09:00~20:00", "09:00~20:00", "09:00~20:00", "09:00~20:00", "09:00~20:00", "09:00~16:00", "-"]}, {"name": "\uc138\uc885\uc57d\uad6d", "lat": "37.46468060917196", "lng": "126.90256265479087", "url": "/info/%EC%84%B8%EC%A2%85%EC%95%BD%EA%B5%AD-%EC%84%9C%EC%9A%B8%ED%8A%B9%EB%B3%84%EC%8B%9C-%EA%B8%88%EC%B2%9C%EA%B5%AC-%EB%8F%85%EC%82%B0%EB%8F%99/", "workingTime": ["1,2,3,4,5\uc9f8\uc8fc10:00~14:00", "09:00~20:30", "09:00~20:30", "09:00~20:30", "09:00~20:30", "09:00~20:30", "08:30~19:00", "-"]}, {"name": "\uac15\ub0a8\uc57d\uad6d", "lat": "37.47945973311692", "lng": "126.90347505081421", "url": "/info/%EA%B0%95%EB%82%A8%EC%95%BD%EA%B5%AD-%EC%84%9C%EC%9A%B8%ED%8A%B9%EB%B3%84%EC%8B%9C-%EA%B8%88%EC%B2%9C%EA%B5%AC-%EB%8F%85%EC%82%B0%EB%8F%99/", "workingTime": ["-", "09:00~18:00", "09:00~18:00", "09:00~18:00", "09:00~18:00", "09:00~18:00", "-", "-"]}, {"name": "\uae30\ubd84\uc88b\uc740\uc57d\uad6d", "lat": "37.4727833689", "lng": "126.8972026592", "url": "/info/%EA%B8%B0%EB%B6%84%EC%A2%8B%EC%9D%80%EC%95%BD%EA%B5%AD-%EC%84%9C%EC%9A%B8%ED%8A%B9%EB%B3%84%EC%8B%9C-%EA%B8%88%EC%B2%9C%EA%B5%AC-%EB%8F%85%EC%82%B0%EB%8F%99/", "workingTime": ["-", "09:00~18:30", "09:00~18:30", "09:00~18:30", "09:00~18:30", "09:00~18:30", "09:00~13:30", "-"]}, {"name": "\uadf8\ub9b0\uc57d\uad6d", "lat": "37.4738655456", "lng": "126.902595932", "url": "/info/%EA%B7%B8%EB%A6%B0%EC%95%BD%EA%B5%AD-%EC%84%9C%EC%9A%B8%ED%8A%B9%EB%B3%84%EC%8B%9C-%EA%B8%88%EC%B2%9C%EA%B5%AC-%EB%8F%85%EC%82%B0%EB%8F%99/", "workingTime": ["-", "09:00~20:30", "09:00~20:30", "09:00~20:30", "09:00~20:30", "09:00~20:30", "09:00~20:30", "-"]}, {"name": "\ub0a8\ubb38\ud504\ub77c\uc790\uc57d\uad6d", "lat": "37.47256875481853", "lng": "126.89866659730069", "url": "/info/%EB%82%A8%EB%AC%B8%ED%94%84%EB%9D%BC%EC%9E%90%EC%95%BD%EA%B5%AD-%EC%84%9C%EC%9A%B8%ED%8A%B9%EB%B3%84%EC%8B%9C-%EA%B8%88%EC%B2%9C%EA%B5%AC-%EB%8F%85%EC%82%B0%EB%8F%99/", "workingTime": ["1,2,3,4,5\uc9f8\uc8fc09:00~20:00", "08:30~21:00", "08:30~21:00", "08:30~21:00", "08:30~21:00", "08:30~21:00", "08:30~21:00", "09:00~20:30"]}, {"name": "\uad7f\ubaa8\ub2dd\uc57d\uad6d", "lat": "37.479629700225686", "lng": "126.90419390708149", "url": "/info/%EA%B5%BF%EB%AA%A8%EB%8B%9D%EC%95%BD%EA%B5%AD-%EC%84%9C%EC%9A%B8%ED%8A%B9%EB%B3%84%EC%8B%9C-%EA%B8%88%EC%B2%9C%EA%B5%AC-%EB%8F%85%EC%82%B0%EB%8F%99/", "workingTime": ["1,3,5\uc9f8\uc8fc10:30~13:30", "09:00~19:30", "09:00~19:30", "09:00~19:30", "09:00~19:30", "09:00~19:30", "09:00~14:00", "-"]}, {"name": "\ud1a0\ub9c8\uc2a4\uc57d\uad6d", "lat": "37.4677721384647", "lng": "126.89903941840743", "url": "/info/%ED%86%A0%EB%A7%88%EC%8A%A4%EC%95%BD%EA%B5%AD-%EC%84%9C%EC%9A%B8%ED%8A%B9%EB%B3%84%EC%8B%9C-%EA%B8%88%EC%B2%9C%EA%B5%AC-%EB%8F%85%EC%82%B0%EB%8F%99/", "workingTime": ["1,2,3,4,5\uc9f8\uc8fc09:00~21:00", "09:00~21:00", "09:00~21:00", "09:00~21:00", "09:00~21:00", "09:00~21:00", "08:00~20:00", "09:00~21:30"]}, {"name": "\ubb34\ub9bc\uc57d\uad6d", "lat": "37.469663888888888", "lng": "126.898455555555557", "url": "/info/%EB%AC%B4%EB%A6%BC%EC%95%BD%EA%B5%AD-%EC%84%9C%EC%9A%B8%ED%8A%B9%EB%B3%84%EC%8B%9C-%EA%B8%88%EC%B2%9C%EA%B5%AC-%EB%8F%85%EC%82%B0%EB%8F%99/", "workingTime": ["-", "09:00~21:00", "09:00~21:00", "09:00~21:00", "09:00~21:00", "09:00~21:00", "09:00~21:00", "-"]}, {"name": "\uc18c\ub9dd\uc57d\uad6d", "lat": "37.469080555555557", "lng": "126.901422222222223", "url": "/info/%EC%86%8C%EB%A7%9D%EC%95%BD%EA%B5%AD-%EC%84%9C%EC%9A%B8%ED%8A%B9%EB%B3%84%EC%8B%9C-%EA%B8%88%EC%B2%9C%EA%B5%AC-%EB%8F%85%EC%82%B0%EB%8F%99/", "workingTime": ["-", "10:00~20:00", "10:00~20:00", "10:00~20:00", "10:00~20:00", "10:00~20:00", "10:00~15:00", "-"]}, {"name": "\ubd80\uc790\uc57d\uad6d", "lat": "37.466656851999964", "lng": "126.89315389981337", "url": "/info/%EB%B6%80%EC%9E%90%EC%95%BD%EA%B5%AD-%EC%84%9C%EC%9A%B8%ED%8A%B9%EB%B3%84%EC%8B%9C-%EA%B8%88%EC%B2%9C%EA%B5%AC-%EB%8F%85%EC%82%B0%EB%8F%99/", "workingTime": ["-", "08:30~19:50", "08:30~19:50", "08:30~19:50", "08:30~19:50", "08:30~19:50", "08:30~14:00", "08:30~14:00"]}, {"name": "\uac74\uac15\ud50c\ub7ec\uc2a4\uc57d\uad6d", "lat": "37.468663675397984", "lng": "126.89688726043005", "url": "/info/%EA%B1%B4%EA%B0%95%ED%94%8C%EB%9F%AC%EC%8A%A4%EC%95%BD%EA%B5%AD-%EC%84%9C%EC%9A%B8%ED%8A%B9%EB%B3%84%EC%8B%9C-%EA%B8%88%EC%B2%9C%EA%B5%AC-%EB%8F%85%EC%82%B0%EB%8F%99/", "workingTime": ["1,3\uc9f8\uc8fc10:00~22:30", "10:00~22:00", "10:00~22:00", "10:00~22:00", "10:00~22:00", "10:00~22:00", "10:00~22:00", "10:00~22:30"]}, {"name": "\uc815\uc9c4\uc57d\uad6d", "lat": "37.46535368205902", "lng": "126.90368311203379", "url": "/info/%EC%A0%95%EC%A7%84%EC%95%BD%EA%B5%AD-%EC%84%9C%EC%9A%B8%ED%8A%B9%EB%B3%84%EC%8B%9C-%EA%B8%88%EC%B2%9C%EA%B5%AC-%EB%8F%85%EC%82%B0%EB%8F%99/", "workingTime": ["1,2,3,4,5\uc9f8\uc8fc13:00~21:00", "09:00~22:00", "09:00~22:00", "09:00~22:00", "09:00~22:00", "09:00~22:00", "09:00~21:00", "-"]}, {"name": "\uc774\ud654\uc57d\uad6d", "lat": "37.47234147958142", "lng": "126.90262807495856", "url": "/info/%EC%9D%B4%ED%99%94%EC%95%BD%EA%B5%AD-%EC%84%9C%EC%9A%B8%ED%8A%B9%EB%B3%84%EC%8B%9C-%EA%B8%88%EC%B2%9C%EA%B5%AC-%EB%8F%85%EC%82%B0%EB%8F%99/", "workingTime": ["-", "08:30~21:00", "08:30~21:00", "08:30~21:00", "08:30~21:00", "08:30~21:00", "08:30~21:30", "-"]}, {"name": "\uc720\uc544\uc57d\uad6d", "lat": "37.46460625593491", "lng": "126.89852453144063", "url": "/info/%EC%9C%A0%EC%95%84%EC%95%BD%EA%B5%AD-%EC%84%9C%EC%9A%B8%ED%8A%B9%EB%B3%84%EC%8B%9C-%EA%B8%88%EC%B2%9C%EA%B5%AC-%EB%8F%85%EC%82%B0%EB%8F%99/", "workingTime": ["1,2,3,4,5\uc9f8\uc8fc10:00~21:00", "09:00~22:00", "09:00~22:00", "09:00~22:00", "09:00~22:00", "09:00~22:00", "10:00~21:00", "-"]}]