[{"name": "\uc591\uc7ac\ubbf8\uc18c\uc57d\uad6d", "lat": "37.4849649737", "lng": "127.0347567814", "url": "/info/%EC%96%91%EC%9E%AC%EB%AF%B8%EC%86%8C%EC%95%BD%EA%B5%AD-%EC%84%9C%EC%9A%B8%ED%8A%B9%EB%B3%84%EC%8B%9C-%EA%B0%95%EB%82%A8%EA%B5%AC-%EB%8F%84%EA%B3%A1%EB%8F%99/", "workingTime": ["-", "09:00~19:30", "09:00~19:30", "09:00~19:30", "09:00~19:30", "09:00~19:30", "09:00~13:30", "-"]}, {"name": "\uc2a4\ud1a0\ub9ac\uc57d\uad6d", "lat": "37.4865116633857", "lng": "127.035898932302", "url": "/info/%EC%8A%A4%ED%86%A0%EB%A6%AC%EC%95%BD%EA%B5%AD-%EC%84%9C%EC%9A%B8%ED%8A%B9%EB%B3%84%EC%8B%9C-%EA%B0%95%EB%82%A8%EA%B5%AC-%EB%8F%84%EA%B3%A1%EB%8F%99/", "workingTime": ["1,2,3,4,5\uc9f8\uc8fc09:00~21:00", "09:00~21:00", "09:00~21:00", "-", "09:00~21:00", "09:00~21:00", "09:00~21:00", "-"]}, {"name": "\uc2a4\ud0c0\uc57d\uad6d", "lat": "37.48514329210783", "lng": "127.0357580852407", "url": "/info/%EC%8A%A4%ED%83%80%EC%95%BD%EA%B5%AD-%EC%84%9C%EC%9A%B8%ED%8A%B9%EB%B3%84%EC%8B%9C-%EA%B0%95%EB%82%A8%EA%B5%AC-%EB%8F%84%EA%B3%A1%EB%8F%99/", "workingTime": ["-", "08:30~18:00", "08:30~18:00", "08:30~18:00", "08:30~18:00", "08:30~18:00", "08:30~13:00", "-"]}, {"name": "\ud574\ub9d1\uc740\uc57d\uad6d", "lat": "37.4860941694859", "lng": "127.0377032844159", "url": "/info/%ED%95%B4%EB%A7%91%EC%9D%80%EC%95%BD%EA%B5%AD-%EC%84%9C%EC%9A%B8%ED%8A%B9%EB%B3%84%EC%8B%9C-%EA%B0%95%EB%82%A8%EA%B5%AC-%EB%8F%84%EA%B3%A1%EB%8F%99/", "workingTime": ["1,2,3,4,5\uc9f8\uc8fc13:00~20:00", "09:00~22:00", "09:00~22:00", "09:00~22:00", "09:00~22:00", "09:00~22:00", "09:00~22:00", "-"]}, {"name": "\ub3c4\uc138\uc601\uc57d\uad6d", "lat": "37.4863549678", "lng": "127.0385067948", "url": "/info/%EB%8F%84%EC%84%B8%EC%98%81%EC%95%BD%EA%B5%AD-%EC%84%9C%EC%9A%B8%ED%8A%B9%EB%B3%84%EC%8B%9C-%EA%B0%95%EB%82%A8%EA%B5%AC-%EB%8F%84%EA%B3%A1%EB%8F%99/", "workingTime": ["-", "09:30~21:00", "09:30~21:00", "09:30~21:00", "09:30~21:00", "09:30~21:00", "09:30~20:00", "-"]}, {"name": "\ub3c4\uace1\ud0c0\uc6cc\uc57d\uad6d", "lat": "37.4888654078", "lng": "127.0520135015", "url": "/info/%EB%8F%84%EA%B3%A1%ED%83%80%EC%9B%8C%EC%95%BD%EA%B5%AD-%EC%84%9C%EC%9A%B8%ED%8A%B9%EB%B3%84%EC%8B%9C-%EA%B0%95%EB%82%A8%EA%B5%AC-%EB%8F%84%EA%B3%A1%EB%8F%99/", "workingTime": ["1,2,3,4,5\uc9f8\uc8fc10:30~21:30", "10:00~21:50", "10:00~21:50", "10:00~21:50", "10:00~21:50", "10:00~21:50", "10:00~21:30", "10:30~21:30"]}, {"name": "\ub3c4\uace1\uba85\uc57d\uad6d", "lat": "37.4920702704886", "lng": "127.042114305173", "url": "/info/%EB%8F%84%EA%B3%A1%EB%AA%85%EC%95%BD%EA%B5%AD-%EC%84%9C%EC%9A%B8%ED%8A%B9%EB%B3%84%EC%8B%9C-%EA%B0%95%EB%82%A8%EA%B5%AC-%EB%8F%84%EA%B3%A1%EB%8F%99/", "workingTime": ["-", "09:00~20:00", "09:00~19:00", "09:00~19:00", "09:00~19:00", "09:00~19:00", "09:00~16:00", "-"]}, {"name": "\ucf54\ucf54\uc57d\uad6d", "lat": "37.48433053781954", "lng": "127.04571032072417", "url": "/info/%EC%BD%94%EC%BD%94%EC%95%BD%EA%B5%AD-%EC%84%9C%EC%9A%B8%ED%8A%B9%EB%B3%84%EC%8B%9C-%EA%B0%95%EB%82%A8%EA%B5%AC-%EB%8F%84%EA%B3%A1%EB%8F%99/", "workingTime": ["-", "09:00~19:00", "09:00~19:00", "09:00~19:00", "09:00~19:00", "09:00~19:00", "09:00~16:00", "-"]}, {"name": "\uc815\uc131\uc628\ub204\ub9ac\uc57d\uad6d", "lat": "37.4898307667", "lng": "127.0335468794", "url": "/info/%EC%A0%95%EC%84%B1%EC%98%A8%EB%88%84%EB%A6%AC%EC%95%BD%EA%B5%AD-%EC%84%9C%EC%9A%B8%ED%8A%B9%EB%B3%84%EC%8B%9C-%EA%B0%95%EB%82%A8%EA%B5%AC-%EB%8F%84%EA%B3%A1%EB%8F%99/", "workingTime": ["-", "08:00~20:00", "08:00~20:00", "08:00~20:00", "08:00~20:00", "08:00~20:00", "08:00~17:00", "-"]}, {"name": "\uc194\ube5b\ub3d9\uc591\uc57d\uad6d", "lat": "37.4873374952", "lng": "127.0515646829", "url": "/info/%EC%86%94%EB%B9%9B%EB%8F%99%EC%96%91%EC%95%BD%EA%B5%AD-%EC%84%9C%EC%9A%B8%ED%8A%B9%EB%B3%84%EC%8B%9C-%EA%B0%95%EB%82%A8%EA%B5%AC-%EB%8F%84%EA%B3%A1%EB%8F%99/", "workingTime": ["-", "09:00~20:30", "09:00~20:30", "09:00~20:30", "09:00~20:30", "09:00~20:30", "09:00~19:30", "-"]}, {"name": "\uc0db\ubcc4\uc57d\uad6d", "lat": "37.4854543685", "lng": "127.0372309291", "url": "/info/%EC%83%9B%EB%B3%84%EC%95%BD%EA%B5%AD-%EC%84%9C%EC%9A%B8%ED%8A%B9%EB%B3%84%EC%8B%9C-%EA%B0%95%EB%82%A8%EA%B5%AC-%EB%8F%84%EA%B3%A1%EB%8F%99/", "workingTime": ["-", "09:00~19:00", "09:00~19:00", "09:00~19:00", "09:00~19:00", "09:00~19:00", "09:00~13:00", "-"]}, {"name": "\ub2e4\ub098\uc57d\uad6d", "lat": "37.4864266471287", "lng": "127.04428127309", "url": "/info/%EB%8B%A4%EB%82%98%EC%95%BD%EA%B5%AD-%EC%84%9C%EC%9A%B8%ED%8A%B9%EB%B3%84%EC%8B%9C-%EA%B0%95%EB%82%A8%EA%B5%AC-%EB%8F%84%EA%B3%A1%EB%8F%99/", "workingTime": ["-", "09:00~18:00", "09:00~18:00", "09:00~18:00", "09:00~18:00", "09:00~18:00", "09:00~15:00", "-"]}, {"name": "\ub2e4\uc2dc\ubd04\uc57d\uad6d", "lat": "37.489109180937", "lng": "127.052914072356", "url": "/info/%EB%8B%A4%EC%8B%9C%EB%B4%84%EC%95%BD%EA%B5%AD-%EC%84%9C%EC%9A%B8%ED%8A%B9%EB%B3%84%EC%8B%9C-%EA%B0%95%EB%82%A8%EA%B5%AC-%EB%8F%84%EA%B3%A1%EB%8F%99/", "workingTime": ["-", "10:10~20:00", "10:10~20:00", "10:10~20:00", "10:10~20:00", "10:10~20:00", "09:30~15:30", "-"]}, {"name": "\uac15\ub0a8\uc870\uc740\uc57d\uad6d", "lat": "37.4855940073542", "lng": "127.037570654332", "url": "/info/%EA%B0%95%EB%82%A8%EC%A1%B0%EC%9D%80%EC%95%BD%EA%B5%AD-%EC%84%9C%EC%9A%B8%ED%8A%B9%EB%B3%84%EC%8B%9C-%EA%B0%95%EB%82%A8%EA%B5%AC-%EB%8F%84%EA%B3%A1%EB%8F%99/", "workingTime": ["-", "08:30~18:00", "08:30~18:00", "08:30~18:00", "08:30~18:00", "08:30~18:00", "08:30~14:00", "-"]}, {"name": "\ub3c4\uace1\uc57d\uad6d", "lat": "37.4820341305202", "lng": "127.043336869877", "url": "/info/%EB%8F%84%EA%B3%A1%EC%95%BD%EA%B5%AD-%EC%84%9C%EC%9A%B8%ED%8A%B9%EB%B3%84%EC%8B%9C-%EA%B0%95%EB%82%A8%EA%B5%AC-%EB%8F%84%EA%B3%A1%EB%8F%99/", "workingTime": ["-", "09:00~20:00", "09:00~20:00", "09:00~19:00", "09:00~19:00", "09:00~19:00", "09:00~14:00", "-"]}, {"name": "\ud55c\ud2f0\uc57d\uad6d", "lat": "37.495349589658225", "lng": "127.05282542838968", "url": "/info/%ED%95%9C%ED%8B%B0%EC%95%BD%EA%B5%AD-%EC%84%9C%EC%9A%B8%ED%8A%B9%EB%B3%84%EC%8B%9C-%EA%B0%95%EB%82%A8%EA%B5%AC-%EB%8F%84%EA%B3%A1%EB%8F%99/", "workingTime": ["-", "09:00~21:00", "09:00~21:00", "09:00~21:00", "09:00~21:00", "09:00~21:00", "09:00~19:30", "-"]}, {"name": "\uc6b0\ub9ac\ub4e4\uc57d\uad6d", "lat": "37.4851916952661", "lng": "127.03586946854884", "url": "/info/%EC%9A%B0%EB%A6%AC%EB%93%A4%EC%95%BD%EA%B5%AD-%EC%84%9C%EC%9A%B8%ED%8A%B9%EB%B3%84%EC%8B%9C-%EA%B0%95%EB%82%A8%EA%B5%AC-%EB%8F%84%EA%B3%A1%EB%8F%99/", "workingTime": ["-", "08:30~20:00", "08:30~20:00", "08:30~20:00", "08:30~20:00", "08:30~20:00", "08:30~17:00", "-"]}, {"name": "\uc11c\uc774\uc57d\uad6d", "lat": "37.48874815541972", "lng": "127.05321348467845", "url": "/info/%EC%84%9C%EC%9D%B4%EC%95%BD%EA%B5%AD-%EC%84%9C%EC%9A%B8%ED%8A%B9%EB%B3%84%EC%8B%9C-%EA%B0%95%EB%82%A8%EA%B5%AC-%EB%8F%84%EA%B3%A1%EB%8F%99/", "workingTime": ["1,2,3,4,5\uc9f8\uc8fc10:00~14:00", "09:00~19:00", "09:00~19:00", "09:00~19:00", "09:00~19:00", "09:00~19:00", "09:00~17:00", "-"]}, {"name": "\uc591\uc7ac\uc18c\ud654\uc57d\uad6d", "lat": "37.48637165694103", "lng": "127.03777125914866", "url": "/info/%EC%96%91%EC%9E%AC%EC%86%8C%ED%99%94%EC%95%BD%EA%B5%AD-%EC%84%9C%EC%9A%B8%ED%8A%B9%EB%B3%84%EC%8B%9C-%EA%B0%95%EB%82%A8%EA%B5%AC-%EB%8F%84%EA%B3%A1%EB%8F%99/", "workingTime": ["-", "09:00~21:30", "09:00~21:30", "09:00~21:30", "09:00~21:30", "09:00~21:30", "09:00~21:30", "-"]}, {"name": "\uc57d\uc190\uba54\ub514\uce7c\uc57d\uad6d", "lat": "37.49583888247608", "lng": "127.05273754751947", "url": "/info/%EC%95%BD%EC%86%90%EB%A9%94%EB%94%94%EC%B9%BC%EC%95%BD%EA%B5%AD-%EC%84%9C%EC%9A%B8%ED%8A%B9%EB%B3%84%EC%8B%9C-%EA%B0%95%EB%82%A8%EA%B5%AC-%EB%8F%84%EA%B3%A1%EB%8F%99/", "workingTime": ["-", "09:00~22:00", "09:00~22:00", "09:00~22:00", "09:00~22:00", "09:00~22:00", "-", "-"]}, {"name": "\uba54\ud2b8\ub85c\uc57d\uad6d", "lat": "37.48814157952643", "lng": "127.05067423037542", "url": "/info/%EB%A9%94%ED%8A%B8%EB%A1%9C%EC%95%BD%EA%B5%AD-%EC%84%9C%EC%9A%B8%ED%8A%B9%EB%B3%84%EC%8B%9C-%EA%B0%95%EB%82%A8%EA%B5%AC-%EB%8F%84%EA%B3%A1%EB%8F%99/", "workingTime": ["-", "09:30~21:00", "09:30~21:00", "09:30~21:00", "09:30~21:00", "09:30~21:00", "-", "-"]}, {"name": "\uba54\ub514\ud53c\uc544\uc57d\uad6d", "lat": "37.4853724258", "lng": "127.0340830875", "url": "/info/%EB%A9%94%EB%94%94%ED%94%BC%EC%95%84%EC%95%BD%EA%B5%AD-%EC%84%9C%EC%9A%B8%ED%8A%B9%EB%B3%84%EC%8B%9C-%EA%B0%95%EB%82%A8%EA%B5%AC-%EB%8F%84%EA%B3%A1%EB%8F%99/", "workingTime": ["-", "08:30~22:00", "08:30~22:00", "08:30~22:00", "08:30~22:00", "08:30~22:00", "08:30~22:00", "10:00~18:00"]}, {"name": "\uba54\ub514\ud31c\uc815\uc5f0\uc57d\uad6d", "lat": "37.48647739858547", "lng": "127.03352898676388", "url": "/info/%EB%A9%94%EB%94%94%ED%8C%9C%EC%A0%95%EC%97%B0%EC%95%BD%EA%B5%AD-%EC%84%9C%EC%9A%B8%ED%8A%B9%EB%B3%84%EC%8B%9C-%EA%B0%95%EB%82%A8%EA%B5%AC-%EB%8F%84%EA%B3%A1%EB%8F%99/", "workingTime": ["-", "08:30~20:30", "08:30~20:30", "08:30~20:30", "08:30~20:30", "08:30~20:30", "08:30~17:00", "-"]}, {"name": "\uba54\ub514\uce7c\ud558\ub298\uc57d\uad6d", "lat": "37.4849612694", "lng": "127.0350959805", "url": "/info/%EB%A9%94%EB%94%94%EC%B9%BC%ED%95%98%EB%8A%98%EC%95%BD%EA%B5%AD-%EC%84%9C%EC%9A%B8%ED%8A%B9%EB%B3%84%EC%8B%9C-%EA%B0%95%EB%82%A8%EA%B5%AC-%EB%8F%84%EA%B3%A1%EB%8F%99/", "workingTime": ["-", "09:30~18:00", "09:30~19:30", "09:30~19:30", "09:30~19:30", "09:30~19:30", "09:30~16:30", "-"]}, {"name": "\ub3c4\uace1\uc6b0\ub9ac\uc57d\uad6d", "lat": "37.49537036519703", "lng": "127.05272364815029", "url": "/info/%EB%8F%84%EA%B3%A1%EC%9A%B0%EB%A6%AC%EC%95%BD%EA%B5%AD-%EC%84%9C%EC%9A%B8%ED%8A%B9%EB%B3%84%EC%8B%9C-%EA%B0%95%EB%82%A8%EA%B5%AC-%EB%8F%84%EA%B3%A1%EB%8F%99/", "workingTime": ["-", "09:00~18:30", "09:00~18:30", "09:00~18:30", "09:00~18:30", "09:00~18:30", "09:00~14:00", "-"]}, {"name": "\ub3c4\uace1\uba54\ub514\uce7c\uc57d\uad6d", "lat": "37.49371869866921", "lng": "127.04657997395316", "url": "/info/%EB%8F%84%EA%B3%A1%EB%A9%94%EB%94%94%EC%B9%BC%EC%95%BD%EA%B5%AD-%EC%84%9C%EC%9A%B8%ED%8A%B9%EB%B3%84%EC%8B%9C-%EA%B0%95%EB%82%A8%EA%B5%AC-%EB%8F%84%EA%B3%A1%EB%8F%99/", "workingTime": ["-", "08:30~18:30", "08:30~18:30", "08:30~18:30", "08:30~18:30", "08:30~18:30", "09:00~13:00", "-"]}, {"name": "\uac15\ub0a8\uad7f\ubaa8\ub2dd\uc57d\uad6d", "lat": "37.4851916952661", "lng": "127.03586946854884", "url": "/info/%EA%B0%95%EB%82%A8%EA%B5%BF%EB%AA%A8%EB%8B%9D%EC%95%BD%EA%B5%AD-%EC%84%9C%EC%9A%B8%ED%8A%B9%EB%B3%84%EC%8B%9C-%EA%B0%95%EB%82%A8%EA%B5%AC-%EB%8F%84%EA%B3%A1%EB%8F%99/", "workingTime": ["-", "09:40~20:00", "09:40~20:00", "09:40~20:00", "09:40~20:00", "09:40~20:00", "09:40~20:00", "-"]}]