[{"name": "\uc0d8\uc57d\uad6d", "lat": "37.4934565338024", "lng": "126.904143886913", "url": "/info/%EC%83%98%EC%95%BD%EA%B5%AD-%EC%84%9C%EC%9A%B8%ED%8A%B9%EB%B3%84%EC%8B%9C-%EC%98%81%EB%93%B1%ED%8F%AC%EA%B5%AC-%EB%8C%80%EB%A6%BC%EB%8F%99/", "workingTime": ["-", "08:30~19:00", "08:30~19:00", "08:30~19:00", "08:30~15:00", "08:30~19:00", "08:30~15:00", "-"]}, {"name": "\uc548\uac15\uc628\ub204\ub9ac\uc57d\uad6d", "lat": "37.4889305653551", "lng": "126.89891959717", "url": "/info/%EC%95%88%EA%B0%95%EC%98%A8%EB%88%84%EB%A6%AC%EC%95%BD%EA%B5%AD-%EC%84%9C%EC%9A%B8%ED%8A%B9%EB%B3%84%EC%8B%9C-%EC%98%81%EB%93%B1%ED%8F%AC%EA%B5%AC-%EB%8C%80%EB%A6%BC%EB%8F%99/", "workingTime": ["1,2,3,4,5\uc9f8\uc8fc10:30~18:30", "09:00~18:30", "09:00~18:30", "-", "09:00~18:30", "09:00~18:30", "09:00~18:30", "-"]}, {"name": "\uc2e0\uc138\uacc4\uc57d\uad6d", "lat": "37.492063400803744", "lng": "126.90846591064411", "url": "/info/%EC%8B%A0%EC%84%B8%EA%B3%84%EC%95%BD%EA%B5%AD-%EC%84%9C%EC%9A%B8%ED%8A%B9%EB%B3%84%EC%8B%9C-%EC%98%81%EB%93%B1%ED%8F%AC%EA%B5%AC-%EB%8C%80%EB%A6%BC%EB%8F%99/", "workingTime": ["-", "08:30~18:30", "08:30~18:30", "08:30~18:30", "08:30~18:30", "08:30~18:30", "08:30~13:30", "-"]}, {"name": "\ud734\ubca0\uc774\uc2a4\uc218\uac15\uc57d\uad6d", "lat": "37.4887560332513", "lng": "126.898911464968", "url": "/info/%ED%9C%B4%EB%B2%A0%EC%9D%B4%EC%8A%A4%EC%88%98%EA%B0%95%EC%95%BD%EA%B5%AD-%EC%84%9C%EC%9A%B8%ED%8A%B9%EB%B3%84%EC%8B%9C-%EC%98%81%EB%93%B1%ED%8F%AC%EA%B5%AC-%EB%8C%80%EB%A6%BC%EB%8F%99/", "workingTime": ["1,2,3,4,5\uc9f8\uc8fc08:00~13:00", "08:00~18:00", "08:00~18:00", "08:00~18:00", "08:00~18:00", "08:00~18:00", "08:00~13:00", "08:00~13:00"]}, {"name": "\uc2a4\ud0c0\uc57d\uad6d", "lat": "37.4949943502", "lng": "126.9006280105", "url": "/info/%EC%8A%A4%ED%83%80%EC%95%BD%EA%B5%AD-%EC%84%9C%EC%9A%B8%ED%8A%B9%EB%B3%84%EC%8B%9C-%EC%98%81%EB%93%B1%ED%8F%AC%EA%B5%AC-%EB%8C%80%EB%A6%BC%EB%8F%99/", "workingTime": ["-", "09:00~20:30", "09:00~19:30", "09:00~19:30", "09:00~19:30", "09:00~20:30", "09:00~14:00", "-"]}, {"name": "\uc6b0\ub9ac\uc2dc\uc7a5\uc57d\uad6d", "lat": "37.495503702430476", "lng": "126.90649407121407", "url": "/info/%EC%9A%B0%EB%A6%AC%EC%8B%9C%EC%9E%A5%EC%95%BD%EA%B5%AD-%EC%84%9C%EC%9A%B8%ED%8A%B9%EB%B3%84%EC%8B%9C-%EC%98%81%EB%93%B1%ED%8F%AC%EA%B5%AC-%EB%8C%80%EB%A6%BC%EB%8F%99/", "workingTime": ["-", "09:00~20:00", "09:00~20:00", "09:00~20:00", "09:00~20:00", "09:00~20:00", "10:00~19:00", "-"]}, {"name": "\uc624\ub298\uc57d\uad6d", "lat": "37.4889191424723", "lng": "126.905925607681", "url": "/info/%EC%98%A4%EB%8A%98%EC%95%BD%EA%B5%AD-%EC%84%9C%EC%9A%B8%ED%8A%B9%EB%B3%84%EC%8B%9C-%EC%98%81%EB%93%B1%ED%8F%AC%EA%B5%AC-%EB%8C%80%EB%A6%BC%EB%8F%99/", "workingTime": ["-", "08:30~19:00", "08:30~19:00", "08:30~19:00", "08:30~19:00", "08:30~19:00", "08:30~14:40", "-"]}, {"name": "\uc0c8\uae08\uac15\uc57d\uad6d", "lat": "37.490241766352895", "lng": "126.90643280637138", "url": "/info/%EC%83%88%EA%B8%88%EA%B0%95%EC%95%BD%EA%B5%AD-%EC%84%9C%EC%9A%B8%ED%8A%B9%EB%B3%84%EC%8B%9C-%EC%98%81%EB%93%B1%ED%8F%AC%EA%B5%AC-%EB%8C%80%EB%A6%BC%EB%8F%99/", "workingTime": ["-", "09:00~20:00", "09:00~20:00", "09:00~20:00", "09:00~20:00", "09:00~20:00", "09:00~19:00", "-"]}, {"name": "\ub300\uc131\ubaa8\uc57d\uad6d", "lat": "37.49044782018298", "lng": "126.90721500910931", "url": "/info/%EB%8C%80%EC%84%B1%EB%AA%A8%EC%95%BD%EA%B5%AD-%EC%84%9C%EC%9A%B8%ED%8A%B9%EB%B3%84%EC%8B%9C-%EC%98%81%EB%93%B1%ED%8F%AC%EA%B5%AC-%EB%8C%80%EB%A6%BC%EB%8F%99/", "workingTime": ["-", "08:30~17:30", "08:30~17:30", "08:30~17:30", "08:30~17:30", "08:30~17:30", "08:30~12:30", "-"]}, {"name": "\ub300\ub9bc\ud0c0\uc6cc\uc57d\uad6d", "lat": "37.50154338204829", "lng": "126.90124812280668", "url": "/info/%EB%8C%80%EB%A6%BC%ED%83%80%EC%9B%8C%EC%95%BD%EA%B5%AD-%EC%84%9C%EC%9A%B8%ED%8A%B9%EB%B3%84%EC%8B%9C-%EC%98%81%EB%93%B1%ED%8F%AC%EA%B5%AC-%EB%8C%80%EB%A6%BC%EB%8F%99/", "workingTime": ["-", "08:30~18:00", "08:30~18:00", "08:30~18:00", "08:30~18:00", "08:30~18:00", "09:00~15:00", "-"]}, {"name": "\uce5c\uc808\ud55c\uc131\uc2ec\uc815\ubb38\uc57d\uad6d", "lat": "37.492312281500006", "lng": "126.90872794789999", "url": "/info/%EC%B9%9C%EC%A0%88%ED%95%9C%EC%84%B1%EC%8B%AC%EC%A0%95%EB%AC%B8%EC%95%BD%EA%B5%AD-%EC%84%9C%EC%9A%B8%ED%8A%B9%EB%B3%84%EC%8B%9C-%EC%98%81%EB%93%B1%ED%8F%AC%EA%B5%AC-%EB%8C%80%EB%A6%BC%EB%8F%99/", "workingTime": ["-", "08:30~18:00", "08:30~18:00", "08:30~18:00", "08:30~18:00", "08:30~18:00", "08:30~13:00", "-"]}, {"name": "\uc0b0\ud638\uc57d\uad6d", "lat": "37.48897993331796", "lng": "126.90590067587098", "url": "/info/%EC%82%B0%ED%98%B8%EC%95%BD%EA%B5%AD-%EC%84%9C%EC%9A%B8%ED%8A%B9%EB%B3%84%EC%8B%9C-%EC%98%81%EB%93%B1%ED%8F%AC%EA%B5%AC-%EB%8C%80%EB%A6%BC%EB%8F%99/", "workingTime": ["-", "09:00~20:00", "09:00~20:00", "09:00~20:00", "09:00~20:00", "09:00~20:00", "09:00~20:00", "-"]}, {"name": "\ub300\ub9bc\ubbf8\uc18c\uc57d\uad6d", "lat": "37.4932319948827", "lng": "126.896859600774", "url": "/info/%EB%8C%80%EB%A6%BC%EB%AF%B8%EC%86%8C%EC%95%BD%EA%B5%AD-%EC%84%9C%EC%9A%B8%ED%8A%B9%EB%B3%84%EC%8B%9C-%EC%98%81%EB%93%B1%ED%8F%AC%EA%B5%AC-%EB%8C%80%EB%A6%BC%EB%8F%99/", "workingTime": ["1,2,3,4,5\uc9f8\uc8fc09:30~18:00", "09:00~20:30", "09:00~20:30", "09:00~20:30", "09:00~20:30", "09:00~20:30", "09:00~19:00", "-"]}, {"name": "\uba85\uc131\uc57d\uad6d", "lat": "37.493569233925996", "lng": "126.89883873384544", "url": "/info/%EB%AA%85%EC%84%B1%EC%95%BD%EA%B5%AD-%EC%84%9C%EC%9A%B8%ED%8A%B9%EB%B3%84%EC%8B%9C-%EC%98%81%EB%93%B1%ED%8F%AC%EA%B5%AC-%EB%8C%80%EB%A6%BC%EB%8F%99/", "workingTime": ["-", "07:30~18:30", "07:30~18:30", "07:30~18:30", "07:30~18:30", "07:30~18:30", "09:00~14:00", "-"]}, {"name": "\uc11c\uc6b8\uc131\ubaa8\uc57d\uad6d", "lat": "37.494567714", "lng": "126.8990228201", "url": "/info/%EC%84%9C%EC%9A%B8%EC%84%B1%EB%AA%A8%EC%95%BD%EA%B5%AD-%EC%84%9C%EC%9A%B8%ED%8A%B9%EB%B3%84%EC%8B%9C-%EC%98%81%EB%93%B1%ED%8F%AC%EA%B5%AC-%EB%8C%80%EB%A6%BC%EB%8F%99/", "workingTime": ["1,2,3,4,5\uc9f8\uc8fc14:00~20:00", "08:00~21:00", "08:00~21:00", "08:00~21:00", "08:00~21:00", "08:00~21:00", "08:00~20:00", "-"]}, {"name": "\ub274\uadf8\ub79c\ub4dc\uc57d\uad6d", "lat": "37.499580197056375", "lng": "126.89819732726036", "url": "/info/%EB%89%B4%EA%B7%B8%EB%9E%9C%EB%93%9C%EC%95%BD%EA%B5%AD-%EC%84%9C%EC%9A%B8%ED%8A%B9%EB%B3%84%EC%8B%9C-%EC%98%81%EB%93%B1%ED%8F%AC%EA%B5%AC-%EB%8C%80%EB%A6%BC%EB%8F%99/", "workingTime": ["-", "09:00~21:00", "09:00~21:00", "09:00~21:00", "09:00~21:00", "09:00~21:00", "09:00~19:00", "09:00~17:00"]}, {"name": "\ub204\uac00\uc57d\uad6d", "lat": "37.4903812913", "lng": "126.900742674", "url": "/info/%EB%88%84%EA%B0%80%EC%95%BD%EA%B5%AD-%EC%84%9C%EC%9A%B8%ED%8A%B9%EB%B3%84%EC%8B%9C-%EC%98%81%EB%93%B1%ED%8F%AC%EA%B5%AC-%EB%8C%80%EB%A6%BC%EB%8F%99/", "workingTime": ["1,3,5\uc9f8\uc8fc10:00~14:30", "09:00~19:30", "09:00~19:30", "09:00~19:30", "09:00~19:30", "09:00~19:30", "09:00~15:00", "-"]}, {"name": "\ub179\uc2ed\uc790\uc57d\uad6d", "lat": "37.49487799617433", "lng": "126.89942499422116", "url": "/info/%EB%85%B9%EC%8B%AD%EC%9E%90%EC%95%BD%EA%B5%AD-%EC%84%9C%EC%9A%B8%ED%8A%B9%EB%B3%84%EC%8B%9C-%EC%98%81%EB%93%B1%ED%8F%AC%EA%B5%AC-%EB%8C%80%EB%A6%BC%EB%8F%99/", "workingTime": ["-", "08:30~20:00", "08:30~20:00", "08:30~20:00", "08:30~20:00", "08:30~20:00", "09:00~15:00", "-"]}, {"name": "\ub098\ubb34\uc57d\uad6d", "lat": "37.4941598571402", "lng": "126.899373467262", "url": "/info/%EB%82%98%EB%AC%B4%EC%95%BD%EA%B5%AD-%EC%84%9C%EC%9A%B8%ED%8A%B9%EB%B3%84%EC%8B%9C-%EC%98%81%EB%93%B1%ED%8F%AC%EA%B5%AC-%EB%8C%80%EB%A6%BC%EB%8F%99/", "workingTime": ["-", "09:00~19:00", "09:00~19:00", "09:00~19:00", "09:00~19:00", "09:00~19:00", "09:00~14:00", "-"]}, {"name": "\ub098\ub798\uc57d\uad6d", "lat": "37.496177955000505", "lng": "126.90240864310245", "url": "/info/%EB%82%98%EB%9E%98%EC%95%BD%EA%B5%AD-%EC%84%9C%EC%9A%B8%ED%8A%B9%EB%B3%84%EC%8B%9C-%EC%98%81%EB%93%B1%ED%8F%AC%EA%B5%AC-%EB%8C%80%EB%A6%BC%EB%8F%99/", "workingTime": ["-", "08:30~21:00", "08:30~21:00", "08:30~21:00", "08:30~21:00", "08:30~21:00", "08:30~18:00", "-"]}, {"name": "\uae40\uc57d\uad6d", "lat": "37.49556320671348", "lng": "126.9042911423189", "url": "/info/%EA%B9%80%EC%95%BD%EA%B5%AD-%EC%84%9C%EC%9A%B8%ED%8A%B9%EB%B3%84%EC%8B%9C-%EC%98%81%EB%93%B1%ED%8F%AC%EA%B5%AC-%EB%8C%80%EB%A6%BC%EB%8F%99/", "workingTime": ["-", "09:00~18:00", "09:00~18:00", "09:00~18:00", "09:00~18:00", "09:00~18:00", "09:00~13:00", "-"]}, {"name": "\uc190\uc57d\uad6d", "lat": "37.492599927438", "lng": "126.899990480502", "url": "/info/%EC%86%90%EC%95%BD%EA%B5%AD-%EC%84%9C%EC%9A%B8%ED%8A%B9%EB%B3%84%EC%8B%9C-%EC%98%81%EB%93%B1%ED%8F%AC%EA%B5%AC-%EB%8C%80%EB%A6%BC%EB%8F%99/", "workingTime": ["1,2,3,4,5\uc9f8\uc8fc10:00~16:00", "09:00~22:00", "09:00~22:00", "09:00~22:00", "09:00~22:00", "09:00~22:00", "09:00~22:00", "-"]}, {"name": "\ud55c\uc911\uc57d\uad6d", "lat": "37.4903828531", "lng": "126.8983409573", "url": "/info/%ED%95%9C%EC%A4%91%EC%95%BD%EA%B5%AD-%EC%84%9C%EC%9A%B8%ED%8A%B9%EB%B3%84%EC%8B%9C-%EC%98%81%EB%93%B1%ED%8F%AC%EA%B5%AC-%EB%8C%80%EB%A6%BC%EB%8F%99/", "workingTime": ["1,2,3,4,5\uc9f8\uc8fc08:00~22:00", "08:00~22:00", "08:00~22:00", "08:00~22:00", "08:00~22:00", "08:00~22:00", "08:00~22:00", "08:00~21:00"]}, {"name": "\uccad\uc6b4\uc57d\uad6d", "lat": "37.48785121087489", "lng": "126.90506534385493", "url": "/info/%EC%B2%AD%EC%9A%B4%EC%95%BD%EA%B5%AD-%EC%84%9C%EC%9A%B8%ED%8A%B9%EB%B3%84%EC%8B%9C-%EC%98%81%EB%93%B1%ED%8F%AC%EA%B5%AC-%EB%8C%80%EB%A6%BC%EB%8F%99/", "workingTime": ["-", "09:00~20:00", "09:00~20:00", "09:00~20:00", "09:00~20:00", "09:00~20:00", "09:00~17:00", "-"]}, {"name": "\ucc9c\uc9c0\ub2f9\uc57d\uad6d", "lat": "37.49084807968887", "lng": "126.90749496243495", "url": "/info/%EC%B2%9C%EC%A7%80%EB%8B%B9%EC%95%BD%EA%B5%AD-%EC%84%9C%EC%9A%B8%ED%8A%B9%EB%B3%84%EC%8B%9C-%EC%98%81%EB%93%B1%ED%8F%AC%EA%B5%AC-%EB%8C%80%EB%A6%BC%EB%8F%99/", "workingTime": ["1,2,3,4,5\uc9f8\uc8fc10:00~20:00", "08:30~21:00", "08:30~21:00", "08:30~21:00", "08:30~21:00", "08:30~21:00", "08:30~20:00", "10:00~20:00"]}, {"name": "\uc774\ub808\uc57d\uad6d", "lat": "37.490879124458786", "lng": "126.901320983956", "url": "/info/%EC%9D%B4%EB%A0%88%EC%95%BD%EA%B5%AD-%EC%84%9C%EC%9A%B8%ED%8A%B9%EB%B3%84%EC%8B%9C-%EC%98%81%EB%93%B1%ED%8F%AC%EA%B5%AC-%EB%8C%80%EB%A6%BC%EB%8F%99/", "workingTime": ["-", "08:30~20:00", "08:30~20:00", "08:30~20:00", "08:30~20:00", "08:30~20:00", "08:30~20:00", "-"]}, {"name": "\uc6b0\ub9ac\uc870\uc6b4\uc57d\uad6d", "lat": "37.496935772579924", "lng": "126.90359278731079", "url": "/info/%EC%9A%B0%EB%A6%AC%EC%A1%B0%EC%9A%B4%EC%95%BD%EA%B5%AD-%EC%84%9C%EC%9A%B8%ED%8A%B9%EB%B3%84%EC%8B%9C-%EC%98%81%EB%93%B1%ED%8F%AC%EA%B5%AC-%EB%8C%80%EB%A6%BC%EB%8F%99/", "workingTime": ["-", "09:00~19:30", "09:00~19:30", "09:00~19:30", "09:00~19:30", "09:00~19:30", "09:00~14:30", "-"]}, {"name": "\uc628\ub204\ub9ac\ub300\uad11\uc57d\uad6d", "lat": "37.492684823052734", "lng": "126.89718897992546", "url": "/info/%EC%98%A8%EB%88%84%EB%A6%AC%EB%8C%80%EA%B4%91%EC%95%BD%EA%B5%AD-%EC%84%9C%EC%9A%B8%ED%8A%B9%EB%B3%84%EC%8B%9C-%EC%98%81%EB%93%B1%ED%8F%AC%EA%B5%AC-%EB%8C%80%EB%A6%BC%EB%8F%99/", "workingTime": ["1,2,3,4,5\uc9f8\uc8fc09:00~22:00", "09:00~22:00", "09:00~22:00", "09:00~22:00", "09:00~22:00", "09:00~22:00", "09:00~22:00", "09:00~18:00"]}, {"name": "\uc601\uc778\uc57d\uad6d", "lat": "37.49604086423939", "lng": "126.902250524939", "url": "/info/%EC%98%81%EC%9D%B8%EC%95%BD%EA%B5%AD-%EC%84%9C%EC%9A%B8%ED%8A%B9%EB%B3%84%EC%8B%9C-%EC%98%81%EB%93%B1%ED%8F%AC%EA%B5%AC-%EB%8C%80%EB%A6%BC%EB%8F%99/", "workingTime": ["-", "09:00~22:00", "09:00~22:00", "09:00~22:00", "09:00~22:00", "09:00~22:00", "09:00~21:00", "-"]}, {"name": "\uc11c\uc6b8\ub300\ub9bc\uc57d\uad6d", "lat": "37.49145037230716", "lng": "126.90802339809754", "url": "/info/%EC%84%9C%EC%9A%B8%EB%8C%80%EB%A6%BC%EC%95%BD%EA%B5%AD-%EC%84%9C%EC%9A%B8%ED%8A%B9%EB%B3%84%EC%8B%9C-%EC%98%81%EB%93%B1%ED%8F%AC%EA%B5%AC-%EB%8C%80%EB%A6%BC%EB%8F%99/", "workingTime": ["-", "08:30~18:00", "08:30~18:00", "08:30~18:00", "08:30~18:00", "08:30~18:00", "08:30~13:00", "-"]}, {"name": "\uc2e0\uc138\uba85\uc57d\uad6d", "lat": "37.49749073643649", "lng": "126.90352422240271", "url": "/info/%EC%8B%A0%EC%84%B8%EB%AA%85%EC%95%BD%EA%B5%AD-%EC%84%9C%EC%9A%B8%ED%8A%B9%EB%B3%84%EC%8B%9C-%EC%98%81%EB%93%B1%ED%8F%AC%EA%B5%AC-%EB%8C%80%EB%A6%BC%EB%8F%99/", "workingTime": ["1,2,3,4,5\uc9f8\uc8fc09:00~20:00", "09:00~22:00", "09:00~22:00", "09:00~22:00", "09:00~22:00", "09:00~22:00", "09:00~22:00", "08:30~22:00"]}, {"name": "\uc218\uc0b0\uc57d\uad6d", "lat": "37.498698500756156", "lng": "126.89970485122541", "url": "/info/%EC%88%98%EC%82%B0%EC%95%BD%EA%B5%AD-%EC%84%9C%EC%9A%B8%ED%8A%B9%EB%B3%84%EC%8B%9C-%EC%98%81%EB%93%B1%ED%8F%AC%EA%B5%AC-%EB%8C%80%EB%A6%BC%EB%8F%99/", "workingTime": ["2,4\uc9f8\uc8fc08:00~12:00", "09:30~22:00", "09:30~22:00", "09:30~22:00", "09:30~22:00", "09:30~22:00", "09:30~22:00", "-"]}, {"name": "\ub300\ub9bc\uc57d\uad6d", "lat": "37.494462973426884", "lng": "126.89876967964979", "url": "/info/%EB%8C%80%EB%A6%BC%EC%95%BD%EA%B5%AD-%EC%84%9C%EC%9A%B8%ED%8A%B9%EB%B3%84%EC%8B%9C-%EC%98%81%EB%93%B1%ED%8F%AC%EA%B5%AC-%EB%8C%80%EB%A6%BC%EB%8F%99/", "workingTime": ["-", "08:00~19:00", "08:00~19:00", "08:00~19:00", "08:00~19:00", "08:00~19:00", "08:00~14:00", "-"]}, {"name": "\ub300\ub9bc\ub300\ud559\uc57d\uad6d", "lat": "37.49242379609503", "lng": "126.90846549132539", "url": "/info/%EB%8C%80%EB%A6%BC%EB%8C%80%ED%95%99%EC%95%BD%EA%B5%AD-%EC%84%9C%EC%9A%B8%ED%8A%B9%EB%B3%84%EC%8B%9C-%EC%98%81%EB%93%B1%ED%8F%AC%EA%B5%AC-%EB%8C%80%EB%A6%BC%EB%8F%99/", "workingTime": ["-", "08:30~18:00", "08:30~18:00", "08:30~18:00", "08:30~18:00", "08:30~18:00", "08:30~14:00", "-"]}, {"name": "\uae30\ub9bc\uc57d\uad6d", "lat": "37.49992501177702", "lng": "126.90106028433743", "url": "/info/%EA%B8%B0%EB%A6%BC%EC%95%BD%EA%B5%AD-%EC%84%9C%EC%9A%B8%ED%8A%B9%EB%B3%84%EC%8B%9C-%EC%98%81%EB%93%B1%ED%8F%AC%EA%B5%AC-%EB%8C%80%EB%A6%BC%EB%8F%99/", "workingTime": ["-", "09:00~21:00", "09:00~21:00", "09:00~21:00", "09:00~21:00", "09:00~21:00", "09:00~16:00", "-"]}, {"name": "\uc885\ub85c\uc628\ub204\ub9ac\uc57d\uad6d", "lat": "37.4930326693", "lng": "126.9081888148", "url": "/info/%EC%A2%85%EB%A1%9C%EC%98%A8%EB%88%84%EB%A6%AC%EC%95%BD%EA%B5%AD-%EC%84%9C%EC%9A%B8%ED%8A%B9%EB%B3%84%EC%8B%9C-%EC%98%81%EB%93%B1%ED%8F%AC%EA%B5%AC-%EB%8C%80%EB%A6%BC%EB%8F%99/", "workingTime": ["-", "08:00~18:30", "08:00~18:30", "08:00~18:30", "08:00~18:30", "08:00~18:30", "08:00~15:00", "10:00~18:00"]}, {"name": "\uc138\uc131\uc2ec\uc57d\uad6d", "lat": "37.49237351493863", "lng": "126.90868264212058", "url": "/info/%EC%84%B8%EC%84%B1%EC%8B%AC%EC%95%BD%EA%B5%AD-%EC%84%9C%EC%9A%B8%ED%8A%B9%EB%B3%84%EC%8B%9C-%EC%98%81%EB%93%B1%ED%8F%AC%EA%B5%AC-%EB%8C%80%EB%A6%BC%EB%8F%99/", "workingTime": ["-", "08:30~18:20", "08:30~18:20", "08:30~18:20", "08:30~18:20", "08:30~18:20", "08:30~13:00", "-"]}]