[{"name": "\ud589\uc6b4\uc57d\uad6d", "lat": "37.5777125608337", "lng": "126.92223615963", "url": "/info/%ED%96%89%EC%9A%B4%EC%95%BD%EA%B5%AD-%EC%84%9C%EC%9A%B8%ED%8A%B9%EB%B3%84%EC%8B%9C-%EC%84%9C%EB%8C%80%EB%AC%B8%EA%B5%AC-%EB%82%A8%EA%B0%80%EC%A2%8C%EB%8F%99/", "workingTime": ["-", "09:00~18:30", "09:00~18:30", "09:00~18:30", "09:00~18:30", "09:00~18:30", "09:00~15:00", "-"]}, {"name": "\ub4dc\ub9bc\uc57d\uad6d", "lat": "37.56921254175105", "lng": "126.9157563897199", "url": "/info/%EB%93%9C%EB%A6%BC%EC%95%BD%EA%B5%AD-%EC%84%9C%EC%9A%B8%ED%8A%B9%EB%B3%84%EC%8B%9C-%EC%84%9C%EB%8C%80%EB%AC%B8%EA%B5%AC-%EB%82%A8%EA%B0%80%EC%A2%8C%EB%8F%99/", "workingTime": ["-", "08:00~18:30", "08:00~20:00", "08:00~18:30", "08:00~20:00", "08:00~18:30", "08:00~14:00", "-"]}, {"name": "\ud30c\ud06c\uc57d\uad6d", "lat": "37.57805313828757", "lng": "126.92101735271274", "url": "/info/%ED%8C%8C%ED%81%AC%EC%95%BD%EA%B5%AD-%EC%84%9C%EC%9A%B8%ED%8A%B9%EB%B3%84%EC%8B%9C-%EC%84%9C%EB%8C%80%EB%AC%B8%EA%B5%AC-%EB%82%A8%EA%B0%80%EC%A2%8C%EB%8F%99/", "workingTime": ["-", "09:00~19:00", "09:00~19:00", "09:00~19:00", "09:00~19:00", "09:00~19:00", "09:00~14:30", "-"]}, {"name": "\uc624\uc57d\uad6d", "lat": "37.57539648477955", "lng": "126.91542875783992", "url": "/info/%EC%98%A4%EC%95%BD%EA%B5%AD-%EC%84%9C%EC%9A%B8%ED%8A%B9%EB%B3%84%EC%8B%9C-%EC%84%9C%EB%8C%80%EB%AC%B8%EA%B5%AC-%EB%82%A8%EA%B0%80%EC%A2%8C%EB%8F%99/", "workingTime": ["-", "09:00~20:00", "09:00~20:00", "09:00~20:00", "09:00~20:00", "09:00~20:00", "09:00~17:00", "-"]}, {"name": "\ub2e4\uc815\uc628\ub204\ub9ac\uc57d\uad6d", "lat": "37.5754832622486", "lng": "126.916097519773", "url": "/info/%EB%8B%A4%EC%A0%95%EC%98%A8%EB%88%84%EB%A6%AC%EC%95%BD%EA%B5%AD-%EC%84%9C%EC%9A%B8%ED%8A%B9%EB%B3%84%EC%8B%9C-%EC%84%9C%EB%8C%80%EB%AC%B8%EA%B5%AC-%EB%82%A8%EA%B0%80%EC%A2%8C%EB%8F%99/", "workingTime": ["1,3,5\uc9f8\uc8fc14:00~19:00", "08:30~20:30", "08:30~20:30", "08:30~19:30", "08:30~20:30", "08:30~19:30", "08:30~14:00", "-"]}, {"name": "\ubd04\uc57d\uad6d", "lat": "37.57602020832994", "lng": "126.92614086976596", "url": "/info/%EB%B4%84%EC%95%BD%EA%B5%AD-%EC%84%9C%EC%9A%B8%ED%8A%B9%EB%B3%84%EC%8B%9C-%EC%84%9C%EB%8C%80%EB%AC%B8%EA%B5%AC-%EB%82%A8%EA%B0%80%EC%A2%8C%EB%8F%99/", "workingTime": ["-", "09:00~18:30", "09:00~18:30", "09:00~18:30", "09:00~18:30", "09:00~18:30", "09:00~13:00", "-"]}, {"name": "\ubaa8\ubc94\uc57d\uad6d", "lat": "37.577272538828595", "lng": "126.92324157074867", "url": "/info/%EB%AA%A8%EB%B2%94%EC%95%BD%EA%B5%AD-%EC%84%9C%EC%9A%B8%ED%8A%B9%EB%B3%84%EC%8B%9C-%EC%84%9C%EB%8C%80%EB%AC%B8%EA%B5%AC-%EB%82%A8%EA%B0%80%EC%A2%8C%EB%8F%99/", "workingTime": ["1,2,3,4,5\uc9f8\uc8fc10:10~21:00", "08:30~21:00", "08:30~21:00", "08:30~21:00", "08:30~21:00", "08:30~21:00", "08:30~22:00", "15:00~21:30"]}, {"name": "\ubaa8\ub798\ub0b4\uc57d\uad6d", "lat": "37.5695903792", "lng": "126.9149409415", "url": "/info/%EB%AA%A8%EB%9E%98%EB%82%B4%EC%95%BD%EA%B5%AD-%EC%84%9C%EC%9A%B8%ED%8A%B9%EB%B3%84%EC%8B%9C-%EC%84%9C%EB%8C%80%EB%AC%B8%EA%B5%AC-%EB%82%A8%EA%B0%80%EC%A2%8C%EB%8F%99/", "workingTime": ["1,2,3,4,5\uc9f8\uc8fc10:00~19:00", "09:00~20:00", "09:00~20:00", "09:00~20:00", "09:00~20:00", "09:00~20:00", "09:00~19:00", "-"]}, {"name": "\uc18c\uba85\uc57d\uad6d", "lat": "37.5745305562919", "lng": "126.91881136621713", "url": "/info/%EC%86%8C%EB%AA%85%EC%95%BD%EA%B5%AD-%EC%84%9C%EC%9A%B8%ED%8A%B9%EB%B3%84%EC%8B%9C-%EC%84%9C%EB%8C%80%EB%AC%B8%EA%B5%AC-%EB%82%A8%EA%B0%80%EC%A2%8C%EB%8F%99/", "workingTime": ["-", "09:00~19:00", "09:00~19:00", "09:00~13:00", "09:00~19:00", "09:00~19:00", "09:00~13:00", "-"]}, {"name": "\uc138\uc6d0\uc57d\uad6d", "lat": "37.573821154592146", "lng": "126.91966795757935", "url": "/info/%EC%84%B8%EC%9B%90%EC%95%BD%EA%B5%AD-%EC%84%9C%EC%9A%B8%ED%8A%B9%EB%B3%84%EC%8B%9C-%EC%84%9C%EB%8C%80%EB%AC%B8%EA%B5%AC-%EB%82%A8%EA%B0%80%EC%A2%8C%EB%8F%99/", "workingTime": ["-", "10:00~19:30", "10:00~19:30", "10:00~19:30", "10:00~19:30", "10:00~19:30", "10:00~19:30", "-"]}, {"name": "\uac74\uac15\uc57d\uad6d", "lat": "37.5767034421556", "lng": "126.923053081057", "url": "/info/%EA%B1%B4%EA%B0%95%EC%95%BD%EA%B5%AD-%EC%84%9C%EC%9A%B8%ED%8A%B9%EB%B3%84%EC%8B%9C-%EC%84%9C%EB%8C%80%EB%AC%B8%EA%B5%AC-%EB%82%A8%EA%B0%80%EC%A2%8C%EB%8F%99/", "workingTime": ["-", "09:00~18:30", "09:00~18:30", "09:00~18:30", "09:00~18:30", "09:00~18:30", "09:00~14:30", "-"]}, {"name": "\uc740\ud558\uc57d\uad6d", "lat": "37.58221020903644", "lng": "126.92358746446708", "url": "/info/%EC%9D%80%ED%95%98%EC%95%BD%EA%B5%AD-%EC%84%9C%EC%9A%B8%ED%8A%B9%EB%B3%84%EC%8B%9C-%EC%84%9C%EB%8C%80%EB%AC%B8%EA%B5%AC-%EB%82%A8%EA%B0%80%EC%A2%8C%EB%8F%99/", "workingTime": ["2,4\uc9f8\uc8fc10:00~23:00", "09:30~25:00", "09:30~25:00", "09:30~25:00", "09:30~23:30", "09:30~23:30", "09:30~23:30", "-"]}, {"name": "\ud55c\ubbf8\uc57d\uad6d", "lat": "37.5693743805702", "lng": "126.91528079098012", "url": "/info/%ED%95%9C%EB%AF%B8%EC%95%BD%EA%B5%AD-%EC%84%9C%EC%9A%B8%ED%8A%B9%EB%B3%84%EC%8B%9C-%EC%84%9C%EB%8C%80%EB%AC%B8%EA%B5%AC-%EB%82%A8%EA%B0%80%EC%A2%8C%EB%8F%99/", "workingTime": ["1,2,3,4,5\uc9f8\uc8fc11:00~18:00", "09:00~20:00", "09:00~20:00", "09:00~20:00", "09:00~20:00", "09:00~20:00", "09:00~19:00", "09:00~16:00"]}, {"name": "\ud478\ub978\uc57d\uad6d", "lat": "37.57749439011786", "lng": "126.92111832871521", "url": "/info/%ED%91%B8%EB%A5%B8%EC%95%BD%EA%B5%AD-%EC%84%9C%EC%9A%B8%ED%8A%B9%EB%B3%84%EC%8B%9C-%EC%84%9C%EB%8C%80%EB%AC%B8%EA%B5%AC-%EB%82%A8%EA%B0%80%EC%A2%8C%EB%8F%99/", "workingTime": ["-", "09:00~21:00", "09:00~21:00", "09:00~21:00", "09:00~21:00", "09:00~21:00", "09:00~20:00", "-"]}, {"name": "\uc724\uc57d\uad6d", "lat": "37.56958771722726", "lng": "126.91625853104744", "url": "/info/%EC%9C%A4%EC%95%BD%EA%B5%AD-%EC%84%9C%EC%9A%B8%ED%8A%B9%EB%B3%84%EC%8B%9C-%EC%84%9C%EB%8C%80%EB%AC%B8%EA%B5%AC-%EB%82%A8%EA%B0%80%EC%A2%8C%EB%8F%99/", "workingTime": ["-", "09:00~18:30", "09:00~18:30", "09:00~18:30", "09:00~18:30", "09:00~18:30", "09:00~14:00", "-"]}, {"name": "\uc218\uc57d\uad6d", "lat": "37.570396696999595", "lng": "126.9135997845734", "url": "/info/%EC%88%98%EC%95%BD%EA%B5%AD-%EC%84%9C%EC%9A%B8%ED%8A%B9%EB%B3%84%EC%8B%9C-%EC%84%9C%EB%8C%80%EB%AC%B8%EA%B5%AC-%EB%82%A8%EA%B0%80%EC%A2%8C%EB%8F%99/", "workingTime": ["-", "10:00~18:00", "10:00~18:00", "10:00~18:00", "10:00~18:00", "10:00~18:00", "10:00~13:00", "-"]}, {"name": "\uc194\uc57d\uad6d", "lat": "37.569496802917015", "lng": "126.9151176314516", "url": "/info/%EC%86%94%EC%95%BD%EA%B5%AD-%EC%84%9C%EC%9A%B8%ED%8A%B9%EB%B3%84%EC%8B%9C-%EC%84%9C%EB%8C%80%EB%AC%B8%EA%B5%AC-%EB%82%A8%EA%B0%80%EC%A2%8C%EB%8F%99/", "workingTime": ["-", "09:15~20:00", "09:15~18:00", "09:15~20:00", "09:15~18:00", "09:15~20:00", "09:15~16:00", "-"]}, {"name": "\ubcf4\uba85\uc57d\uad6d", "lat": "37.57542178169761", "lng": "126.91552381892707", "url": "/info/%EB%B3%B4%EB%AA%85%EC%95%BD%EA%B5%AD-%EC%84%9C%EC%9A%B8%ED%8A%B9%EB%B3%84%EC%8B%9C-%EC%84%9C%EB%8C%80%EB%AC%B8%EA%B5%AC-%EB%82%A8%EA%B0%80%EC%A2%8C%EB%8F%99/", "workingTime": ["-", "09:00~19:00", "09:00~19:00", "09:00~19:00", "09:00~13:00", "09:00~19:00", "09:00~13:00", "-"]}, {"name": "\ubaa8\ub798\ub0b4\ubc31\ud654\uc810\uc57d\uad6d", "lat": "37.56980988824741", "lng": "126.9144788560418", "url": "/info/%EB%AA%A8%EB%9E%98%EB%82%B4%EB%B0%B1%ED%99%94%EC%A0%90%EC%95%BD%EA%B5%AD-%EC%84%9C%EC%9A%B8%ED%8A%B9%EB%B3%84%EC%8B%9C-%EC%84%9C%EB%8C%80%EB%AC%B8%EA%B5%AC-%EB%82%A8%EA%B0%80%EC%A2%8C%EB%8F%99/", "workingTime": ["-", "09:00~21:00", "09:00~21:00", "09:00~21:00", "09:00~21:00", "09:00~21:00", "09:00~20:00", "-"]}, {"name": "\ub098\ub77c\uc57d\uad6d", "lat": "37.57479945265189", "lng": "126.91712294234264", "url": "/info/%EB%82%98%EB%9D%BC%EC%95%BD%EA%B5%AD-%EC%84%9C%EC%9A%B8%ED%8A%B9%EB%B3%84%EC%8B%9C-%EC%84%9C%EB%8C%80%EB%AC%B8%EA%B5%AC-%EB%82%A8%EA%B0%80%EC%A2%8C%EB%8F%99/", "workingTime": ["-", "09:00~20:00", "09:00~20:00", "09:00~20:00", "09:00~20:00", "09:00~20:00", "09:00~18:00", "-"]}, {"name": "\ub3d9\ubc31\uc57d\uad6d", "lat": "37.5774561413661", "lng": "126.921424961147", "url": "/info/%EB%8F%99%EB%B0%B1%EC%95%BD%EA%B5%AD-%EC%84%9C%EC%9A%B8%ED%8A%B9%EB%B3%84%EC%8B%9C-%EC%84%9C%EB%8C%80%EB%AC%B8%EA%B5%AC-%EB%82%A8%EA%B0%80%EC%A2%8C%EB%8F%99/", "workingTime": ["-", "08:30~19:00", "08:30~19:00", "08:30~19:00", "08:30~19:00", "08:30~19:00", "08:30~14:00", "-"]}, {"name": "\uac00\uc88c\uc9c4\uc57d\uad6d", "lat": "37.5690980464", "lng": "126.9169246599", "url": "/info/%EA%B0%80%EC%A2%8C%EC%A7%84%EC%95%BD%EA%B5%AD-%EC%84%9C%EC%9A%B8%ED%8A%B9%EB%B3%84%EC%8B%9C-%EC%84%9C%EB%8C%80%EB%AC%B8%EA%B5%AC-%EB%82%A8%EA%B0%80%EC%A2%8C%EB%8F%99/", "workingTime": ["-", "09:00~19:30", "09:00~19:30", "09:00~19:30", "09:00~19:30", "09:00~19:30", "09:00~14:30", "-"]}]