[{"name": "\uc601\uc0dd\uc57d\uad6d", "lat": "37.5941051705", "lng": "127.03386086", "url": "/info/%EC%98%81%EC%83%9D%EC%95%BD%EA%B5%AD-%EC%84%9C%EC%9A%B8%ED%8A%B9%EB%B3%84%EC%8B%9C-%EC%84%B1%EB%B6%81%EA%B5%AC-%EC%A2%85%EC%95%94%EB%8F%99/", "workingTime": ["-", "09:00~20:00", "09:00~20:00", "09:00~20:00", "09:00~20:00", "09:00~20:00", "10:00~20:00", "-"]}, {"name": "\uc5f4\ub9b0\uc57d\uad6d", "lat": "37.59813442526729", "lng": "127.03377664574029", "url": "/info/%EC%97%B4%EB%A6%B0%EC%95%BD%EA%B5%AD-%EC%84%9C%EC%9A%B8%ED%8A%B9%EB%B3%84%EC%8B%9C-%EC%84%B1%EB%B6%81%EA%B5%AC-%EC%A2%85%EC%95%94%EB%8F%99/", "workingTime": ["-", "09:00~19:30", "09:00~19:30", "09:00~19:30", "09:00~19:30", "09:00~19:30", "09:00~15:00", "-"]}, {"name": "\uc2e0\uc911\uc559\uc57d\uad6d", "lat": "37.596421948119136", "lng": "127.03579146145908", "url": "/info/%EC%8B%A0%EC%A4%91%EC%95%99%EC%95%BD%EA%B5%AD-%EC%84%9C%EC%9A%B8%ED%8A%B9%EB%B3%84%EC%8B%9C-%EC%84%B1%EB%B6%81%EA%B5%AC-%EC%A2%85%EC%95%94%EB%8F%99/", "workingTime": ["-", "09:00~19:00", "09:00~19:00", "09:00~19:00", "09:00~19:00", "09:00~19:00", "09:00~15:00", "-"]}, {"name": "\ud640\ub9ac\ub370\uc774\uc57d\uad6d", "lat": "37.60101416788583", "lng": "127.03316641820832", "url": "/info/%ED%99%80%EB%A6%AC%EB%8D%B0%EC%9D%B4%EC%95%BD%EA%B5%AD-%EC%84%9C%EC%9A%B8%ED%8A%B9%EB%B3%84%EC%8B%9C-%EC%84%B1%EB%B6%81%EA%B5%AC-%EC%A2%85%EC%95%94%EB%8F%99/", "workingTime": ["-", "08:30~19:00", "08:30~19:00", "08:30~19:00", "08:30~19:00", "08:30~19:00", "08:30~14:30", "-"]}, {"name": "\ud61c\uc870\uc57d\uad6d", "lat": "37.603505229496825", "lng": "127.03048132617846", "url": "/info/%ED%98%9C%EC%A1%B0%EC%95%BD%EA%B5%AD-%EC%84%9C%EC%9A%B8%ED%8A%B9%EB%B3%84%EC%8B%9C-%EC%84%B1%EB%B6%81%EA%B5%AC-%EC%A2%85%EC%95%94%EB%8F%99/", "workingTime": ["-", "10:00~20:00", "10:00~20:00", "10:00~20:00", "10:00~20:00", "10:00~20:00", "10:00~18:00", "-"]}, {"name": "\uc6b4\uc6a9\uc57d\uad6d", "lat": "37.59145509908687", "lng": "127.03767317351922", "url": "/info/%EC%9A%B4%EC%9A%A9%EC%95%BD%EA%B5%AD-%EC%84%9C%EC%9A%B8%ED%8A%B9%EB%B3%84%EC%8B%9C-%EC%84%B1%EB%B6%81%EA%B5%AC-%EC%A2%85%EC%95%94%EB%8F%99/", "workingTime": ["-", "09:00~20:00", "09:00~20:00", "09:00~20:00", "09:00~20:00", "09:00~20:00", "09:00~13:00", "-"]}, {"name": "\ub300\uc601\uc57d\uad6d", "lat": "37.59917885355685", "lng": "127.03620950363477", "url": "/info/%EB%8C%80%EC%98%81%EC%95%BD%EA%B5%AD-%EC%84%9C%EC%9A%B8%ED%8A%B9%EB%B3%84%EC%8B%9C-%EC%84%B1%EB%B6%81%EA%B5%AC-%EC%A2%85%EC%95%94%EB%8F%99/", "workingTime": ["-", "08:00~21:00", "08:00~21:00", "08:00~21:00", "08:00~21:00", "08:00~21:00", "09:00~22:00", "08:00~21:00"]}, {"name": "\ucc38\uc57d\uc0ac\uc57d\uad6d", "lat": "37.6012013497909", "lng": "127.03395466998024", "url": "/info/%EC%B0%B8%EC%95%BD%EC%82%AC%EC%95%BD%EA%B5%AD-%EC%84%9C%EC%9A%B8%ED%8A%B9%EB%B3%84%EC%8B%9C-%EC%84%B1%EB%B6%81%EA%B5%AC-%EC%A2%85%EC%95%94%EB%8F%99/", "workingTime": ["1,2,3,4,5\uc9f8\uc8fc10:00~15:00", "08:30~19:30", "08:30~19:30", "08:30~19:30", "08:30~19:30", "08:30~19:30", "08:00~15:30", "10:00~15:00"]}, {"name": "\ucc38\uc57d\uad6d", "lat": "37.598834561407614", "lng": "127.0341840142357", "url": "/info/%EC%B0%B8%EC%95%BD%EA%B5%AD-%EC%84%9C%EC%9A%B8%ED%8A%B9%EB%B3%84%EC%8B%9C-%EC%84%B1%EB%B6%81%EA%B5%AC-%EC%A2%85%EC%95%94%EB%8F%99/", "workingTime": ["-", "09:00~20:00", "09:00~20:00", "09:00~20:00", "09:00~20:00", "09:00~20:00", "09:00~20:00", "-"]}, {"name": "\uc815\uc57d\uad6d", "lat": "37.600707930179915", "lng": "127.03654477477613", "url": "/info/%EC%A0%95%EC%95%BD%EA%B5%AD-%EC%84%9C%EC%9A%B8%ED%8A%B9%EB%B3%84%EC%8B%9C-%EC%84%B1%EB%B6%81%EA%B5%AC-%EC%A2%85%EC%95%94%EB%8F%99/", "workingTime": ["-", "09:00~19:00", "09:00~19:00", "09:00~19:00", "09:00~19:00", "09:00~19:00", "09:00~14:00", "-"]}, {"name": "\ubbfc\uc131\uc57d\uad6d", "lat": "37.60264362107512", "lng": "127.03146849015604", "url": "/info/%EB%AF%BC%EC%84%B1%EC%95%BD%EA%B5%AD-%EC%84%9C%EC%9A%B8%ED%8A%B9%EB%B3%84%EC%8B%9C-%EC%84%B1%EB%B6%81%EA%B5%AC-%EC%A2%85%EC%95%94%EB%8F%99/", "workingTime": ["-", "09:00~18:00", "09:00~18:00", "09:00~18:00", "09:00~18:00", "09:00~18:00", "09:00~13:00", "-"]}, {"name": "\uc131\ubd81\uc131\ubaa8\uc57d\uad6d", "lat": "37.5972641089401", "lng": "127.035488369859", "url": "/info/%EC%84%B1%EB%B6%81%EC%84%B1%EB%AA%A8%EC%95%BD%EA%B5%AD-%EC%84%9C%EC%9A%B8%ED%8A%B9%EB%B3%84%EC%8B%9C-%EC%84%B1%EB%B6%81%EA%B5%AC-%EC%A2%85%EC%95%94%EB%8F%99/", "workingTime": ["-", "09:30~21:00", "09:30~21:00", "09:30~21:00", "09:30~21:00", "09:30~21:00", "09:30~18:00", "-"]}, {"name": "\ud55c\ubbf8\uc57d\uad6d", "lat": "37.59895238533863", "lng": "127.03426167935302", "url": "/info/%ED%95%9C%EB%AF%B8%EC%95%BD%EA%B5%AD-%EC%84%9C%EC%9A%B8%ED%8A%B9%EB%B3%84%EC%8B%9C-%EC%84%B1%EB%B6%81%EA%B5%AC-%EC%A2%85%EC%95%94%EB%8F%99/", "workingTime": ["-", "09:00~21:00", "09:00~21:00", "09:00~21:00", "09:00~21:00", "09:00~21:00", "09:00~21:00", "10:00~19:00"]}, {"name": "\uc885\uc554\uc57d\uad6d", "lat": "37.59743227047935", "lng": "127.03546070329526", "url": "/info/%EC%A2%85%EC%95%94%EC%95%BD%EA%B5%AD-%EC%84%9C%EC%9A%B8%ED%8A%B9%EB%B3%84%EC%8B%9C-%EC%84%B1%EB%B6%81%EA%B5%AC-%EC%A2%85%EC%95%94%EB%8F%99/", "workingTime": ["-", "09:00~21:00", "09:00~21:00", "09:00~21:00", "09:00~21:00", "09:00~21:00", "-", "-"]}, {"name": "\uc1a1\uc6d0\uc628\ub204\ub9ac\uc57d\uad6d", "lat": "37.602133180740175", "lng": "127.03321902798955", "url": "/info/%EC%86%A1%EC%9B%90%EC%98%A8%EB%88%84%EB%A6%AC%EC%95%BD%EA%B5%AD-%EC%84%9C%EC%9A%B8%ED%8A%B9%EB%B3%84%EC%8B%9C-%EC%84%B1%EB%B6%81%EA%B5%AC-%EC%A2%85%EC%95%94%EB%8F%99/", "workingTime": ["-", "09:00~18:40", "09:00~18:40", "09:00~18:40", "09:00~18:40", "09:00~18:40", "09:00~16:00", "-"]}, {"name": "\uc0bc\uc6d0\uc57d\uad6d", "lat": "37.60102101125722", "lng": "127.03443926528966", "url": "/info/%EC%82%BC%EC%9B%90%EC%95%BD%EA%B5%AD-%EC%84%9C%EC%9A%B8%ED%8A%B9%EB%B3%84%EC%8B%9C-%EC%84%B1%EB%B6%81%EA%B5%AC-%EC%A2%85%EC%95%94%EB%8F%99/", "workingTime": ["-", "09:00~19:00", "09:00~19:00", "09:00~19:00", "09:00~19:00", "09:00~19:00", "09:00~17:00", "-"]}, {"name": "\uc0ac\ub791\uc758\uc57d\uad6d", "lat": "37.6003869669304", "lng": "127.03355118126564", "url": "/info/%EC%82%AC%EB%9E%91%EC%9D%98%EC%95%BD%EA%B5%AD-%EC%84%9C%EC%9A%B8%ED%8A%B9%EB%B3%84%EC%8B%9C-%EC%84%B1%EB%B6%81%EA%B5%AC-%EC%A2%85%EC%95%94%EB%8F%99/", "workingTime": ["-", "08:30~19:00", "08:30~19:00", "08:30~21:00", "08:30~19:00", "08:30~19:00", "08:30~15:30", "-"]}, {"name": "\uc740\ud61c\uc57d\uad6d", "lat": "37.5985487034", "lng": "127.0344018894", "url": "/info/%EC%9D%80%ED%98%9C%EC%95%BD%EA%B5%AD-%EC%84%9C%EC%9A%B8%ED%8A%B9%EB%B3%84%EC%8B%9C-%EC%84%B1%EB%B6%81%EA%B5%AC-%EC%A2%85%EC%95%94%EB%8F%99/", "workingTime": ["-", "09:00~19:30", "09:00~19:30", "09:00~19:30", "09:00~19:30", "09:00~19:30", "09:00~16:00", "-"]}]