[{"name": "\uc0c8\uc218\uc815\uc628\ub204\ub9ac\uc57d\uad6d", "lat": "37.554213450918596", "lng": "127.08822848687747", "url": "/info/%EC%83%88%EC%88%98%EC%A0%95%EC%98%A8%EB%88%84%EB%A6%AC%EC%95%BD%EA%B5%AD-%EC%84%9C%EC%9A%B8%ED%8A%B9%EB%B3%84%EC%8B%9C-%EA%B4%91%EC%A7%84%EA%B5%AC-%EC%A4%91%EA%B3%A1%EB%8F%99/", "workingTime": ["-", "08:30~19:00", "08:30~19:00", "08:30~19:00", "08:30~19:00", "08:30~19:00", "08:30~14:00", "-"]}, {"name": "\uc2e0\uc131\uc628\ub204\ub9ac\uc57d\uad6d", "lat": "37.5650621660135", "lng": "127.080415923364", "url": "/info/%EC%8B%A0%EC%84%B1%EC%98%A8%EB%88%84%EB%A6%AC%EC%95%BD%EA%B5%AD-%EC%84%9C%EC%9A%B8%ED%8A%B9%EB%B3%84%EC%8B%9C-%EA%B4%91%EC%A7%84%EA%B5%AC-%EC%A4%91%EA%B3%A1%EB%8F%99/", "workingTime": ["-", "08:30~19:00", "08:30~19:00", "08:30~19:00", "08:30~19:00", "08:30~19:00", "08:30~14:00", "-"]}, {"name": "\ub514\ub524\uc628\ub204\ub9ac\uc57d\uad6d", "lat": "37.5528428616", "lng": "127.0896528054", "url": "/info/%EB%94%94%EB%94%A4%EC%98%A8%EB%88%84%EB%A6%AC%EC%95%BD%EA%B5%AD-%EC%84%9C%EC%9A%B8%ED%8A%B9%EB%B3%84%EC%8B%9C-%EA%B4%91%EC%A7%84%EA%B5%AC-%EC%A4%91%EA%B3%A1%EB%8F%99/", "workingTime": ["-", "08:30~20:00", "08:30~19:00", "08:30~19:00", "08:30~19:00", "08:30~20:00", "08:30~16:00", "-"]}, {"name": "\ud587\ub2d8\uc57d\uad6d", "lat": "37.5573496039", "lng": "127.0822926973", "url": "/info/%ED%96%87%EB%8B%98%EC%95%BD%EA%B5%AD-%EC%84%9C%EC%9A%B8%ED%8A%B9%EB%B3%84%EC%8B%9C-%EA%B4%91%EC%A7%84%EA%B5%AC-%EC%A4%91%EA%B3%A1%EB%8F%99/", "workingTime": ["-", "09:00~21:00", "09:00~21:00", "09:00~21:00", "09:00~21:00", "09:00~21:00", "09:00~14:00", "-"]}, {"name": "\uc6b0\ub9ac\ub4e4\uc57d\uad6d", "lat": "37.556880555555558", "lng": "127.090127777777781", "url": "/info/%EC%9A%B0%EB%A6%AC%EB%93%A4%EC%95%BD%EA%B5%AD-%EC%84%9C%EC%9A%B8%ED%8A%B9%EB%B3%84%EC%8B%9C-%EA%B4%91%EC%A7%84%EA%B5%AC-%EC%A4%91%EA%B3%A1%EB%8F%99/", "workingTime": ["-", "09:00~20:40", "09:00~20:40", "09:00~20:40", "09:00~20:40", "09:00~20:40", "09:00~17:00", "-"]}, {"name": "\ud574\ub3d9\uc628\ub204\ub9ac\uc57d\uad6d", "lat": "37.55877303185888", "lng": "127.08750952137024", "url": "/info/%ED%95%B4%EB%8F%99%EC%98%A8%EB%88%84%EB%A6%AC%EC%95%BD%EA%B5%AD-%EC%84%9C%EC%9A%B8%ED%8A%B9%EB%B3%84%EC%8B%9C-%EA%B4%91%EC%A7%84%EA%B5%AC-%EC%A4%91%EA%B3%A1%EB%8F%99/", "workingTime": ["-", "09:00~20:00", "09:00~19:00", "09:00~20:00", "09:00~19:00", "09:00~20:00", "09:00~14:00", "-"]}, {"name": "\uc911\uc559\uc57d\uad6d", "lat": "37.55845586334207", "lng": "127.08752727956053", "url": "/info/%EC%A4%91%EC%95%99%EC%95%BD%EA%B5%AD-%EC%84%9C%EC%9A%B8%ED%8A%B9%EB%B3%84%EC%8B%9C-%EA%B4%91%EC%A7%84%EA%B5%AC-%EC%A4%91%EA%B3%A1%EB%8F%99/", "workingTime": ["-", "08:30~21:00", "08:30~21:00", "08:30~21:00", "08:30~21:00", "08:30~21:00", "08:30~20:00", "-"]}, {"name": "\uc911\uace1\uc885\ub85c\uc57d\uad6d", "lat": "37.5574688324514", "lng": "127.088244321697", "url": "/info/%EC%A4%91%EA%B3%A1%EC%A2%85%EB%A1%9C%EC%95%BD%EA%B5%AD-%EC%84%9C%EC%9A%B8%ED%8A%B9%EB%B3%84%EC%8B%9C-%EA%B4%91%EC%A7%84%EA%B5%AC-%EC%A4%91%EA%B3%A1%EB%8F%99/", "workingTime": ["1,2,3,4,5\uc9f8\uc8fc08:30~22:00", "08:30~22:00", "08:30~22:00", "08:30~22:00", "08:30~22:00", "08:30~22:00", "-", "10:00~21:00"]}, {"name": "\uc885\ud569\uc57d\uad6d", "lat": "37.5599516620022", "lng": "127.08733886600962", "url": "/info/%EC%A2%85%ED%95%A9%EC%95%BD%EA%B5%AD-%EC%84%9C%EC%9A%B8%ED%8A%B9%EB%B3%84%EC%8B%9C-%EA%B4%91%EC%A7%84%EA%B5%AC-%EC%A4%91%EA%B3%A1%EB%8F%99/", "workingTime": ["-", "09:00~20:00", "09:00~20:00", "09:00~20:00", "09:00~20:00", "09:00~20:00", "09:00~19:00", "-"]}, {"name": "\uc18c\ub9dd\uc628\ub204\ub9ac\uc57d\uad6d", "lat": "37.55801059261533", "lng": "127.08016571336651", "url": "/info/%EC%86%8C%EB%A7%9D%EC%98%A8%EB%88%84%EB%A6%AC%EC%95%BD%EA%B5%AD-%EC%84%9C%EC%9A%B8%ED%8A%B9%EB%B3%84%EC%8B%9C-%EA%B4%91%EC%A7%84%EA%B5%AC-%EC%A4%91%EA%B3%A1%EB%8F%99/", "workingTime": ["-", "08:30~21:00", "08:30~21:00", "08:30~21:00", "08:30~21:00", "08:30~21:00", "08:30~21:00", "-"]}, {"name": "\uc13c\ud130\uc628\ub204\ub9ac\uc57d\uad6d", "lat": "37.566292946909854", "lng": "127.08476554327002", "url": "/info/%EC%84%BC%ED%84%B0%EC%98%A8%EB%88%84%EB%A6%AC%EC%95%BD%EA%B5%AD-%EC%84%9C%EC%9A%B8%ED%8A%B9%EB%B3%84%EC%8B%9C-%EA%B4%91%EC%A7%84%EA%B5%AC-%EC%A4%91%EA%B3%A1%EB%8F%99/", "workingTime": ["-", "09:00~20:30", "09:00~20:30", "09:00~20:30", "09:00~20:30", "09:00~20:30", "09:00~15:30", "-"]}, {"name": "\uc138\uba85\uc57d\uad6d", "lat": "37.556491666666666", "lng": "127.082047222222229", "url": "/info/%EC%84%B8%EB%AA%85%EC%95%BD%EA%B5%AD-%EC%84%9C%EC%9A%B8%ED%8A%B9%EB%B3%84%EC%8B%9C-%EA%B4%91%EC%A7%84%EA%B5%AC-%EC%A4%91%EA%B3%A1%EB%8F%99/", "workingTime": ["-", "09:00~21:00", "09:00~21:00", "09:00~21:00", "09:00~21:00", "09:00~21:00", "09:00~20:00", "-"]}, {"name": "\uc11c\uc6b8\uc81c\uc77c\uc57d\uad6d", "lat": "37.5627452739", "lng": "127.0815697245", "url": "/info/%EC%84%9C%EC%9A%B8%EC%A0%9C%EC%9D%BC%EC%95%BD%EA%B5%AD-%EC%84%9C%EC%9A%B8%ED%8A%B9%EB%B3%84%EC%8B%9C-%EA%B4%91%EC%A7%84%EA%B5%AC-%EC%A4%91%EA%B3%A1%EB%8F%99/", "workingTime": ["-", "08:30~21:00", "08:30~19:00", "08:30~19:00", "08:30~21:00", "08:30~19:00", "08:30~14:00", "-"]}, {"name": "\uc11c\ubb38\uc0ac\ub791\uc57d\uad6d", "lat": "37.56615931944539", "lng": "127.08515476383769", "url": "/info/%EC%84%9C%EB%AC%B8%EC%82%AC%EB%9E%91%EC%95%BD%EA%B5%AD-%EC%84%9C%EC%9A%B8%ED%8A%B9%EB%B3%84%EC%8B%9C-%EA%B4%91%EC%A7%84%EA%B5%AC-%EC%A4%91%EA%B3%A1%EB%8F%99/", "workingTime": ["-", "09:00~19:00", "09:00~19:00", "09:00~19:00", "09:00~19:00", "09:00~19:00", "-", "-"]}, {"name": "\ub298\ud3b8\ud55c\uc57d\uad6d", "lat": "37.5648016070512", "lng": "127.080930080374", "url": "/info/%EB%8A%98%ED%8E%B8%ED%95%9C%EC%95%BD%EA%B5%AD-%EC%84%9C%EC%9A%B8%ED%8A%B9%EB%B3%84%EC%8B%9C-%EA%B4%91%EC%A7%84%EA%B5%AC-%EC%A4%91%EA%B3%A1%EB%8F%99/", "workingTime": ["-", "09:00~20:30", "09:00~20:30", "09:00~20:30", "09:00~20:30", "09:00~20:30", "-", "-"]}, {"name": "\uad70\uc790\ud55c\ub9c8\uc74c\uc57d\uad6d", "lat": "37.55724285893961", "lng": "127.08029615444795", "url": "/info/%EA%B5%B0%EC%9E%90%ED%95%9C%EB%A7%88%EC%9D%8C%EC%95%BD%EA%B5%AD-%EC%84%9C%EC%9A%B8%ED%8A%B9%EB%B3%84%EC%8B%9C-%EA%B4%91%EC%A7%84%EA%B5%AC-%EC%A4%91%EA%B3%A1%EB%8F%99/", "workingTime": ["-", "09:00~20:00", "09:00~20:00", "09:00~20:00", "09:00~20:00", "09:00~20:00", "09:00~16:00", "-"]}, {"name": "\uad70\uc790\uc870\uc740\uc57d\uad6d", "lat": "37.5576984952347", "lng": "127.079226104632", "url": "/info/%EA%B5%B0%EC%9E%90%EC%A1%B0%EC%9D%80%EC%95%BD%EA%B5%AD-%EC%84%9C%EC%9A%B8%ED%8A%B9%EB%B3%84%EC%8B%9C-%EA%B4%91%EC%A7%84%EA%B5%AC-%EC%A4%91%EA%B3%A1%EB%8F%99/", "workingTime": ["-", "09:00~18:00", "09:00~18:00", "09:00~18:00", "09:00~18:00", "09:00~18:00", "-", "-"]}, {"name": "\ud0dc\ub9ac\uc57d\uad6d", "lat": "37.5577717562884", "lng": "127.079479358802", "url": "/info/%ED%83%9C%EB%A6%AC%EC%95%BD%EA%B5%AD-%EC%84%9C%EC%9A%B8%ED%8A%B9%EB%B3%84%EC%8B%9C-%EA%B4%91%EC%A7%84%EA%B5%AC-%EC%A4%91%EA%B3%A1%EB%8F%99/", "workingTime": ["1,2,3,4,5\uc9f8\uc8fc08:00~18:00", "08:00~21:00", "08:00~21:00", "08:00~21:00", "08:00~21:00", "08:00~21:00", "08:00~18:00", "08:00~18:00"]}, {"name": "\uad70\uc790\uc885\ub85c\uc57d\uad6d", "lat": "37.55710022382309", "lng": "127.08069666448503", "url": "/info/%EA%B5%B0%EC%9E%90%EC%A2%85%EB%A1%9C%EC%95%BD%EA%B5%AD-%EC%84%9C%EC%9A%B8%ED%8A%B9%EB%B3%84%EC%8B%9C-%EA%B4%91%EC%A7%84%EA%B5%AC-%EC%A4%91%EA%B3%A1%EB%8F%99/", "workingTime": ["-", "07:30~20:00", "07:30~20:00", "07:30~20:00", "07:30~20:00", "07:30~20:00", "07:30~18:00", "-"]}, {"name": "\uc0c8\ub3d9\uc0b0\uc57d\uad6d", "lat": "37.56292092807656", "lng": "127.08291457010307", "url": "/info/%EC%83%88%EB%8F%99%EC%82%B0%EC%95%BD%EA%B5%AD-%EC%84%9C%EC%9A%B8%ED%8A%B9%EB%B3%84%EC%8B%9C-%EA%B4%91%EC%A7%84%EA%B5%AC-%EC%A4%91%EA%B3%A1%EB%8F%99/", "workingTime": ["-", "08:30~21:00", "08:30~21:00", "08:30~21:00", "08:30~21:00", "08:30~21:00", "08:30~21:00", "-"]}, {"name": "\ud504\ub77c\uc790\uc0ac\ub791\uc57d\uad6d", "lat": "37.5554374596027", "lng": "127.078796821131", "url": "/info/%ED%94%84%EB%9D%BC%EC%9E%90%EC%82%AC%EB%9E%91%EC%95%BD%EA%B5%AD-%EC%84%9C%EC%9A%B8%ED%8A%B9%EB%B3%84%EC%8B%9C-%EA%B4%91%EC%A7%84%EA%B5%AC-%EC%A4%91%EA%B3%A1%EB%8F%99/", "workingTime": ["-", "09:00~22:00", "09:00~22:00", "09:00~22:00", "09:00~22:00", "09:00~22:00", "09:00~22:00", "-"]}, {"name": "\ud478\ub978\uc628\ub204\ub9ac\uc57d\uad6d", "lat": "37.5583981256", "lng": "127.0773140275", "url": "/info/%ED%91%B8%EB%A5%B8%EC%98%A8%EB%88%84%EB%A6%AC%EC%95%BD%EA%B5%AD-%EC%84%9C%EC%9A%B8%ED%8A%B9%EB%B3%84%EC%8B%9C-%EA%B4%91%EC%A7%84%EA%B5%AC-%EC%A4%91%EA%B3%A1%EB%8F%99/", "workingTime": ["-", "09:00~21:00", "09:00~21:00", "09:00~21:00", "09:00~21:00", "09:00~21:00", "09:00~17:00", "-"]}, {"name": "\ucc38\uc0ac\ub791\uc57d\uad6d", "lat": "37.555752554641096", "lng": "127.08795417802955", "url": "/info/%EC%B0%B8%EC%82%AC%EB%9E%91%EC%95%BD%EA%B5%AD-%EC%84%9C%EC%9A%B8%ED%8A%B9%EB%B3%84%EC%8B%9C-%EA%B4%91%EC%A7%84%EA%B5%AC-%EC%A4%91%EA%B3%A1%EB%8F%99/", "workingTime": ["-", "08:30~21:30", "08:30~21:30", "08:30~21:30", "08:30~21:30", "08:30~21:30", "08:30~16:30", "-"]}, {"name": "\uc81c\uc911\uc57d\uad6d", "lat": "37.5683848714", "lng": "127.082485945", "url": "/info/%EC%A0%9C%EC%A4%91%EC%95%BD%EA%B5%AD-%EC%84%9C%EC%9A%B8%ED%8A%B9%EB%B3%84%EC%8B%9C-%EA%B4%91%EC%A7%84%EA%B5%AC-%EC%A4%91%EA%B3%A1%EB%8F%99/", "workingTime": ["-", "09:00~20:00", "09:00~20:00", "09:00~20:00", "09:00~20:00", "09:00~20:00", "09:00~15:00", "-"]}, {"name": "\uc911\uace1\uba54\ub514\uce7c\uc57d\uad6d", "lat": "37.55757276946699", "lng": "127.08768469376014", "url": "/info/%EC%A4%91%EA%B3%A1%EB%A9%94%EB%94%94%EC%B9%BC%EC%95%BD%EA%B5%AD-%EC%84%9C%EC%9A%B8%ED%8A%B9%EB%B3%84%EC%8B%9C-%EA%B4%91%EC%A7%84%EA%B5%AC-%EC%A4%91%EA%B3%A1%EB%8F%99/", "workingTime": ["-", "08:30~20:30", "08:30~20:30", "08:30~20:30", "08:30~20:30", "08:30~20:30", "08:30~19:00", "-"]}, {"name": "\uc911\uace1\uc5f4\ub9b0\uc57d\uad6d", "lat": "37.566590559", "lng": "127.08180935290001", "url": "/info/%EC%A4%91%EA%B3%A1%EC%97%B4%EB%A6%B0%EC%95%BD%EA%B5%AD-%EC%84%9C%EC%9A%B8%ED%8A%B9%EB%B3%84%EC%8B%9C-%EA%B4%91%EC%A7%84%EA%B5%AC-%EC%A4%91%EA%B3%A1%EB%8F%99/", "workingTime": ["1,2,3,4,5\uc9f8\uc8fc09:00~13:00", "09:00~20:30", "09:00~20:30", "09:00~20:30", "09:00~20:30", "09:00~20:30", "09:00~16:30", "-"]}, {"name": "\uc628\ub204\ub9ac\uc120\uba85\uc57d\uad6d", "lat": "37.558781946784784", "lng": "127.08803899961217", "url": "/info/%EC%98%A8%EB%88%84%EB%A6%AC%EC%84%A0%EB%AA%85%EC%95%BD%EA%B5%AD-%EC%84%9C%EC%9A%B8%ED%8A%B9%EB%B3%84%EC%8B%9C-%EA%B4%91%EC%A7%84%EA%B5%AC-%EC%A4%91%EA%B3%A1%EB%8F%99/", "workingTime": ["-", "09:00~20:00", "09:00~20:00", "09:00~20:00", "09:00~20:00", "09:00~20:00", "09:00~15:00", "-"]}, {"name": "\uc544\ub098\ud30c\uc57d\uad6d", "lat": "37.56812527722359", "lng": "127.08263960052537", "url": "/info/%EC%95%84%EB%82%98%ED%8C%8C%EC%95%BD%EA%B5%AD-%EC%84%9C%EC%9A%B8%ED%8A%B9%EB%B3%84%EC%8B%9C-%EA%B4%91%EC%A7%84%EA%B5%AC-%EC%A4%91%EA%B3%A1%EB%8F%99/", "workingTime": ["-", "09:00~20:00", "09:00~20:00", "09:00~20:00", "09:00~20:00", "09:00~20:00", "09:00~18:00", "-"]}, {"name": "\uc18c\ub77c\uc57d\uad6d", "lat": "37.5652307862202", "lng": "127.0809745198311", "url": "/info/%EC%86%8C%EB%9D%BC%EC%95%BD%EA%B5%AD-%EC%84%9C%EC%9A%B8%ED%8A%B9%EB%B3%84%EC%8B%9C-%EA%B4%91%EC%A7%84%EA%B5%AC-%EC%A4%91%EA%B3%A1%EB%8F%99/", "workingTime": ["1,2,3,4,5\uc9f8\uc8fc09:30~13:00", "09:00~20:00", "09:00~20:00", "09:00~20:00", "09:00~20:00", "09:00~20:00", "09:00~16:00", "-"]}, {"name": "\ubc31\uc870\uc628\ub204\ub9ac\uc57d\uad6d", "lat": "37.56376995335744", "lng": "127.07989116266309", "url": "/info/%EB%B0%B1%EC%A1%B0%EC%98%A8%EB%88%84%EB%A6%AC%EC%95%BD%EA%B5%AD-%EC%84%9C%EC%9A%B8%ED%8A%B9%EB%B3%84%EC%8B%9C-%EA%B4%91%EC%A7%84%EA%B5%AC-%EC%A4%91%EA%B3%A1%EB%8F%99/", "workingTime": ["-", "09:00~18:30", "09:00~18:30", "09:00~18:30", "09:00~18:30", "09:00~18:30", "09:00~21:00", "-"]}, {"name": "\ubc31\uc628\ub204\ub9ac\uc57d\uad6d", "lat": "37.56867284064056", "lng": "127.08298431321738", "url": "/info/%EB%B0%B1%EC%98%A8%EB%88%84%EB%A6%AC%EC%95%BD%EA%B5%AD-%EC%84%9C%EC%9A%B8%ED%8A%B9%EB%B3%84%EC%8B%9C-%EA%B4%91%EC%A7%84%EA%B5%AC-%EC%A4%91%EA%B3%A1%EB%8F%99/", "workingTime": ["-", "09:00~21:30", "09:00~21:30", "09:00~21:30", "09:00~21:30", "09:00~21:30", "09:00~21:30", "-"]}, {"name": "\ub2e4\uc628\uc57d\uad6d", "lat": "37.5630124203", "lng": "127.0809135441", "url": "/info/%EB%8B%A4%EC%98%A8%EC%95%BD%EA%B5%AD-%EC%84%9C%EC%9A%B8%ED%8A%B9%EB%B3%84%EC%8B%9C-%EA%B4%91%EC%A7%84%EA%B5%AC-%EC%A4%91%EA%B3%A1%EB%8F%99/", "workingTime": ["-", "08:30~19:00", "08:30~19:00", "08:30~19:00", "08:30~19:00", "08:30~19:00", "-", "-"]}, {"name": "\uae08\uc131\ub2f9\uc57d\uad6d", "lat": "37.55937459009092", "lng": "127.0879176909125", "url": "/info/%EA%B8%88%EC%84%B1%EB%8B%B9%EC%95%BD%EA%B5%AD-%EC%84%9C%EC%9A%B8%ED%8A%B9%EB%B3%84%EC%8B%9C-%EA%B4%91%EC%A7%84%EA%B5%AC-%EC%A4%91%EA%B3%A1%EB%8F%99/", "workingTime": ["-", "09:00~21:30", "09:00~21:30", "09:00~21:30", "09:00~21:30", "09:00~21:30", "09:30~15:00", "-"]}, {"name": "\uad11\uc9c4\ud504\ub77c\uc790\uc57d\uad6d", "lat": "37.56390324244855", "lng": "127.07997732645207", "url": "/info/%EA%B4%91%EC%A7%84%ED%94%84%EB%9D%BC%EC%9E%90%EC%95%BD%EA%B5%AD-%EC%84%9C%EC%9A%B8%ED%8A%B9%EB%B3%84%EC%8B%9C-%EA%B4%91%EC%A7%84%EA%B5%AC-%EC%A4%91%EA%B3%A1%EB%8F%99/", "workingTime": ["-", "09:00~20:00", "09:00~20:00", "09:00~20:00", "09:00~20:00", "09:00~20:00", "09:00~17:00", "-"]}, {"name": "\uad11\uc81c\uc0ac\uc57d\uad6d", "lat": "37.56498215007612", "lng": "127.0809199260874", "url": "/info/%EA%B4%91%EC%A0%9C%EC%82%AC%EC%95%BD%EA%B5%AD-%EC%84%9C%EC%9A%B8%ED%8A%B9%EB%B3%84%EC%8B%9C-%EA%B4%91%EC%A7%84%EA%B5%AC-%EC%A4%91%EA%B3%A1%EB%8F%99/", "workingTime": ["-", "09:00~21:00", "09:00~21:00", "09:00~21:00", "09:00~21:00", "09:00~21:00", "09:00~20:00", "-"]}, {"name": "21\uc138\uae30\uc57d\uad6d", "lat": "37.55796921118739", "lng": "127.0876806312264", "url": "/info/21%EC%84%B8%EA%B8%B0%EC%95%BD%EA%B5%AD-%EC%84%9C%EC%9A%B8%ED%8A%B9%EB%B3%84%EC%8B%9C-%EA%B4%91%EC%A7%84%EA%B5%AC-%EC%A4%91%EA%B3%A1%EB%8F%99/", "workingTime": ["-", "10:00~18:00", "10:00~18:00", "10:00~18:00", "10:00~18:00", "10:00~18:00", "10:00~13:00", "-"]}, {"name": "\uba54\ub514\ud31c\ubc31\uc545\uad00\uc57d\uad6d", "lat": "37.554047274", "lng": "127.0887534054", "url": "/info/%EB%A9%94%EB%94%94%ED%8C%9C%EB%B0%B1%EC%95%85%EA%B4%80%EC%95%BD%EA%B5%AD-%EC%84%9C%EC%9A%B8%ED%8A%B9%EB%B3%84%EC%8B%9C-%EA%B4%91%EC%A7%84%EA%B5%AC-%EC%A4%91%EA%B3%A1%EB%8F%99/", "workingTime": ["-", "09:00~20:00", "09:00~20:00", "09:00~20:00", "09:00~20:00", "09:00~20:00", "09:00~16:00", "-"]}]