[{"name": "\uc9c0\uc548\uc57d\uad6d", "lat": "37.6657563099309", "lng": "127.04363897722", "url": "/info/%EC%A7%80%EC%95%88%EC%95%BD%EA%B5%AD-%EC%84%9C%EC%9A%B8%ED%8A%B9%EB%B3%84%EC%8B%9C-%EB%8F%84%EB%B4%89%EA%B5%AC-%EB%B0%A9%ED%95%99%EB%8F%99/", "workingTime": ["-", "08:40~20:00", "08:40~20:00", "08:40~20:00", "08:40~20:00", "08:40~20:00", "08:40~14:30", "-"]}, {"name": "\ubd04\uc57d\uad6d", "lat": "37.6653467423279", "lng": "127.043589661213", "url": "/info/%EB%B4%84%EC%95%BD%EA%B5%AD-%EC%84%9C%EC%9A%B8%ED%8A%B9%EB%B3%84%EC%8B%9C-%EB%8F%84%EB%B4%89%EA%B5%AC-%EB%B0%A9%ED%95%99%EB%8F%99/", "workingTime": ["-", "08:30~19:30", "08:30~19:30", "08:30~19:30", "08:30~19:30", "08:30~19:30", "08:30~14:30", "-"]}, {"name": "\uc740\uc740\uc57d\uad6d", "lat": "37.6601780848", "lng": "127.0270319853", "url": "/info/%EC%9D%80%EC%9D%80%EC%95%BD%EA%B5%AD-%EC%84%9C%EC%9A%B8%ED%8A%B9%EB%B3%84%EC%8B%9C-%EB%8F%84%EB%B4%89%EA%B5%AC-%EB%B0%A9%ED%95%99%EB%8F%99/", "workingTime": ["-", "09:00~19:00", "09:00~19:00", "09:00~19:00", "09:00~19:00", "09:00~19:00", "09:00~14:00", "-"]}, {"name": "\uc6b0\ub9ac\ub4e4\uc57d\uad6d", "lat": "37.6649546325203", "lng": "127.041856585691", "url": "/info/%EC%9A%B0%EB%A6%AC%EB%93%A4%EC%95%BD%EA%B5%AD-%EC%84%9C%EC%9A%B8%ED%8A%B9%EB%B3%84%EC%8B%9C-%EB%8F%84%EB%B4%89%EA%B5%AC-%EB%B0%A9%ED%95%99%EB%8F%99/", "workingTime": ["-", "08:00~19:30", "08:00~19:30", "08:00~19:30", "08:00~19:30", "08:00~19:30", "08:00~17:00", "-"]}, {"name": "\ud587\ube5b\uc57d\uad6d", "lat": "37.66552673263015", "lng": "127.03561720541324", "url": "/info/%ED%96%87%EB%B9%9B%EC%95%BD%EA%B5%AD-%EC%84%9C%EC%9A%B8%ED%8A%B9%EB%B3%84%EC%8B%9C-%EB%8F%84%EB%B4%89%EA%B5%AC-%EB%B0%A9%ED%95%99%EB%8F%99/", "workingTime": ["-", "09:00~19:00", "09:00~19:00", "09:00~19:00", "09:00~19:00", "09:00~19:00", "09:00~14:00", "-"]}, {"name": "\ub3c4\ubd09\uc6d4\ub4dc\uc57d\uad6d", "lat": "37.66802902828828", "lng": "127.0470719602979", "url": "/info/%EB%8F%84%EB%B4%89%EC%9B%94%EB%93%9C%EC%95%BD%EA%B5%AD-%EC%84%9C%EC%9A%B8%ED%8A%B9%EB%B3%84%EC%8B%9C-%EB%8F%84%EB%B4%89%EA%B5%AC-%EB%B0%A9%ED%95%99%EB%8F%99/", "workingTime": ["-", "09:00~19:00", "09:00~19:00", "09:00~19:00", "09:00~19:00", "09:00~19:00", "09:00~16:00", "-"]}, {"name": "\ud2bc\ud2bc\uc57d\uad6d", "lat": "37.66215860958755", "lng": "127.0334112063508", "url": "/info/%ED%8A%BC%ED%8A%BC%EC%95%BD%EA%B5%AD-%EC%84%9C%EC%9A%B8%ED%8A%B9%EB%B3%84%EC%8B%9C-%EB%8F%84%EB%B4%89%EA%B5%AC-%EB%B0%A9%ED%95%99%EB%8F%99/", "workingTime": ["-", "08:30~20:00", "08:30~20:00", "08:30~20:00", "08:30~20:00", "08:30~20:00", "08:30~20:00", "-"]}, {"name": "\ucd08\ub85d\uc57d\uad6d", "lat": "37.662288764012196", "lng": "127.03393072560289", "url": "/info/%EC%B4%88%EB%A1%9D%EC%95%BD%EA%B5%AD-%EC%84%9C%EC%9A%B8%ED%8A%B9%EB%B3%84%EC%8B%9C-%EB%8F%84%EB%B4%89%EA%B5%AC-%EB%B0%A9%ED%95%99%EB%8F%99/", "workingTime": ["-", "09:00~19:00", "09:00~19:00", "09:00~19:00", "09:00~19:00", "09:00~19:00", "09:00~17:00", "-"]}, {"name": "\ubbf8\uc18c\uc57d\uad6d", "lat": "37.6648602093274", "lng": "127.043598783853", "url": "/info/%EB%AF%B8%EC%86%8C%EC%95%BD%EA%B5%AD-%EC%84%9C%EC%9A%B8%ED%8A%B9%EB%B3%84%EC%8B%9C-%EB%8F%84%EB%B4%89%EA%B5%AC-%EB%B0%A9%ED%95%99%EB%8F%99/", "workingTime": ["1,3,5\uc9f8\uc8fc10:00~22:00", "10:00~22:00", "10:00~22:00", "10:00~22:00", "10:00~22:00", "10:00~22:00", "10:00~22:00", "10:00~22:00"]}, {"name": "\uc131\uac00\uc628\ub204\ub9ac\uc57d\uad6d", "lat": "37.667450345245655", "lng": "127.04109824771473", "url": "/info/%EC%84%B1%EA%B0%80%EC%98%A8%EB%88%84%EB%A6%AC%EC%95%BD%EA%B5%AD-%EC%84%9C%EC%9A%B8%ED%8A%B9%EB%B3%84%EC%8B%9C-%EB%8F%84%EB%B4%89%EA%B5%AC-%EB%B0%A9%ED%95%99%EB%8F%99/", "workingTime": ["-", "09:00~21:00", "09:00~21:00", "09:00~21:00", "09:00~21:00", "09:00~21:00", "09:00~14:00", "-"]}, {"name": "\ub298\uae30\uc05c\uc57d\uad6d", "lat": "37.6691540103", "lng": "127.0438466892", "url": "/info/%EB%8A%98%EA%B8%B0%EC%81%9C%EC%95%BD%EA%B5%AD-%EC%84%9C%EC%9A%B8%ED%8A%B9%EB%B3%84%EC%8B%9C-%EB%8F%84%EB%B4%89%EA%B5%AC-%EB%B0%A9%ED%95%99%EB%8F%99/", "workingTime": ["-", "09:00~19:00", "09:00~19:00", "09:00~19:00", "09:00~19:00", "09:00~19:00", "-", "-"]}, {"name": "\ub098\uc9c4\uc57d\uad6d", "lat": "37.6613204213", "lng": "127.0274993351", "url": "/info/%EB%82%98%EC%A7%84%EC%95%BD%EA%B5%AD-%EC%84%9C%EC%9A%B8%ED%8A%B9%EB%B3%84%EC%8B%9C-%EB%8F%84%EB%B4%89%EA%B5%AC-%EB%B0%A9%ED%95%99%EB%8F%99/", "workingTime": ["-", "09:00~19:00", "09:00~19:00", "09:00~19:00", "09:00~19:00", "09:00~19:00", "09:00~15:00", "-"]}, {"name": "\uac74\uac15\uc57d\uad6d", "lat": "37.666835278293", "lng": "127.038602111789", "url": "/info/%EA%B1%B4%EA%B0%95%EC%95%BD%EA%B5%AD-%EC%84%9C%EC%9A%B8%ED%8A%B9%EB%B3%84%EC%8B%9C-%EB%8F%84%EB%B4%89%EA%B5%AC-%EB%B0%A9%ED%95%99%EB%8F%99/", "workingTime": ["-", "09:00~21:00", "09:00~21:00", "09:00~21:00", "09:00~21:00", "09:00~21:00", "09:00~21:00", "-"]}, {"name": "\ubc29\ud559\ud0dc\ud3c9\uc591\uc57d\uad6d", "lat": "37.66483545763569", "lng": "127.0363456254467", "url": "/info/%EB%B0%A9%ED%95%99%ED%83%9C%ED%8F%89%EC%96%91%EC%95%BD%EA%B5%AD-%EC%84%9C%EC%9A%B8%ED%8A%B9%EB%B3%84%EC%8B%9C-%EB%8F%84%EB%B4%89%EA%B5%AC-%EB%B0%A9%ED%95%99%EB%8F%99/", "workingTime": ["-", "09:00~19:00", "09:00~19:00", "09:00~19:00", "09:00~19:00", "09:00~19:00", "09:00~14:00", "-"]}, {"name": "\ud0dc\uc591\ub2f9\uc57d\uad6d", "lat": "37.668641666666666", "lng": "127.032022222222224", "url": "/info/%ED%83%9C%EC%96%91%EB%8B%B9%EC%95%BD%EA%B5%AD-%EC%84%9C%EC%9A%B8%ED%8A%B9%EB%B3%84%EC%8B%9C-%EB%8F%84%EB%B4%89%EA%B5%AC-%EB%B0%A9%ED%95%99%EB%8F%99/", "workingTime": ["-", "09:00~21:00", "09:00~21:00", "09:00~21:00", "09:00~21:00", "09:00~21:00", "09:00~21:00", "-"]}, {"name": "\uc9c4\uc131\uc628\ub204\ub9ac\uc57d\uad6d", "lat": "37.66527667309624", "lng": "127.04252968640865", "url": "/info/%EC%A7%84%EC%84%B1%EC%98%A8%EB%88%84%EB%A6%AC%EC%95%BD%EA%B5%AD-%EC%84%9C%EC%9A%B8%ED%8A%B9%EB%B3%84%EC%8B%9C-%EB%8F%84%EB%B4%89%EA%B5%AC-%EB%B0%A9%ED%95%99%EB%8F%99/", "workingTime": ["1,2,3,4,5\uc9f8\uc8fc15:00~19:00", "08:30~23:00", "08:30~23:00", "08:30~23:00", "08:30~23:00", "08:30~23:00", "08:30~23:00", "-"]}, {"name": "\uc0c1\ub85d\uc218\uc628\ub204\ub9ac\uc57d\uad6d", "lat": "37.66531550716934", "lng": "127.03579986875425", "url": "/info/%EC%83%81%EB%A1%9D%EC%88%98%EC%98%A8%EB%88%84%EB%A6%AC%EC%95%BD%EA%B5%AD-%EC%84%9C%EC%9A%B8%ED%8A%B9%EB%B3%84%EC%8B%9C-%EB%8F%84%EB%B4%89%EA%B5%AC-%EB%B0%A9%ED%95%99%EB%8F%99/", "workingTime": ["-", "09:00~21:00", "09:00~21:00", "09:00~21:00", "09:00~21:00", "09:00~21:00", "09:00~18:00", "-"]}, {"name": "\uc0b0\ub4e4\uc57d\uad6d", "lat": "37.66546648248699", "lng": "127.03523066567595", "url": "/info/%EC%82%B0%EB%93%A4%EC%95%BD%EA%B5%AD-%EC%84%9C%EC%9A%B8%ED%8A%B9%EB%B3%84%EC%8B%9C-%EB%8F%84%EB%B4%89%EA%B5%AC-%EB%B0%A9%ED%95%99%EB%8F%99/", "workingTime": ["-", "09:00~21:00", "09:00~21:00", "09:00~21:00", "09:00~21:00", "09:00~21:00", "08:00~16:00", "-"]}, {"name": "\uba54\ub514\uce7c\uc57d\uad6d", "lat": "37.66493142470252", "lng": "127.04230531913481", "url": "/info/%EB%A9%94%EB%94%94%EC%B9%BC%EC%95%BD%EA%B5%AD-%EC%84%9C%EC%9A%B8%ED%8A%B9%EB%B3%84%EC%8B%9C-%EB%8F%84%EB%B4%89%EA%B5%AC-%EB%B0%A9%ED%95%99%EB%8F%99/", "workingTime": ["-", "08:00~20:00", "08:00~20:00", "08:00~20:00", "08:00~20:00", "08:00~20:00", "08:00~18:00", "-"]}, {"name": "\ubc29\ud559\uc57d\uad6d", "lat": "37.66965876007842", "lng": "127.0433029227064", "url": "/info/%EB%B0%A9%ED%95%99%EC%95%BD%EA%B5%AD-%EC%84%9C%EC%9A%B8%ED%8A%B9%EB%B3%84%EC%8B%9C-%EB%8F%84%EB%B4%89%EA%B5%AC-%EB%B0%A9%ED%95%99%EB%8F%99/", "workingTime": ["-", "09:00~22:00", "09:00~22:00", "09:00~22:00", "09:00~22:00", "09:00~22:00", "09:00~22:00", "09:00~22:00"]}, {"name": "\ubc29\ud559\uc138\uacc4\ub85c\uc57d\uad6d", "lat": "37.66232102680753", "lng": "127.03455181258973", "url": "/info/%EB%B0%A9%ED%95%99%EC%84%B8%EA%B3%84%EB%A1%9C%EC%95%BD%EA%B5%AD-%EC%84%9C%EC%9A%B8%ED%8A%B9%EB%B3%84%EC%8B%9C-%EB%8F%84%EB%B4%89%EA%B5%AC-%EB%B0%A9%ED%95%99%EB%8F%99/", "workingTime": ["-", "09:00~21:30", "09:00~21:30", "09:00~21:30", "09:00~21:30", "09:00~21:30", "09:00~21:00", "-"]}, {"name": "\uc885\ub85c\uc138\uba85\uc57d\uad6d", "lat": "37.662464293060395", "lng": "127.0325148794517", "url": "/info/%EC%A2%85%EB%A1%9C%EC%84%B8%EB%AA%85%EC%95%BD%EA%B5%AD-%EC%84%9C%EC%9A%B8%ED%8A%B9%EB%B3%84%EC%8B%9C-%EB%8F%84%EB%B4%89%EA%B5%AC-%EB%B0%A9%ED%95%99%EB%8F%99/", "workingTime": ["1,2,3,4,5\uc9f8\uc8fc15:00~22:30", "10:00~22:30", "10:00~22:30", "10:00~22:30", "10:00~22:30", "10:00~22:30", "09:00~22:30", "14:00~23:00"]}, {"name": "\uc81c\uc0dd\uc57d\uad6d", "lat": "37.66563160580886", "lng": "127.03736607761884", "url": "/info/%EC%A0%9C%EC%83%9D%EC%95%BD%EA%B5%AD-%EC%84%9C%EC%9A%B8%ED%8A%B9%EB%B3%84%EC%8B%9C-%EB%8F%84%EB%B4%89%EA%B5%AC-%EB%B0%A9%ED%95%99%EB%8F%99/", "workingTime": ["-", "09:00~20:00", "09:00~20:00", "09:00~20:00", "09:00~20:00", "09:00~20:00", "09:00~17:00", "-"]}, {"name": "\uc6d4\ub4dc\uc911\uc559\uc57d\uad6d", "lat": "37.66802290026464", "lng": "127.04716815949999", "url": "/info/%EC%9B%94%EB%93%9C%EC%A4%91%EC%95%99%EC%95%BD%EA%B5%AD-%EC%84%9C%EC%9A%B8%ED%8A%B9%EB%B3%84%EC%8B%9C-%EB%8F%84%EB%B4%89%EA%B5%AC-%EB%B0%A9%ED%95%99%EB%8F%99/", "workingTime": ["-", "09:00~18:00", "09:00~18:00", "09:00~18:00", "09:00~18:00", "09:00~18:00", "-", "-"]}]