[{"name": "\ud589\ubcf5\ud55c\uc218\uc57d\uad6d", "lat": "37.516882996562224", "lng": "126.90681127166714", "url": "/info/%ED%96%89%EB%B3%B5%ED%95%9C%EC%88%98%EC%95%BD%EA%B5%AD-%EC%84%9C%EC%9A%B8%ED%8A%B9%EB%B3%84%EC%8B%9C-%EC%98%81%EB%93%B1%ED%8F%AC%EA%B5%AC-%EC%98%81%EB%93%B1%ED%8F%AC%EB%8F%993%EA%B0%80/", "workingTime": ["-", "09:00~21:00", "09:00~21:00", "09:00~21:00", "09:00~21:00", "09:00~19:30", "09:00~16:00", "-"]}, {"name": "\ub3d9\ubcf4\uc57d\uad6d", "lat": "37.5183455428", "lng": "126.9059497617", "url": "/info/%EB%8F%99%EB%B3%B4%EC%95%BD%EA%B5%AD-%EC%84%9C%EC%9A%B8%ED%8A%B9%EB%B3%84%EC%8B%9C-%EC%98%81%EB%93%B1%ED%8F%AC%EA%B5%AC-%EC%98%81%EB%93%B1%ED%8F%AC%EB%8F%993%EA%B0%80/", "workingTime": ["-", "08:00~22:30", "08:00~22:30", "08:00~22:30", "08:00~22:30", "08:00~22:30", "08:30~22:00", "-"]}, {"name": "\ub098\uc740\uc57d\uad6d", "lat": "37.5183625742201", "lng": "126.906179481554", "url": "/info/%EB%82%98%EC%9D%80%EC%95%BD%EA%B5%AD-%EC%84%9C%EC%9A%B8%ED%8A%B9%EB%B3%84%EC%8B%9C-%EC%98%81%EB%93%B1%ED%8F%AC%EA%B5%AC-%EC%98%81%EB%93%B1%ED%8F%AC%EB%8F%993%EA%B0%80/", "workingTime": ["-", "10:00~20:00", "10:00~19:00", "-", "10:00~19:00", "10:00~20:00", "10:00~16:00", "-"]}, {"name": "\uae08\uac15\uc628\ub204\ub9ac\uc57d\uad6d", "lat": "37.5173475954", "lng": "126.9064080018", "url": "/info/%EA%B8%88%EA%B0%95%EC%98%A8%EB%88%84%EB%A6%AC%EC%95%BD%EA%B5%AD-%EC%84%9C%EC%9A%B8%ED%8A%B9%EB%B3%84%EC%8B%9C-%EC%98%81%EB%93%B1%ED%8F%AC%EA%B5%AC-%EC%98%81%EB%93%B1%ED%8F%AC%EB%8F%993%EA%B0%80/", "workingTime": ["-", "08:35~21:25", "08:35~21:25", "08:35~21:25", "08:35~21:25", "08:35~21:25", "08:35~21:25", "-"]}, {"name": "21\uc138\uae30\uc2e0\ucc9c\uc9c0\uc57d\uad6d", "lat": "37.51927632914123", "lng": "126.90715217610938", "url": "/info/21%EC%84%B8%EA%B8%B0%EC%8B%A0%EC%B2%9C%EC%A7%80%EC%95%BD%EA%B5%AD-%EC%84%9C%EC%9A%B8%ED%8A%B9%EB%B3%84%EC%8B%9C-%EC%98%81%EB%93%B1%ED%8F%AC%EA%B5%AC-%EC%98%81%EB%93%B1%ED%8F%AC%EB%8F%993%EA%B0%80/", "workingTime": ["-", "08:00~20:00", "08:00~20:00", "08:00~20:00", "08:00~20:00", "08:00~20:00", "09:00~19:00", "09:00~18:00"]}, {"name": "\uc6b0\uc2e0\uc57d\uad6d", "lat": "37.5188561841", "lng": "126.9091119011", "url": "/info/%EC%9A%B0%EC%8B%A0%EC%95%BD%EA%B5%AD-%EC%84%9C%EC%9A%B8%ED%8A%B9%EB%B3%84%EC%8B%9C-%EC%98%81%EB%93%B1%ED%8F%AC%EA%B5%AC-%EC%98%81%EB%93%B1%ED%8F%AC%EB%8F%993%EA%B0%80/", "workingTime": ["1,2,3,4,5\uc9f8\uc8fc09:00~21:00", "09:00~21:00", "09:00~21:00", "09:00~21:00", "09:00~21:00", "09:00~21:00", "09:00~21:00", "08:30~21:00"]}, {"name": "\ub354\ube14\uc720\uc2a4\ud1a0\uc5b4\uc544\ub984\ub2e4\uc6b4\uc57d\uad6d", "lat": "37.5169621597", "lng": "126.906652812", "url": "/info/%EB%8D%94%EB%B8%94%EC%9C%A0%EC%8A%A4%ED%86%A0%EC%96%B4%EC%95%84%EB%A6%84%EB%8B%A4%EC%9A%B4%EC%95%BD%EA%B5%AD-%EC%84%9C%EC%9A%B8%ED%8A%B9%EB%B3%84%EC%8B%9C-%EC%98%81%EB%93%B1%ED%8F%AC%EA%B5%AC-%EC%98%81%EB%93%B1%ED%8F%AC%EB%8F%993%EA%B0%80/", "workingTime": ["1,2,3,4,5\uc9f8\uc8fc11:00~17:00", "09:00~21:00", "09:00~21:00", "09:00~21:00", "09:00~21:00", "09:00~21:00", "09:00~21:00", "-"]}]