[{"name": "\uc6b0\uc815\uc57d\uad6d", "lat": "37.5165301858178", "lng": "126.90604309721", "url": "/info/%EC%9A%B0%EC%A0%95%EC%95%BD%EA%B5%AD-%EC%84%9C%EC%9A%B8%ED%8A%B9%EB%B3%84%EC%8B%9C-%EC%98%81%EB%93%B1%ED%8F%AC%EA%B5%AC-%EC%98%81%EB%93%B1%ED%8F%AC%EB%8F%994%EA%B0%80/", "workingTime": ["-", "09:00~18:00", "09:00~18:00", "09:00~18:00", "09:00~18:00", "09:00~18:00", "09:00~13:00", "-"]}, {"name": "\ub4dc\ub9bc\uc57d\uad6d", "lat": "37.5172337072", "lng": "126.9037159932", "url": "/info/%EB%93%9C%EB%A6%BC%EC%95%BD%EA%B5%AD-%EC%84%9C%EC%9A%B8%ED%8A%B9%EB%B3%84%EC%8B%9C-%EC%98%81%EB%93%B1%ED%8F%AC%EA%B5%AC-%EC%98%81%EB%93%B1%ED%8F%AC%EB%8F%994%EA%B0%80/", "workingTime": ["1,2,3,4,5\uc9f8\uc8fc10:30~22:00", "10:30~22:00", "10:30~22:00", "10:30~22:00", "10:30~22:00", "10:30~22:00", "10:30~22:00", "10:30~22:00"]}, {"name": "\ud574\ube5b\uc628\ub204\ub9ac\uc57d\uad6d", "lat": "37.5197839119", "lng": "126.9019706772", "url": "/info/%ED%95%B4%EB%B9%9B%EC%98%A8%EB%88%84%EB%A6%AC%EC%95%BD%EA%B5%AD-%EC%84%9C%EC%9A%B8%ED%8A%B9%EB%B3%84%EC%8B%9C-%EC%98%81%EB%93%B1%ED%8F%AC%EA%B5%AC-%EC%98%81%EB%93%B1%ED%8F%AC%EB%8F%994%EA%B0%80/", "workingTime": ["-", "08:30~18:00", "08:30~18:00", "08:30~18:00", "08:30~18:00", "08:30~18:00", "08:30~14:30", "-"]}, {"name": "\ud558\ub098\ub85c\uc57d\uad6d", "lat": "37.519666997", "lng": "126.9044323051", "url": "/info/%ED%95%98%EB%82%98%EB%A1%9C%EC%95%BD%EA%B5%AD-%EC%84%9C%EC%9A%B8%ED%8A%B9%EB%B3%84%EC%8B%9C-%EC%98%81%EB%93%B1%ED%8F%AC%EA%B5%AC-%EC%98%81%EB%93%B1%ED%8F%AC%EB%8F%994%EA%B0%80/", "workingTime": ["-", "09:00~19:00", "09:00~19:00", "09:00~19:00", "09:00~19:00", "09:00~19:00", "09:00~14:00", "-"]}, {"name": "\ubd04\uc57d\uad6d", "lat": "37.5192599372783", "lng": "126.902029279404", "url": "/info/%EB%B4%84%EC%95%BD%EA%B5%AD-%EC%84%9C%EC%9A%B8%ED%8A%B9%EB%B3%84%EC%8B%9C-%EC%98%81%EB%93%B1%ED%8F%AC%EA%B5%AC-%EC%98%81%EB%93%B1%ED%8F%AC%EB%8F%994%EA%B0%80/", "workingTime": ["-", "08:30~18:00", "08:30~18:00", "08:30~18:00", "08:30~18:00", "08:30~18:00", "08:30~14:00", "-"]}, {"name": "\uc218\ubc94\uc57d\uad6d", "lat": "37.51632704964804", "lng": "126.90564916939235", "url": "/info/%EC%88%98%EB%B2%94%EC%95%BD%EA%B5%AD-%EC%84%9C%EC%9A%B8%ED%8A%B9%EB%B3%84%EC%8B%9C-%EC%98%81%EB%93%B1%ED%8F%AC%EA%B5%AC-%EC%98%81%EB%93%B1%ED%8F%AC%EB%8F%994%EA%B0%80/", "workingTime": ["2,4,5\uc9f8\uc8fc08:30~21:30", "08:30~21:30", "08:30~21:30", "08:30~21:30", "08:30~21:30", "08:30~21:30", "08:30~21:30", "-"]}, {"name": "\ub298\ud478\ub978\uc774\ud654\uc57d\uad6d", "lat": "37.51893093277018", "lng": "126.90339255693524", "url": "/info/%EB%8A%98%ED%91%B8%EB%A5%B8%EC%9D%B4%ED%99%94%EC%95%BD%EA%B5%AD-%EC%84%9C%EC%9A%B8%ED%8A%B9%EB%B3%84%EC%8B%9C-%EC%98%81%EB%93%B1%ED%8F%AC%EA%B5%AC-%EC%98%81%EB%93%B1%ED%8F%AC%EB%8F%994%EA%B0%80/", "workingTime": ["-", "09:00~18:00", "09:00~18:00", "09:00~18:00", "09:00~18:00", "09:00~18:00", "08:30~15:00", "-"]}, {"name": "\uce5c\uc808\uc57d\uad6d", "lat": "37.51978391188798", "lng": "126.90197067718434", "url": "/info/%EC%B9%9C%EC%A0%88%EC%95%BD%EA%B5%AD-%EC%84%9C%EC%9A%B8%ED%8A%B9%EB%B3%84%EC%8B%9C-%EC%98%81%EB%93%B1%ED%8F%AC%EA%B5%AC-%EC%98%81%EB%93%B1%ED%8F%AC%EB%8F%994%EA%B0%80/", "workingTime": ["-", "08:30~18:00", "08:30~18:00", "08:30~18:00", "08:30~18:00", "08:30~18:00", "08:30~15:00", "18:30~13:30"]}, {"name": "\uc601\ub4f1\ud3ec\uae38\uc57d\uad6d", "lat": "37.5197849027015", "lng": "126.90197033653", "url": "/info/%EC%98%81%EB%93%B1%ED%8F%AC%EA%B8%B8%EC%95%BD%EA%B5%AD-%EC%84%9C%EC%9A%B8%ED%8A%B9%EB%B3%84%EC%8B%9C-%EC%98%81%EB%93%B1%ED%8F%AC%EA%B5%AC-%EC%98%81%EB%93%B1%ED%8F%AC%EB%8F%994%EA%B0%80/", "workingTime": ["-", "08:30~18:00", "08:30~18:00", "08:30~18:00", "08:30~18:00", "08:30~18:00", "08:30~14:00", "-"]}, {"name": "\uc870\uc544\uc57d\uad6d", "lat": "37.5184760808639", "lng": "126.903251180927", "url": "/info/%EC%A1%B0%EC%95%84%EC%95%BD%EA%B5%AD-%EC%84%9C%EC%9A%B8%ED%8A%B9%EB%B3%84%EC%8B%9C-%EC%98%81%EB%93%B1%ED%8F%AC%EA%B5%AC-%EC%98%81%EB%93%B1%ED%8F%AC%EB%8F%994%EA%B0%80/", "workingTime": ["-", "09:00~19:00", "09:00~19:00", "09:00~19:00", "09:00~19:00", "09:00~19:00", "09:00~14:00", "-"]}, {"name": "\ucd08\uc6d0\uc57d\uad6d", "lat": "37.51908008143889", "lng": "126.90501429407243", "url": "/info/%EC%B4%88%EC%9B%90%EC%95%BD%EA%B5%AD-%EC%84%9C%EC%9A%B8%ED%8A%B9%EB%B3%84%EC%8B%9C-%EC%98%81%EB%93%B1%ED%8F%AC%EA%B5%AC-%EC%98%81%EB%93%B1%ED%8F%AC%EB%8F%994%EA%B0%80/", "workingTime": ["-", "08:00~21:00", "08:00~21:00", "08:00~21:00", "08:00~21:00", "08:00~21:00", "08:00~21:00", "-"]}, {"name": "\uc6b0\ub9ac\ud31c\uc57d\uad6d", "lat": "37.51955090836363", "lng": "126.90350489726544", "url": "/info/%EC%9A%B0%EB%A6%AC%ED%8C%9C%EC%95%BD%EA%B5%AD-%EC%84%9C%EC%9A%B8%ED%8A%B9%EB%B3%84%EC%8B%9C-%EC%98%81%EB%93%B1%ED%8F%AC%EA%B5%AC-%EC%98%81%EB%93%B1%ED%8F%AC%EB%8F%994%EA%B0%80/", "workingTime": ["-", "09:00~18:00", "09:00~18:00", "09:00~18:00", "09:00~18:00", "09:00~18:00", "09:00~15:00", "-"]}, {"name": "\uc6b0\ub9ac\uc548\uc57d\uad6d", "lat": "37.5200612926", "lng": "126.9018164713", "url": "/info/%EC%9A%B0%EB%A6%AC%EC%95%88%EC%95%BD%EA%B5%AD-%EC%84%9C%EC%9A%B8%ED%8A%B9%EB%B3%84%EC%8B%9C-%EC%98%81%EB%93%B1%ED%8F%AC%EA%B5%AC-%EC%98%81%EB%93%B1%ED%8F%AC%EB%8F%994%EA%B0%80/", "workingTime": ["-", "09:00~18:00", "09:00~18:00", "09:00~18:00", "09:00~18:00", "09:00~18:00", "09:00~15:00", "-"]}, {"name": "\uc218\uc815\uc57d\uad6d", "lat": "37.518758015395186", "lng": "126.90342202190106", "url": "/info/%EC%88%98%EC%A0%95%EC%95%BD%EA%B5%AD-%EC%84%9C%EC%9A%B8%ED%8A%B9%EB%B3%84%EC%8B%9C-%EC%98%81%EB%93%B1%ED%8F%AC%EA%B5%AC-%EC%98%81%EB%93%B1%ED%8F%AC%EB%8F%994%EA%B0%80/", "workingTime": ["-", "09:00~18:00", "09:00~18:00", "09:00~18:00", "09:00~18:00", "09:00~18:00", "09:00~13:00", "-"]}]