[{"name": "\uc591\uc9c0\uc57d\uad6d", "lat": "37.52814599114613", "lng": "127.14609422635956", "url": "/info/%EC%96%91%EC%A7%80%EC%95%BD%EA%B5%AD-%EC%84%9C%EC%9A%B8%ED%8A%B9%EB%B3%84%EC%8B%9C-%EA%B0%95%EB%8F%99%EA%B5%AC-%EB%91%94%EC%B4%8C%EB%8F%99/", "workingTime": ["-", "08:30~18:30", "08:30~18:30", "08:30~18:30", "08:30~18:30", "08:30~18:30", "-", "-"]}, {"name": "\ub3d9\uba85\uc57d\uad6d", "lat": "37.5306431396997", "lng": "127.137828644986", "url": "/info/%EB%8F%99%EB%AA%85%EC%95%BD%EA%B5%AD-%EC%84%9C%EC%9A%B8%ED%8A%B9%EB%B3%84%EC%8B%9C-%EA%B0%95%EB%8F%99%EA%B5%AC-%EB%91%94%EC%B4%8C%EB%8F%99/", "workingTime": ["-", "09:00~20:00", "09:00~20:00", "09:00~20:00", "09:00~20:00", "09:00~20:00", "09:00~16:00", "-"]}, {"name": "\uc911\uc559\ub300\uc601\uc57d\uad6d", "lat": "37.531165827", "lng": "127.1492317364", "url": "/info/%EC%A4%91%EC%95%99%EB%8C%80%EC%98%81%EC%95%BD%EA%B5%AD-%EC%84%9C%EC%9A%B8%ED%8A%B9%EB%B3%84%EC%8B%9C-%EA%B0%95%EB%8F%99%EA%B5%AC-%EB%91%94%EC%B4%8C%EB%8F%99/", "workingTime": ["-", "09:00~18:00", "09:00~18:00", "09:00~18:00", "09:00~18:00", "09:00~18:00", "-", "-"]}, {"name": "\uc900\uc57d\uad6d", "lat": "37.5292613524201", "lng": "127.142992352633", "url": "/info/%EC%A4%80%EC%95%BD%EA%B5%AD-%EC%84%9C%EC%9A%B8%ED%8A%B9%EB%B3%84%EC%8B%9C-%EA%B0%95%EB%8F%99%EA%B5%AC-%EB%91%94%EC%B4%8C%EB%8F%99/", "workingTime": ["-", "08:30~19:00", "08:30~19:00", "08:30~19:00", "08:30~19:00", "08:30~19:00", "08:30~14:00", "-"]}, {"name": "\uc870\uc740\uc57d\uad6d", "lat": "37.5315886002996", "lng": "127.14835463403322", "url": "/info/%EC%A1%B0%EC%9D%80%EC%95%BD%EA%B5%AD-%EC%84%9C%EC%9A%B8%ED%8A%B9%EB%B3%84%EC%8B%9C-%EA%B0%95%EB%8F%99%EA%B5%AC-%EB%91%94%EC%B4%8C%EB%8F%99/", "workingTime": ["-", "09:00~18:00", "09:00~18:00", "09:00~18:00", "09:00~18:00", "09:00~18:00", "-", "-"]}, {"name": "\uc815\ubb38\uc57d\uad6d", "lat": "37.5283874447999", "lng": "127.1457414414443", "url": "/info/%EC%A0%95%EB%AC%B8%EC%95%BD%EA%B5%AD-%EC%84%9C%EC%9A%B8%ED%8A%B9%EB%B3%84%EC%8B%9C-%EA%B0%95%EB%8F%99%EA%B5%AC-%EB%91%94%EC%B4%8C%EB%8F%99/", "workingTime": ["-", "09:00~18:00", "09:00~18:00", "09:00~18:00", "09:00~18:00", "09:00~18:00", "-", "-"]}, {"name": "\uc815\ub2f4\ud55c\uc57d\uad6d", "lat": "37.5335400075614", "lng": "127.14337750422", "url": "/info/%EC%A0%95%EB%8B%B4%ED%95%9C%EC%95%BD%EA%B5%AD-%EC%84%9C%EC%9A%B8%ED%8A%B9%EB%B3%84%EC%8B%9C-%EA%B0%95%EB%8F%99%EA%B5%AC-%EB%91%94%EC%B4%8C%EB%8F%99/", "workingTime": ["-", "10:00~18:00", "10:00~18:00", "10:00~18:00", "10:00~18:00", "10:00~18:00", "-", "-"]}, {"name": "7\ud615\uc81c\uc57d\uad6d", "lat": "37.529396242753094", "lng": "127.14296959467386", "url": "/info/7%ED%98%95%EC%A0%9C%EC%95%BD%EA%B5%AD-%EC%84%9C%EC%9A%B8%ED%8A%B9%EB%B3%84%EC%8B%9C-%EA%B0%95%EB%8F%99%EA%B5%AC-%EB%91%94%EC%B4%8C%EB%8F%99/", "workingTime": ["-", "09:00~22:00", "09:00~22:00", "09:00~22:00", "09:00~22:00", "09:00~22:00", "09:00~22:00", "-"]}, {"name": "\uc815\ub2e4\uc6b4\uc57d\uad6d", "lat": "37.52864686811656", "lng": "127.14615855756663", "url": "/info/%EC%A0%95%EB%8B%A4%EC%9A%B4%EC%95%BD%EA%B5%AD-%EC%84%9C%EC%9A%B8%ED%8A%B9%EB%B3%84%EC%8B%9C-%EA%B0%95%EB%8F%99%EA%B5%AC-%EB%91%94%EC%B4%8C%EB%8F%99/", "workingTime": ["-", "09:00~18:30", "09:00~18:30", "09:00~18:30", "09:00~18:30", "09:00~18:30", "-", "-"]}, {"name": "\uc6d4\ub4dc\ud31c\uc57d\uad6d", "lat": "37.531963551472224", "lng": "127.14189737974951", "url": "/info/%EC%9B%94%EB%93%9C%ED%8C%9C%EC%95%BD%EA%B5%AD-%EC%84%9C%EC%9A%B8%ED%8A%B9%EB%B3%84%EC%8B%9C-%EA%B0%95%EB%8F%99%EA%B5%AC-%EB%91%94%EC%B4%8C%EB%8F%99/", "workingTime": ["-", "09:00~21:30", "09:00~21:30", "09:00~21:30", "09:00~21:30", "09:00~21:30", "09:00~21:00", "-"]}, {"name": "\uc6b0\ub9ac\uc120\uc57d\uad6d", "lat": "37.53141161196866", "lng": "127.1486665414076", "url": "/info/%EC%9A%B0%EB%A6%AC%EC%84%A0%EC%95%BD%EA%B5%AD-%EC%84%9C%EC%9A%B8%ED%8A%B9%EB%B3%84%EC%8B%9C-%EA%B0%95%EB%8F%99%EA%B5%AC-%EB%91%94%EC%B4%8C%EB%8F%99/", "workingTime": ["-", "08:30~18:30", "08:30~18:30", "08:30~18:30", "08:30~18:30", "08:30~18:30", "-", "-"]}, {"name": "\ubb34\uc9c0\uac1c\uc57d\uad6d", "lat": "37.52847343539627", "lng": "127.14542059528203", "url": "/info/%EB%AC%B4%EC%A7%80%EA%B0%9C%EC%95%BD%EA%B5%AD-%EC%84%9C%EC%9A%B8%ED%8A%B9%EB%B3%84%EC%8B%9C-%EA%B0%95%EB%8F%99%EA%B5%AC-%EB%91%94%EC%B4%8C%EB%8F%99/", "workingTime": ["-", "08:40~19:30", "08:40~19:30", "08:40~19:30", "08:40~19:30", "08:40~19:30", "08:40~12:00", "-"]}, {"name": "\uc704\ub4dc\ud31c\ub9cc\ubcf4\uc57d\uad6d", "lat": "37.528207505207725", "lng": "127.14589523383962", "url": "/info/%EC%9C%84%EB%93%9C%ED%8C%9C%EB%A7%8C%EB%B3%B4%EC%95%BD%EA%B5%AD-%EC%84%9C%EC%9A%B8%ED%8A%B9%EB%B3%84%EC%8B%9C-%EA%B0%95%EB%8F%99%EA%B5%AC-%EB%91%94%EC%B4%8C%EB%8F%99/", "workingTime": ["-", "09:00~19:00", "09:00~19:00", "09:00~19:00", "09:00~19:00", "09:00~19:00", "09:00~18:00", "-"]}]