[{"name": "537\uc57d\uad6d", "lat": "37.5042573629887", "lng": "127.034962510098", "url": "/info/537%EC%95%BD%EA%B5%AD-%EC%84%9C%EC%9A%B8%ED%8A%B9%EB%B3%84%EC%8B%9C-%EA%B0%95%EB%82%A8%EA%B5%AC-%EC%97%AD%EC%82%BC%EB%8F%99/", "workingTime": ["-", "10:00~20:10", "10:00~19:10", "10:00~19:10", "10:00~19:10", "10:00~20:10", "10:00~16:10", "-"]}, {"name": "\uc774\ub85c\uc6b4\uc57d\uad6d", "lat": "37.4955481444177", "lng": "127.03006467392", "url": "/info/%EC%9D%B4%EB%A1%9C%EC%9A%B4%EC%95%BD%EA%B5%AD-%EC%84%9C%EC%9A%B8%ED%8A%B9%EB%B3%84%EC%8B%9C-%EA%B0%95%EB%82%A8%EA%B5%AC-%EC%97%AD%EC%82%BC%EB%8F%99/", "workingTime": ["-", "09:00~19:00", "09:00~19:00", "09:00~19:00", "09:00~19:00", "09:00~19:00", "11:00~14:00", "-"]}, {"name": "\ub354\ubd04\uc57d\uad6d", "lat": "37.4985922447348", "lng": "127.051565861863", "url": "/info/%EB%8D%94%EB%B4%84%EC%95%BD%EA%B5%AD-%EC%84%9C%EC%9A%B8%ED%8A%B9%EB%B3%84%EC%8B%9C-%EA%B0%95%EB%82%A8%EA%B5%AC-%EC%97%AD%EC%82%BC%EB%8F%99/", "workingTime": ["-", "-", "-", "-", "-", "-", "-", "-"]}, {"name": "\uc131\uc9c0\uc57d\uad6d", "lat": "37.5030089141425", "lng": "127.026341665224", "url": "/info/%EC%84%B1%EC%A7%80%EC%95%BD%EA%B5%AD-%EC%84%9C%EC%9A%B8%ED%8A%B9%EB%B3%84%EC%8B%9C-%EA%B0%95%EB%82%A8%EA%B5%AC-%EC%97%AD%EC%82%BC%EB%8F%99/", "workingTime": ["-", "09:00~17:30", "09:00~17:30", "09:00~17:30", "09:00~17:30", "09:00~17:30", "09:00~15:00", "-"]}, {"name": "\uc774\ud654\ud0dc\ud3c9\uc591\uc57d\uad6d", "lat": "37.4971857834581", "lng": "127.052159610697", "url": "/info/%EC%9D%B4%ED%99%94%ED%83%9C%ED%8F%89%EC%96%91%EC%95%BD%EA%B5%AD-%EC%84%9C%EC%9A%B8%ED%8A%B9%EB%B3%84%EC%8B%9C-%EA%B0%95%EB%82%A8%EA%B5%AC-%EC%97%AD%EC%82%BC%EB%8F%99/", "workingTime": ["-", "08:30~20:00", "08:30~20:00", "08:30~20:00", "08:30~20:00", "08:30~20:00", "08:30~17:00", "-"]}, {"name": "\uc77c\ubc88\uc9c0\uc57d\uad6d", "lat": "37.497129779969654", "lng": "127.03038375615196", "url": "/info/%EC%9D%BC%EB%B2%88%EC%A7%80%EC%95%BD%EA%B5%AD-%EC%84%9C%EC%9A%B8%ED%8A%B9%EB%B3%84%EC%8B%9C-%EA%B0%95%EB%82%A8%EA%B5%AC-%EC%97%AD%EC%82%BC%EB%8F%99/", "workingTime": ["1,2,3,4,5\uc9f8\uc8fc13:00~18:00", "08:30~21:00", "08:30~21:00", "08:30~21:00", "08:30~21:00", "08:30~21:00", "09:00~19:00", "10:00~18:00"]}, {"name": "\uc774\uc988\ud0c0\uc6cc\uc57d\uad6d", "lat": "37.4986224205", "lng": "127.0280638046", "url": "/info/%EC%9D%B4%EC%A6%88%ED%83%80%EC%9B%8C%EC%95%BD%EA%B5%AD-%EC%84%9C%EC%9A%B8%ED%8A%B9%EB%B3%84%EC%8B%9C-%EA%B0%95%EB%82%A8%EA%B5%AC-%EC%97%AD%EC%82%BC%EB%8F%99/", "workingTime": ["-", "10:00~15:00", "10:00~15:00", "10:00~15:00", "10:00~15:00", "10:00~15:00", "10:00~18:00", "-"]}, {"name": "\uc601\uc6d0\uc57d\uad6d", "lat": "37.5045335804", "lng": "127.0255914666", "url": "/info/%EC%98%81%EC%9B%90%EC%95%BD%EA%B5%AD-%EC%84%9C%EC%9A%B8%ED%8A%B9%EB%B3%84%EC%8B%9C-%EA%B0%95%EB%82%A8%EA%B5%AC-%EC%97%AD%EC%82%BC%EB%8F%99/", "workingTime": ["-", "09:00~18:00", "09:00~18:00", "09:00~18:00", "09:00~18:00", "09:00~18:00", "-", "-"]}, {"name": "\uc5ed\uc0bc\ud558\ub098\uc57d\uad6d", "lat": "37.505714100939954", "lng": "127.0321334715919", "url": "/info/%EC%97%AD%EC%82%BC%ED%95%98%EB%82%98%EC%95%BD%EA%B5%AD-%EC%84%9C%EC%9A%B8%ED%8A%B9%EB%B3%84%EC%8B%9C-%EA%B0%95%EB%82%A8%EA%B5%AC-%EC%97%AD%EC%82%BC%EB%8F%99/", "workingTime": ["-", "08:30~17:30", "08:30~17:30", "08:30~17:30", "08:30~17:30", "08:30~17:30", "08:30~13:00", "-"]}, {"name": "\uc5ed\uc0bc\uc6b0\uc8fc\uc57d\uad6d", "lat": "37.5009283641885", "lng": "127.040751330892", "url": "/info/%EC%97%AD%EC%82%BC%EC%9A%B0%EC%A3%BC%EC%95%BD%EA%B5%AD-%EC%84%9C%EC%9A%B8%ED%8A%B9%EB%B3%84%EC%8B%9C-%EA%B0%95%EB%82%A8%EA%B5%AC-%EC%97%AD%EC%82%BC%EB%8F%99/", "workingTime": ["-", "10:30~21:00", "10:30~21:00", "10:30~21:00", "10:30~21:00", "10:30~21:00", "13:00~18:30", "-"]}, {"name": "\uc5ed\uc0bc\uc0dd\uc0dd\uc57d\uad6d", "lat": "37.49881829869848", "lng": "127.0366223652186", "url": "/info/%EC%97%AD%EC%82%BC%EC%83%9D%EC%83%9D%EC%95%BD%EA%B5%AD-%EC%84%9C%EC%9A%B8%ED%8A%B9%EB%B3%84%EC%8B%9C-%EA%B0%95%EB%82%A8%EA%B5%AC-%EC%97%AD%EC%82%BC%EB%8F%99/", "workingTime": ["-", "09:00~19:30", "09:00~19:30", "09:00~19:30", "09:00~19:30", "09:00~19:30", "-", "-"]}, {"name": "\uc5ed\uc0bc\ub2e4\uc778\uc57d\uad6d", "lat": "37.50279215938419", "lng": "127.03546757771583", "url": "/info/%EC%97%AD%EC%82%BC%EB%8B%A4%EC%9D%B8%EC%95%BD%EA%B5%AD-%EC%84%9C%EC%9A%B8%ED%8A%B9%EB%B3%84%EC%8B%9C-%EA%B0%95%EB%82%A8%EA%B5%AC-%EC%97%AD%EC%82%BC%EB%8F%99/", "workingTime": ["-", "09:00~19:00", "09:00~19:00", "09:00~19:00", "09:00~19:00", "09:00~19:00", "09:00~16:00", "-"]}, {"name": "\ud574\ubc14\ub77c\uae30\uc57d\uad6d", "lat": "37.4918533105983", "lng": "127.03104820955", "url": "/info/%ED%95%B4%EB%B0%94%EB%9D%BC%EA%B8%B0%EC%95%BD%EA%B5%AD-%EC%84%9C%EC%9A%B8%ED%8A%B9%EB%B3%84%EC%8B%9C-%EA%B0%95%EB%82%A8%EA%B5%AC-%EC%97%AD%EC%82%BC%EB%8F%99/", "workingTime": ["-", "09:00~21:00", "09:00~19:00", "09:00~19:00", "09:00~21:00", "09:00~19:00", "09:00~16:00", "-"]}, {"name": "\ud654\uc778\uc57d\uad6d", "lat": "37.49601058380385", "lng": "127.02917556985943", "url": "/info/%ED%99%94%EC%9D%B8%EC%95%BD%EA%B5%AD-%EC%84%9C%EC%9A%B8%ED%8A%B9%EB%B3%84%EC%8B%9C-%EA%B0%95%EB%82%A8%EA%B5%AC-%EC%97%AD%EC%82%BC%EB%8F%99/", "workingTime": ["-", "09:00~19:00", "09:00~19:00", "09:00~19:00", "09:00~19:00", "09:00~19:00", "09:00~15:00", "-"]}, {"name": "\ud638\uc6d0\uc57d\uad6d", "lat": "37.5085370804", "lng": "127.0404997421", "url": "/info/%ED%98%B8%EC%9B%90%EC%95%BD%EA%B5%AD-%EC%84%9C%EC%9A%B8%ED%8A%B9%EB%B3%84%EC%8B%9C-%EA%B0%95%EB%82%A8%EA%B5%AC-%EC%97%AD%EC%82%BC%EB%8F%99/", "workingTime": ["1,2,3,4,5\uc9f8\uc8fc18:00~22:00", "09:00~22:00", "09:00~22:00", "09:00~22:00", "09:00~22:00", "09:00~22:00", "09:00~22:00", "-"]}, {"name": "\uc218\uc628\ub204\ub9ac\uc57d\uad6d", "lat": "37.5014444869", "lng": "127.0401475881", "url": "/info/%EC%88%98%EC%98%A8%EB%88%84%EB%A6%AC%EC%95%BD%EA%B5%AD-%EC%84%9C%EC%9A%B8%ED%8A%B9%EB%B3%84%EC%8B%9C-%EA%B0%95%EB%82%A8%EA%B5%AC-%EC%97%AD%EC%82%BC%EB%8F%99/", "workingTime": ["-", "08:30~20:00", "08:30~20:00", "08:30~20:00", "08:30~20:00", "08:30~20:00", "-", "-"]}, {"name": "\uc218\uc57d\uad6d", "lat": "37.497325328671", "lng": "127.05117688101471", "url": "/info/%EC%88%98%EC%95%BD%EA%B5%AD-%EC%84%9C%EC%9A%B8%ED%8A%B9%EB%B3%84%EC%8B%9C-%EA%B0%95%EB%82%A8%EA%B5%AC-%EC%97%AD%EC%82%BC%EB%8F%99/", "workingTime": ["1,2,3,4,5\uc9f8\uc8fc09:00~23:00", "09:00~23:00", "09:00~23:00", "09:00~23:00", "09:00~23:00", "09:00~23:00", "09:00~23:00", "-"]}, {"name": "\ud589\ubcf5\ud55c\uc57d\uad6d", "lat": "37.50165691198043", "lng": "127.04076744664714", "url": "/info/%ED%96%89%EB%B3%B5%ED%95%9C%EC%95%BD%EA%B5%AD-%EC%84%9C%EC%9A%B8%ED%8A%B9%EB%B3%84%EC%8B%9C-%EA%B0%95%EB%82%A8%EA%B5%AC-%EC%97%AD%EC%82%BC%EB%8F%99/", "workingTime": ["-", "09:30~20:00", "09:30~19:00", "09:30~19:00", "09:30~20:00", "09:30~19:00", "09:30~16:00", "-"]}, {"name": "\ub77c\uc628\uc57d\uad6d", "lat": "37.4915693683974", "lng": "127.03118027892", "url": "/info/%EB%9D%BC%EC%98%A8%EC%95%BD%EA%B5%AD-%EC%84%9C%EC%9A%B8%ED%8A%B9%EB%B3%84%EC%8B%9C-%EA%B0%95%EB%82%A8%EA%B5%AC-%EC%97%AD%EC%82%BC%EB%8F%99/", "workingTime": ["-", "08:40~21:00", "08:40~21:00", "08:40~21:00", "08:40~21:00", "08:40~21:00", "09:00~17:00", "10:00~18:00"]}, {"name": "\ub77c\ub77c\uc57d\uad6d", "lat": "37.49960540529676", "lng": "127.03167849762427", "url": "/info/%EB%9D%BC%EB%9D%BC%EC%95%BD%EA%B5%AD-%EC%84%9C%EC%9A%B8%ED%8A%B9%EB%B3%84%EC%8B%9C-%EA%B0%95%EB%82%A8%EA%B5%AC-%EC%97%AD%EC%82%BC%EB%8F%99/", "workingTime": ["-", "10:00~21:00", "10:00~21:00", "10:00~21:00", "10:00~21:00", "10:00~21:00", "10:00~21:00", "-"]}, {"name": "\ud574\ub9bc\uc628\ub204\ub9ac\uc57d\uad6d", "lat": "37.500070828279775", "lng": "127.0365474747219", "url": "/info/%ED%95%B4%EB%A6%BC%EC%98%A8%EB%88%84%EB%A6%AC%EC%95%BD%EA%B5%AD-%EC%84%9C%EC%9A%B8%ED%8A%B9%EB%B3%84%EC%8B%9C-%EA%B0%95%EB%82%A8%EA%B5%AC-%EC%97%AD%EC%82%BC%EB%8F%99/", "workingTime": ["-", "09:00~20:30", "09:00~20:30", "09:00~20:30", "09:00~20:30", "09:00~20:30", "09:30~16:00", "-"]}, {"name": "\ud55c\ud2f0\ud558\ub098\uc57d\uad6d", "lat": "37.4958653891477", "lng": "127.050639191063", "url": "/info/%ED%95%9C%ED%8B%B0%ED%95%98%EB%82%98%EC%95%BD%EA%B5%AD-%EC%84%9C%EC%9A%B8%ED%8A%B9%EB%B3%84%EC%8B%9C-%EA%B0%95%EB%82%A8%EA%B5%AC-%EC%97%AD%EC%82%BC%EB%8F%99/", "workingTime": ["-", "09:00~19:00", "09:00~20:00", "09:00~19:00", "09:00~19:00", "09:00~20:00", "09:00~16:00", "-"]}, {"name": "\ub3d9\uc544\uc57d\uad6d", "lat": "37.491676462651284", "lng": "127.03198724138393", "url": "/info/%EB%8F%99%EC%95%84%EC%95%BD%EA%B5%AD-%EC%84%9C%EC%9A%B8%ED%8A%B9%EB%B3%84%EC%8B%9C-%EA%B0%95%EB%82%A8%EA%B5%AC-%EC%97%AD%EC%82%BC%EB%8F%99/", "workingTime": ["-", "09:00~22:00", "09:00~22:00", "09:00~22:00", "09:00~22:00", "09:00~22:00", "09:00~19:00", "-"]}, {"name": "\ud55c\uc0ac\ub791\uc57d\uad6d", "lat": "37.505281734679656", "lng": "127.04830743929945", "url": "/info/%ED%95%9C%EC%82%AC%EB%9E%91%EC%95%BD%EA%B5%AD-%EC%84%9C%EC%9A%B8%ED%8A%B9%EB%B3%84%EC%8B%9C-%EA%B0%95%EB%82%A8%EA%B5%AC-%EC%97%AD%EC%82%BC%EB%8F%99/", "workingTime": ["-", "09:00~19:00", "09:00~19:00", "09:00~19:00", "09:00~19:00", "09:00~19:00", "09:00~14:00", "-"]}, {"name": "\uc62c\ub9ac\ube0c\uc628\ub204\ub9ac\uc57d\uad6d", "lat": "37.498991916", "lng": "127.0345506761", "url": "/info/%EC%98%AC%EB%A6%AC%EB%B8%8C%EC%98%A8%EB%88%84%EB%A6%AC%EC%95%BD%EA%B5%AD-%EC%84%9C%EC%9A%B8%ED%8A%B9%EB%B3%84%EC%8B%9C-%EA%B0%95%EB%82%A8%EA%B5%AC-%EC%97%AD%EC%82%BC%EB%8F%99/", "workingTime": ["-", "09:00~21:00", "09:00~21:00", "09:00~21:00", "09:00~21:00", "09:00~21:00", "09:00~17:00", "-"]}, {"name": "\ud31c\uc2a4\uc57d\uad6d", "lat": "37.501931889086", "lng": "127.036089184436", "url": "/info/%ED%8C%9C%EC%8A%A4%EC%95%BD%EA%B5%AD-%EC%84%9C%EC%9A%B8%ED%8A%B9%EB%B3%84%EC%8B%9C-%EA%B0%95%EB%82%A8%EA%B5%AC-%EC%97%AD%EC%82%BC%EB%8F%99/", "workingTime": ["-", "09:00~19:00", "09:00~19:00", "09:00~19:00", "09:00~19:00", "09:00~19:00", "09:00~14:00", "-"]}, {"name": "\uc0c1\uc9c0\uc628\ub204\ub9ac\uc57d\uad6d", "lat": "37.5055537720741", "lng": "127.047714121429", "url": "/info/%EC%83%81%EC%A7%80%EC%98%A8%EB%88%84%EB%A6%AC%EC%95%BD%EA%B5%AD-%EC%84%9C%EC%9A%B8%ED%8A%B9%EB%B3%84%EC%8B%9C-%EA%B0%95%EB%82%A8%EA%B5%AC-%EC%97%AD%EC%82%BC%EB%8F%99/", "workingTime": ["-", "09:00~22:00", "09:00~22:00", "09:00~22:00", "09:00~22:00", "09:00~22:00", "09:00~18:00", "-"]}, {"name": "\ud0c0\uc784\uc57d\uad6d", "lat": "37.503434127300004", "lng": "127.049105761", "url": "/info/%ED%83%80%EC%9E%84%EC%95%BD%EA%B5%AD-%EC%84%9C%EC%9A%B8%ED%8A%B9%EB%B3%84%EC%8B%9C-%EA%B0%95%EB%82%A8%EA%B5%AC-%EC%97%AD%EC%82%BC%EB%8F%99/", "workingTime": ["-", "09:30~20:00", "09:30~20:00", "09:30~20:00", "09:30~20:00", "09:30~20:00", "09:30~20:00", "-"]}, {"name": "\ud070\uae38\uc57d\uad6d", "lat": "37.4958597444988", "lng": "127.029219161362", "url": "/info/%ED%81%B0%EA%B8%B8%EC%95%BD%EA%B5%AD-%EC%84%9C%EC%9A%B8%ED%8A%B9%EB%B3%84%EC%8B%9C-%EA%B0%95%EB%82%A8%EA%B5%AC-%EC%97%AD%EC%82%BC%EB%8F%99/", "workingTime": ["1,2,3,4,5\uc9f8\uc8fc09:00~23:30", "09:00~23:30", "09:00~23:30", "09:00~23:30", "09:00~23:30", "09:00~23:30", "09:00~23:30", "09:00~23:30"]}, {"name": "\uc0bc\uc8fc\uc57d\uad6d", "lat": "37.4987836804", "lng": "127.0317052916", "url": "/info/%EC%82%BC%EC%A3%BC%EC%95%BD%EA%B5%AD-%EC%84%9C%EC%9A%B8%ED%8A%B9%EB%B3%84%EC%8B%9C-%EA%B0%95%EB%82%A8%EA%B5%AC-%EC%97%AD%EC%82%BC%EB%8F%99/", "workingTime": ["-", "08:30~20:00", "08:30~20:00", "08:30~20:00", "08:30~20:00", "08:30~20:00", "11:00~17:00", "-"]}, {"name": "\ub2e4\uc815\uc628\ub204\ub9ac\uc57d\uad6d", "lat": "37.5022315132", "lng": "127.0359590455", "url": "/info/%EB%8B%A4%EC%A0%95%EC%98%A8%EB%88%84%EB%A6%AC%EC%95%BD%EA%B5%AD-%EC%84%9C%EC%9A%B8%ED%8A%B9%EB%B3%84%EC%8B%9C-%EA%B0%95%EB%82%A8%EA%B5%AC-%EC%97%AD%EC%82%BC%EB%8F%99/", "workingTime": ["-", "09:00~19:00", "09:00~19:00", "09:00~19:00", "09:00~19:00", "09:00~19:00", "09:00~13:00", "-"]}, {"name": "\ucc38\uc88b\uc740\uc120\uc57d\uad6d", "lat": "37.501579124343905", "lng": "127.03615777458234", "url": "/info/%EC%B0%B8%EC%A2%8B%EC%9D%80%EC%84%A0%EC%95%BD%EA%B5%AD-%EC%84%9C%EC%9A%B8%ED%8A%B9%EB%B3%84%EC%8B%9C-%EA%B0%95%EB%82%A8%EA%B5%AC-%EC%97%AD%EC%82%BC%EB%8F%99/", "workingTime": ["-", "09:00~19:00", "09:00~19:00", "09:00~19:00", "09:00~19:00", "09:00~19:00", "09:00~14:00", "-"]}, {"name": "\ube44\ud0c0\uc57d\uad6d", "lat": "37.5061371187148", "lng": "127.034077257047", "url": "/info/%EB%B9%84%ED%83%80%EC%95%BD%EA%B5%AD-%EC%84%9C%EC%9A%B8%ED%8A%B9%EB%B3%84%EC%8B%9C-%EA%B0%95%EB%82%A8%EA%B5%AC-%EC%97%AD%EC%82%BC%EB%8F%99/", "workingTime": ["-", "09:00~20:00", "09:00~20:00", "09:00~20:00", "09:00~20:00", "09:00~20:00", "09:00~14:00", "-"]}, {"name": "\ubc14\ub85c\uc5ec\uae30\uc57d\uad6d", "lat": "37.503445606475", "lng": "127.035997853857", "url": "/info/%EB%B0%94%EB%A1%9C%EC%97%AC%EA%B8%B0%EC%95%BD%EA%B5%AD-%EC%84%9C%EC%9A%B8%ED%8A%B9%EB%B3%84%EC%8B%9C-%EA%B0%95%EB%82%A8%EA%B5%AC-%EC%97%AD%EC%82%BC%EB%8F%99/", "workingTime": ["-", "09:00~19:00", "09:00~19:00", "09:00~19:00", "09:00~19:00", "09:00~19:00", "09:00~15:30", "-"]}, {"name": "\ubaa8\uac74\uc57d\uad6d", "lat": "37.49858928828226", "lng": "127.03085479145025", "url": "/info/%EB%AA%A8%EA%B1%B4%EC%95%BD%EA%B5%AD-%EC%84%9C%EC%9A%B8%ED%8A%B9%EB%B3%84%EC%8B%9C-%EA%B0%95%EB%82%A8%EA%B5%AC-%EC%97%AD%EC%82%BC%EB%8F%99/", "workingTime": ["-", "09:00~21:00", "09:00~21:00", "09:00~21:00", "09:00~21:00", "09:00~20:00", "09:00~17:00", "-"]}, {"name": "\uc138\ucf54\uc544\uc57d\uad6d", "lat": "37.5012739795743", "lng": "127.036366846779", "url": "/info/%EC%84%B8%EC%BD%94%EC%95%84%EC%95%BD%EA%B5%AD-%EC%84%9C%EC%9A%B8%ED%8A%B9%EB%B3%84%EC%8B%9C-%EA%B0%95%EB%82%A8%EA%B5%AC-%EC%97%AD%EC%82%BC%EB%8F%99/", "workingTime": ["-", "09:00~19:00", "09:00~19:00", "09:00~19:00", "09:00~19:00", "09:00~19:00", "09:00~13:00", "-"]}, {"name": "\uac15\ub0a8\uc0d8\uc57d\uad6d", "lat": "37.4950921633", "lng": "127.045734972", "url": "/info/%EA%B0%95%EB%82%A8%EC%83%98%EC%95%BD%EA%B5%AD-%EC%84%9C%EC%9A%B8%ED%8A%B9%EB%B3%84%EC%8B%9C-%EA%B0%95%EB%82%A8%EA%B5%AC-%EC%97%AD%EC%82%BC%EB%8F%99/", "workingTime": ["-", "09:30~18:30", "09:30~18:30", "09:30~18:30", "09:30~18:30", "09:30~18:30", "09:30~14:00", "-"]}, {"name": "\uac15\ub0a8\ubd04\uc57d\uad6d", "lat": "37.4934315723756", "lng": "127.032179999229", "url": "/info/%EA%B0%95%EB%82%A8%EB%B4%84%EC%95%BD%EA%B5%AD-%EC%84%9C%EC%9A%B8%ED%8A%B9%EB%B3%84%EC%8B%9C-%EA%B0%95%EB%82%A8%EA%B5%AC-%EC%97%AD%EC%82%BC%EB%8F%99/", "workingTime": ["-", "10:00~18:00", "10:00~18:00", "-", "10:00~18:00", "10:00~18:00", "-", "-"]}, {"name": "\uc120\ub989\ud0c0\uc6cc\uc57d\uad6d", "lat": "37.503546695", "lng": "127.0470339351", "url": "/info/%EC%84%A0%EB%A6%89%ED%83%80%EC%9B%8C%EC%95%BD%EA%B5%AD-%EC%84%9C%EC%9A%B8%ED%8A%B9%EB%B3%84%EC%8B%9C-%EA%B0%95%EB%82%A8%EA%B5%AC-%EC%97%AD%EC%82%BC%EB%8F%99/", "workingTime": ["-", "08:00~19:00", "08:00~19:00", "08:00~19:00", "08:00~19:00", "08:00~19:00", "08:00~17:00", "-"]}, {"name": "\uc120\ub989\ucf54\ucf54\uc57d\uad6d", "lat": "37.5046959846", "lng": "127.0480118115", "url": "/info/%EC%84%A0%EB%A6%89%EC%BD%94%EC%BD%94%EC%95%BD%EA%B5%AD-%EC%84%9C%EC%9A%B8%ED%8A%B9%EB%B3%84%EC%8B%9C-%EA%B0%95%EB%82%A8%EA%B5%AC-%EC%97%AD%EC%82%BC%EB%8F%99/", "workingTime": ["-", "09:30~19:20", "09:30~19:20", "09:30~19:20", "09:30~19:20", "09:30~19:20", "09:00~16:30", "-"]}, {"name": "\uc0dd\uc0dd\uc57d\uad6d", "lat": "37.4988182987", "lng": "127.0366223652", "url": "/info/%EC%83%9D%EC%83%9D%EC%95%BD%EA%B5%AD-%EC%84%9C%EC%9A%B8%ED%8A%B9%EB%B3%84%EC%8B%9C-%EA%B0%95%EB%82%A8%EA%B5%AC-%EC%97%AD%EC%82%BC%EB%8F%99/", "workingTime": ["-", "09:00~19:30", "09:00~19:30", "09:00~19:30", "09:00~19:30", "09:00~19:30", "-", "-"]}, {"name": "\ub204\ub9ac\uc57d\uad6d", "lat": "37.50285200641426", "lng": "127.04474900223619", "url": "/info/%EB%88%84%EB%A6%AC%EC%95%BD%EA%B5%AD-%EC%84%9C%EC%9A%B8%ED%8A%B9%EB%B3%84%EC%8B%9C-%EA%B0%95%EB%82%A8%EA%B5%AC-%EC%97%AD%EC%82%BC%EB%8F%99/", "workingTime": ["1,2,3,4,5\uc9f8\uc8fc10:00~16:00", "08:30~20:30", "08:30~20:30", "08:30~20:30", "08:30~20:30", "08:30~20:30", "09:00~19:00", "10:00~16:00"]}, {"name": "\uacbd\ud76c\uc790\uc5f0\ud55c\uc57d\uad6d", "lat": "37.5010799233411", "lng": "127.034186353468", "url": "/info/%EA%B2%BD%ED%9D%AC%EC%9E%90%EC%97%B0%ED%95%9C%EC%95%BD%EA%B5%AD-%EC%84%9C%EC%9A%B8%ED%8A%B9%EB%B3%84%EC%8B%9C-%EA%B0%95%EB%82%A8%EA%B5%AC-%EC%97%AD%EC%82%BC%EB%8F%99/", "workingTime": ["-", "09:30~18:30", "09:30~18:30", "09:30~18:30", "09:30~18:30", "09:30~18:30", "09:30~14:00", "-"]}, {"name": "\uac1c\ub098\ub9ac\ubd04\uc57d\uad6d", "lat": "37.4992357232", "lng": "127.0484199573", "url": "/info/%EA%B0%9C%EB%82%98%EB%A6%AC%EB%B4%84%EC%95%BD%EA%B5%AD-%EC%84%9C%EC%9A%B8%ED%8A%B9%EB%B3%84%EC%8B%9C-%EA%B0%95%EB%82%A8%EA%B5%AC-%EC%97%AD%EC%82%BC%EB%8F%99/", "workingTime": ["1,2,3,4,5\uc9f8\uc8fc10:00~13:00", "09:00~19:00", "09:00~19:00", "09:00~19:00", "09:00~19:00", "09:00~19:00", "09:00~14:00", "-"]}, {"name": "\uac15\ub0a8\ucc28\ucc28\uc57d\uad6d", "lat": "37.499852933462", "lng": "127.029506833445", "url": "/info/%EA%B0%95%EB%82%A8%EC%B0%A8%EC%B0%A8%EC%95%BD%EA%B5%AD-%EC%84%9C%EC%9A%B8%ED%8A%B9%EB%B3%84%EC%8B%9C-%EA%B0%95%EB%82%A8%EA%B5%AC-%EC%97%AD%EC%82%BC%EB%8F%99/", "workingTime": ["-", "09:00~19:00", "09:00~19:00", "09:00~19:00", "09:00~19:00", "09:00~19:00", "-", "-"]}, {"name": "\uac15\ub0a8\uc6f0\uc57d\uad6d", "lat": "37.50123567", "lng": "127.0266307826", "url": "/info/%EA%B0%95%EB%82%A8%EC%9B%B0%EC%95%BD%EA%B5%AD-%EC%84%9C%EC%9A%B8%ED%8A%B9%EB%B3%84%EC%8B%9C-%EA%B0%95%EB%82%A8%EA%B5%AC-%EC%97%AD%EC%82%BC%EB%8F%99/", "workingTime": ["1,2,3,4\uc9f8\uc8fc09:00~22:00", "09:00~22:00", "09:00~22:00", "09:00~22:00", "09:00~22:00", "09:00~22:00", "09:00~22:00", "09:00~22:00"]}, {"name": "\uc2e0\ubd84\ub2f9\uc57d\uad6d", "lat": "37.4981646510326", "lng": "127.028307900881", "url": "/info/%EC%8B%A0%EB%B6%84%EB%8B%B9%EC%95%BD%EA%B5%AD-%EC%84%9C%EC%9A%B8%ED%8A%B9%EB%B3%84%EC%8B%9C-%EA%B0%95%EB%82%A8%EA%B5%AC-%EC%97%AD%EC%82%BC%EB%8F%99/", "workingTime": ["1,2,3,4,5\uc9f8\uc8fc10:00~21:00", "08:00~22:00", "08:00~22:00", "08:00~22:00", "08:00~22:00", "08:00~22:00", "09:00~22:00", "10:00~21:00"]}, {"name": "\uc544\ub984\uc57d\uad6d", "lat": "37.4955514918", "lng": "127.0292929975", "url": "/info/%EC%95%84%EB%A6%84%EC%95%BD%EA%B5%AD-%EC%84%9C%EC%9A%B8%ED%8A%B9%EB%B3%84%EC%8B%9C-%EA%B0%95%EB%82%A8%EA%B5%AC-%EC%97%AD%EC%82%BC%EB%8F%99/", "workingTime": ["-", "09:00~20:30", "09:00~20:30", "09:00~20:30", "09:00~20:30", "09:00~20:30", "09:00~15:30", "-"]}, {"name": "\uc5f0\uc138\uc5f4\ub9b0\uc57d\uad6d", "lat": "37.4943719440503", "lng": "127.046081352647", "url": "/info/%EC%97%B0%EC%84%B8%EC%97%B4%EB%A6%B0%EC%95%BD%EA%B5%AD-%EC%84%9C%EC%9A%B8%ED%8A%B9%EB%B3%84%EC%8B%9C-%EA%B0%95%EB%82%A8%EA%B5%AC-%EC%97%AD%EC%82%BC%EB%8F%99/", "workingTime": ["-", "08:30~20:00", "08:30~20:00", "08:30~20:00", "08:30~20:00", "08:30~20:00", "08:30~13:00", "-"]}, {"name": "\uc5ed\uc0bc\ud0dc\ud3c9\uc591\uc57d\uad6d", "lat": "37.50631974716381", "lng": "127.03469205446554", "url": "/info/%EC%97%AD%EC%82%BC%ED%83%9C%ED%8F%89%EC%96%91%EC%95%BD%EA%B5%AD-%EC%84%9C%EC%9A%B8%ED%8A%B9%EB%B3%84%EC%8B%9C-%EA%B0%95%EB%82%A8%EA%B5%AC-%EC%97%AD%EC%82%BC%EB%8F%99/", "workingTime": ["1,2,3,4,5\uc9f8\uc8fc09:00~13:00", "09:00~19:00", "09:00~19:00", "09:00~19:00", "09:00~19:00", "09:00~19:00", "09:00~14:00", "-"]}, {"name": "\ud55c\ud2f0\uc5ed\uc57d\uad6d", "lat": "37.4960980886032", "lng": "127.051336283187", "url": "/info/%ED%95%9C%ED%8B%B0%EC%97%AD%EC%95%BD%EA%B5%AD-%EC%84%9C%EC%9A%B8%ED%8A%B9%EB%B3%84%EC%8B%9C-%EA%B0%95%EB%82%A8%EA%B5%AC-%EC%97%AD%EC%82%BC%EB%8F%99/", "workingTime": ["-", "08:30~18:30", "08:30~18:30", "08:30~18:30", "08:30~18:30", "08:30~18:30", "08:30~14:30", "-"]}, {"name": "\uac15\ub0a8\uc5ed2\ubc88\ucd9c\uad6c\uc57d\uad6d", "lat": "37.4974495848055", "lng": "127.028422526103", "url": "/info/%EA%B0%95%EB%82%A8%EC%97%AD2%EB%B2%88%EC%B6%9C%EA%B5%AC%EC%95%BD%EA%B5%AD-%EC%84%9C%EC%9A%B8%ED%8A%B9%EB%B3%84%EC%8B%9C-%EA%B0%95%EB%82%A8%EA%B5%AC-%EC%97%AD%EC%82%BC%EB%8F%99/", "workingTime": ["1,2,3,4,5\uc9f8\uc8fc08:30~11:00", "09:30~19:30", "09:30~19:30", "08:30~19:30", "09:30~19:30", "09:30~20:00", "08:00~17:00", "-"]}, {"name": "\ud55c\ud2f0\ucc38\uc57d\uad6d", "lat": "37.4966557888844", "lng": "127.052414134692", "url": "/info/%ED%95%9C%ED%8B%B0%EC%B0%B8%EC%95%BD%EA%B5%AD-%EC%84%9C%EC%9A%B8%ED%8A%B9%EB%B3%84%EC%8B%9C-%EA%B0%95%EB%82%A8%EA%B5%AC-%EC%97%AD%EC%82%BC%EB%8F%99/", "workingTime": ["-", "08:30~21:00", "08:30~21:00", "08:30~21:00", "08:30~21:00", "08:30~21:00", "08:30~15:00", "-"]}, {"name": "\uac15\ub0a8\uc36c\uc57d\uad6d", "lat": "37.4976674173806", "lng": "127.029286360295", "url": "/info/%EA%B0%95%EB%82%A8%EC%8D%AC%EC%95%BD%EA%B5%AD-%EC%84%9C%EC%9A%B8%ED%8A%B9%EB%B3%84%EC%8B%9C-%EA%B0%95%EB%82%A8%EA%B5%AC-%EC%97%AD%EC%82%BC%EB%8F%99/", "workingTime": ["-", "09:50~21:30", "09:50~21:30", "09:50~21:30", "09:50~21:30", "09:50~21:30", "09:50~19:30", "-"]}, {"name": "\ub2e4\uc62c\uc57d\uad6d", "lat": "37.5030603030703", "lng": "127.049314853598", "url": "/info/%EB%8B%A4%EC%98%AC%EC%95%BD%EA%B5%AD-%EC%84%9C%EC%9A%B8%ED%8A%B9%EB%B3%84%EC%8B%9C-%EA%B0%95%EB%82%A8%EA%B5%AC-%EC%97%AD%EC%82%BC%EB%8F%99/", "workingTime": ["-", "10:00~20:30", "10:00~20:30", "10:00~20:30", "10:00~20:30", "10:00~20:30", "10:00~17:00", "-"]}, {"name": "\uc5ed\uc0bc\uc13c\ud130\uc57d\uad6d", "lat": "37.5028813541774", "lng": "127.041356540268", "url": "/info/%EC%97%AD%EC%82%BC%EC%84%BC%ED%84%B0%EC%95%BD%EA%B5%AD-%EC%84%9C%EC%9A%B8%ED%8A%B9%EB%B3%84%EC%8B%9C-%EA%B0%95%EB%82%A8%EA%B5%AC-%EC%97%AD%EC%82%BC%EB%8F%99/", "workingTime": ["1,2,3,4,5\uc9f8\uc8fc10:00~21:00", "10:00~21:00", "10:00~21:00", "10:00~21:00", "10:00~21:00", "10:00~21:00", "10:00~21:00", "-"]}, {"name": "\ub2e4\uc774\uc544\uc57d\uad6d", "lat": "37.4964204469719", "lng": "127.02919484054", "url": "/info/%EB%8B%A4%EC%9D%B4%EC%95%84%EC%95%BD%EA%B5%AD-%EC%84%9C%EC%9A%B8%ED%8A%B9%EB%B3%84%EC%8B%9C-%EA%B0%95%EB%82%A8%EA%B5%AC-%EC%97%AD%EC%82%BC%EB%8F%99/", "workingTime": ["-", "10:00~19:00", "10:00~19:00", "10:00~19:00", "10:00~19:00", "10:00~19:00", "10:00~15:00", "-"]}, {"name": "\ub3d9\uc758\uc628\ub204\ub9ac\uc57d\uad6d", "lat": "37.4935558004055", "lng": "127.042256262991", "url": "/info/%EB%8F%99%EC%9D%98%EC%98%A8%EB%88%84%EB%A6%AC%EC%95%BD%EA%B5%AD-%EC%84%9C%EC%9A%B8%ED%8A%B9%EB%B3%84%EC%8B%9C-%EA%B0%95%EB%82%A8%EA%B5%AC-%EC%97%AD%EC%82%BC%EB%8F%99/", "workingTime": ["-", "09:00~19:00", "09:00~19:00", "09:00~19:00", "09:00~19:00", "09:00~19:00", "09:00~15:00", "-"]}, {"name": "\ubbf8\ub77c\ud074\uc57d\uad6d", "lat": "37.53560913263842", "lng": "126.87871485402333", "url": "/info/%EB%AF%B8%EB%9D%BC%ED%81%B4%EC%95%BD%EA%B5%AD-%EC%84%9C%EC%9A%B8%ED%8A%B9%EB%B3%84%EC%8B%9C-%EA%B0%95%EB%82%A8%EA%B5%AC-%EC%97%AD%EC%82%BC%EB%8F%99/", "workingTime": ["-", "09:00~20:00", "09:00~20:00", "09:00~20:00", "09:00~20:00", "09:00~20:00", "09:00~17:00", "-"]}, {"name": "\ubaa8\ub450\uc57d\uad6d", "lat": "37.5007162693593", "lng": "127.036618203089", "url": "/info/%EB%AA%A8%EB%91%90%EC%95%BD%EA%B5%AD-%EC%84%9C%EC%9A%B8%ED%8A%B9%EB%B3%84%EC%8B%9C-%EA%B0%95%EB%82%A8%EA%B5%AC-%EC%97%AD%EC%82%BC%EB%8F%99/", "workingTime": ["1,2,3,4,5\uc9f8\uc8fc10:00~16:00", "08:00~22:00", "08:00~22:00", "08:00~22:00", "08:00~22:00", "08:00~22:00", "10:00~18:00", "-"]}, {"name": "\uc57d\uc0ac\ub791\uc57d\uad6d", "lat": "37.50481107457366", "lng": "127.04859546503607", "url": "/info/%EC%95%BD%EC%82%AC%EB%9E%91%EC%95%BD%EA%B5%AD-%EC%84%9C%EC%9A%B8%ED%8A%B9%EB%B3%84%EC%8B%9C-%EA%B0%95%EB%82%A8%EA%B5%AC-%EC%97%AD%EC%82%BC%EB%8F%99/", "workingTime": ["1,2,3,4,5\uc9f8\uc8fc09:00~20:00", "09:00~23:00", "09:00~23:00", "09:00~23:00", "09:00~23:00", "09:00~23:00", "09:00~20:00", "09:00~20:00"]}, {"name": "\ud55c\uc194\uc778\uc720\ub85c\uc628\ub204\ub9ac\uc57d\uad6d", "lat": "37.49923572317221", "lng": "127.0484199572856", "url": "/info/%ED%95%9C%EC%86%94%EC%9D%B8%EC%9C%A0%EB%A1%9C%EC%98%A8%EB%88%84%EB%A6%AC%EC%95%BD%EA%B5%AD-%EC%84%9C%EC%9A%B8%ED%8A%B9%EB%B3%84%EC%8B%9C-%EA%B0%95%EB%82%A8%EA%B5%AC-%EC%97%AD%EC%82%BC%EB%8F%99/", "workingTime": ["-", "09:00~20:00", "09:00~20:00", "09:00~20:00", "09:00~20:00", "09:00~20:00", "-", "10:00~13:00"]}, {"name": "\ucf54\ucf54\uc628\ub204\ub9ac\uc57d\uad6d", "lat": "37.4989396781", "lng": "127.0276251418", "url": "/info/%EC%BD%94%EC%BD%94%EC%98%A8%EB%88%84%EB%A6%AC%EC%95%BD%EA%B5%AD-%EC%84%9C%EC%9A%B8%ED%8A%B9%EB%B3%84%EC%8B%9C-%EA%B0%95%EB%82%A8%EA%B5%AC-%EC%97%AD%EC%82%BC%EB%8F%99/", "workingTime": ["-", "09:30~21:30", "09:30~21:30", "09:30~21:30", "09:30~21:30", "09:30~21:30", "09:30~19:30", "-"]}, {"name": "\ucea0\ube0c\ub9ac\uc9c05\uce35\uc57d\uad6d", "lat": "37.49806707947852", "lng": "127.0293844494585", "url": "/info/%EC%BA%A0%EB%B8%8C%EB%A6%AC%EC%A7%805%EC%B8%B5%EC%95%BD%EA%B5%AD-%EC%84%9C%EC%9A%B8%ED%8A%B9%EB%B3%84%EC%8B%9C-%EA%B0%95%EB%82%A8%EA%B5%AC-%EC%97%AD%EC%82%BC%EB%8F%99/", "workingTime": ["-", "10:00~19:00", "10:00~19:00", "10:00~19:00", "10:00~19:00", "10:00~19:00", "10:00~17:00", "-"]}, {"name": "\ud50c\ub7ec\uc2a4\uc57d\uad6d", "lat": "37.498881615", "lng": "127.0292807277", "url": "/info/%ED%94%8C%EB%9F%AC%EC%8A%A4%EC%95%BD%EA%B5%AD-%EC%84%9C%EC%9A%B8%ED%8A%B9%EB%B3%84%EC%8B%9C-%EA%B0%95%EB%82%A8%EA%B5%AC-%EC%97%AD%EC%82%BC%EB%8F%99/", "workingTime": ["-", "09:00~22:00", "09:00~22:00", "09:00~22:00", "09:00~22:00", "09:00~22:00", "-", "-"]}, {"name": "\uc815\uc57d\uad6d", "lat": "37.5102805522774", "lng": "127.04297089989284", "url": "/info/%EC%A0%95%EC%95%BD%EA%B5%AD-%EC%84%9C%EC%9A%B8%ED%8A%B9%EB%B3%84%EC%8B%9C-%EA%B0%95%EB%82%A8%EA%B5%AC-%EC%97%AD%EC%82%BC%EB%8F%99/", "workingTime": ["-", "09:00~20:00", "09:00~20:00", "09:00~20:00", "09:00~20:00", "09:00~20:00", "09:00~13:00", "09:00~13:00"]}, {"name": "\uc740\ud558\uc57d\uad6d", "lat": "37.4958919676", "lng": "127.046477287", "url": "/info/%EC%9D%80%ED%95%98%EC%95%BD%EA%B5%AD-%EC%84%9C%EC%9A%B8%ED%8A%B9%EB%B3%84%EC%8B%9C-%EA%B0%95%EB%82%A8%EA%B5%AC-%EC%97%AD%EC%82%BC%EB%8F%99/", "workingTime": ["-", "10:00~21:00", "10:00~21:00", "10:00~21:00", "10:00~21:00", "10:00~21:00", "10:00~21:00", "-"]}, {"name": "\uc720\uc9c4\uc57d\uad6d", "lat": "37.496747222222226", "lng": "127.044944444444440", "url": "/info/%EC%9C%A0%EC%A7%84%EC%95%BD%EA%B5%AD-%EC%84%9C%EC%9A%B8%ED%8A%B9%EB%B3%84%EC%8B%9C-%EA%B0%95%EB%82%A8%EA%B5%AC-%EC%97%AD%EC%82%BC%EB%8F%99/", "workingTime": ["-", "09:00~19:00", "09:00~19:00", "09:00~19:00", "09:00~19:00", "09:00~19:00", "09:00~19:00", "-"]}, {"name": "\uc720\ub2c8\ud31c\uc11c\uc6b8\uc57d\uad6d", "lat": "37.49887356229729", "lng": "127.02905228699433", "url": "/info/%EC%9C%A0%EB%8B%88%ED%8C%9C%EC%84%9C%EC%9A%B8%EC%95%BD%EA%B5%AD-%EC%84%9C%EC%9A%B8%ED%8A%B9%EB%B3%84%EC%8B%9C-%EA%B0%95%EB%82%A8%EA%B5%AC-%EC%97%AD%EC%82%BC%EB%8F%99/", "workingTime": ["-", "09:00~22:00", "09:00~22:00", "09:00~22:00", "09:00~22:00", "09:00~22:00", "09:00~22:00", "10:00~18:00"]}, {"name": "\uc6f0\uadf8\ub9b0\uc57d\uad6d", "lat": "37.49733484585724", "lng": "127.05207817966351", "url": "/info/%EC%9B%B0%EA%B7%B8%EB%A6%B0%EC%95%BD%EA%B5%AD-%EC%84%9C%EC%9A%B8%ED%8A%B9%EB%B3%84%EC%8B%9C-%EA%B0%95%EB%82%A8%EA%B5%AC-%EC%97%AD%EC%82%BC%EB%8F%99/", "workingTime": ["1,2,3,4,5\uc9f8\uc8fc09:00~21:00", "09:00~21:00", "09:00~21:00", "09:00~21:00", "09:00~21:00", "09:00~21:00", "09:00~21:00", "-"]}, {"name": "\uc5ed\uc0bc\uc57d\uad6d", "lat": "37.49395912163263", "lng": "127.03373532921478", "url": "/info/%EC%97%AD%EC%82%BC%EC%95%BD%EA%B5%AD-%EC%84%9C%EC%9A%B8%ED%8A%B9%EB%B3%84%EC%8B%9C-%EA%B0%95%EB%82%A8%EA%B5%AC-%EC%97%AD%EC%82%BC%EB%8F%99/", "workingTime": ["-", "09:30~20:30", "09:30~20:30", "09:30~20:30", "09:30~20:30", "09:30~20:30", "10:00~20:00", "-"]}, {"name": "\uc5e0\ud50c\ub7ec\uc2a4\uc57d\uad6d", "lat": "37.4966563074652", "lng": "127.02869334995009", "url": "/info/%EC%97%A0%ED%94%8C%EB%9F%AC%EC%8A%A4%EC%95%BD%EA%B5%AD-%EC%84%9C%EC%9A%B8%ED%8A%B9%EB%B3%84%EC%8B%9C-%EA%B0%95%EB%82%A8%EA%B5%AC-%EC%97%AD%EC%82%BC%EB%8F%99/", "workingTime": ["-", "09:00~20:30", "09:00~20:30", "09:00~20:30", "09:00~20:30", "09:00~20:30", "09:00~17:00", "-"]}, {"name": "\uc5d0\uc774\ud0c0\uc6cc\uc57d\uad6d", "lat": "37.498636725", "lng": "127.0285297307", "url": "/info/%EC%97%90%EC%9D%B4%ED%83%80%EC%9B%8C%EC%95%BD%EA%B5%AD-%EC%84%9C%EC%9A%B8%ED%8A%B9%EB%B3%84%EC%8B%9C-%EA%B0%95%EB%82%A8%EA%B5%AC-%EC%97%AD%EC%82%BC%EB%8F%99/", "workingTime": ["-", "09:30~21:00", "09:30~21:00", "09:30~21:00", "09:30~21:30", "09:30~21:30", "09:30~18:00", "-"]}, {"name": "\uc0ec\ub86c\uc628\ub204\ub9ac\uc57d\uad6d", "lat": "37.50076737359149", "lng": "127.03882180174456", "url": "/info/%EC%83%AC%EB%A1%AC%EC%98%A8%EB%88%84%EB%A6%AC%EC%95%BD%EA%B5%AD-%EC%84%9C%EC%9A%B8%ED%8A%B9%EB%B3%84%EC%8B%9C-%EA%B0%95%EB%82%A8%EA%B5%AC-%EC%97%AD%EC%82%BC%EB%8F%99/", "workingTime": ["-", "09:00~20:00", "09:00~20:00", "09:00~20:00", "09:00~20:00", "09:00~20:00", "09:00~16:00", "-"]}, {"name": "\uc0d8\uc57d\uad6d", "lat": "37.50323692847112", "lng": "127.04658136277511", "url": "/info/%EC%83%98%EC%95%BD%EA%B5%AD-%EC%84%9C%EC%9A%B8%ED%8A%B9%EB%B3%84%EC%8B%9C-%EA%B0%95%EB%82%A8%EA%B5%AC-%EC%97%AD%EC%82%BC%EB%8F%99/", "workingTime": ["-", "09:00~22:00", "09:00~22:00", "09:00~22:00", "09:00~22:00", "09:00~22:00", "09:00~22:00", "-"]}, {"name": "\uc544\ub85c\ub9c8\uc57d\uad6d", "lat": "37.49786315304607", "lng": "127.04282947306211", "url": "/info/%EC%95%84%EB%A1%9C%EB%A7%88%EC%95%BD%EA%B5%AD-%EC%84%9C%EC%9A%B8%ED%8A%B9%EB%B3%84%EC%8B%9C-%EA%B0%95%EB%82%A8%EA%B5%AC-%EC%97%AD%EC%82%BC%EB%8F%99/", "workingTime": ["1,2,3,4,5\uc9f8\uc8fc09:00~13:00", "09:00~19:00", "09:00~19:00", "09:00~19:00", "09:00~19:00", "09:00~19:00", "09:00~15:00", "-"]}, {"name": "\uc2f1\uc2f1\uc57d\uad6d", "lat": "37.50908554548887", "lng": "127.04407525913248", "url": "/info/%EC%8B%B1%EC%8B%B1%EC%95%BD%EA%B5%AD-%EC%84%9C%EC%9A%B8%ED%8A%B9%EB%B3%84%EC%8B%9C-%EA%B0%95%EB%82%A8%EA%B5%AC-%EC%97%AD%EC%82%BC%EB%8F%99/", "workingTime": ["-", "09:00~20:00", "09:00~20:00", "09:00~20:00", "09:00~20:00", "09:00~20:00", "09:00~14:00", "-"]}, {"name": "\uc0c1\ub85d\uc57d\uad6d", "lat": "37.50386008481223", "lng": "127.04315848925089", "url": "/info/%EC%83%81%EB%A1%9D%EC%95%BD%EA%B5%AD-%EC%84%9C%EC%9A%B8%ED%8A%B9%EB%B3%84%EC%8B%9C-%EA%B0%95%EB%82%A8%EA%B5%AC-%EC%97%AD%EC%82%BC%EB%8F%99/", "workingTime": ["-", "08:30~20:00", "08:30~20:00", "08:30~20:00", "08:30~20:00", "08:30~20:00", "08:30~17:00", "-"]}, {"name": "\uc131\uc9c0\ud504\ub77c\uc790\uc57d\uad6d", "lat": "37.501579124343905", "lng": "127.03615777458234", "url": "/info/%EC%84%B1%EC%A7%80%ED%94%84%EB%9D%BC%EC%9E%90%EC%95%BD%EA%B5%AD-%EC%84%9C%EC%9A%B8%ED%8A%B9%EB%B3%84%EC%8B%9C-%EA%B0%95%EB%82%A8%EA%B5%AC-%EC%97%AD%EC%82%BC%EB%8F%99/", "workingTime": ["-", "10:30~21:00", "10:30~21:00", "10:30~21:00", "10:30~21:00", "10:30~21:00", "-", "-"]}, {"name": "\ub808\uc774\uccbc\uc57d\uad6d", "lat": "37.50434628668871", "lng": "127.02505306490275", "url": "/info/%EB%A0%88%EC%9D%B4%EC%B2%BC%EC%95%BD%EA%B5%AD-%EC%84%9C%EC%9A%B8%ED%8A%B9%EB%B3%84%EC%8B%9C-%EA%B0%95%EB%82%A8%EA%B5%AC-%EC%97%AD%EC%82%BC%EB%8F%99/", "workingTime": ["1,2,3,4,5\uc9f8\uc8fc10:00~17:00", "10:00~21:00", "10:00~21:00", "10:00~21:00", "10:00~21:00", "10:00~21:00", "10:00~17:00", "10:00~17:30"]}, {"name": "\ubc1d\uc740\uc57d\uad6d", "lat": "37.4979511256", "lng": "127.0431583428", "url": "/info/%EB%B0%9D%EC%9D%80%EC%95%BD%EA%B5%AD-%EC%84%9C%EC%9A%B8%ED%8A%B9%EB%B3%84%EC%8B%9C-%EA%B0%95%EB%82%A8%EA%B5%AC-%EC%97%AD%EC%82%BC%EB%8F%99/", "workingTime": ["-", "09:00~19:00", "09:00~19:00", "09:00~19:00", "09:00~19:00", "09:00~19:00", "09:00~14:00", "-"]}, {"name": "\ubbf8\uc9c4\uc57d\uad6d", "lat": "37.49784022341722", "lng": "127.02857918568112", "url": "/info/%EB%AF%B8%EC%A7%84%EC%95%BD%EA%B5%AD-%EC%84%9C%EC%9A%B8%ED%8A%B9%EB%B3%84%EC%8B%9C-%EA%B0%95%EB%82%A8%EA%B5%AC-%EC%97%AD%EC%82%BC%EB%8F%99/", "workingTime": ["-", "10:00~20:00", "10:00~21:00", "10:00~20:00", "10:00~21:00", "10:00~21:00", "10:00~18:00", "-"]}, {"name": "\ub354\ube14\uc720\uc57d\uad6d", "lat": "37.50415525432292", "lng": "127.02514347777723", "url": "/info/%EB%8D%94%EB%B8%94%EC%9C%A0%EC%95%BD%EA%B5%AD-%EC%84%9C%EC%9A%B8%ED%8A%B9%EB%B3%84%EC%8B%9C-%EA%B0%95%EB%82%A8%EA%B5%AC-%EC%97%AD%EC%82%BC%EB%8F%99/", "workingTime": ["-", "09:50~19:20", "09:50~19:20", "09:50~19:20", "09:50~19:20", "09:50~19:20", "09:50~17:00", "-"]}, {"name": "\ub2e4\uc628\uc57d\uad6d", "lat": "37.50370861665078", "lng": "127.04768094121874", "url": "/info/%EB%8B%A4%EC%98%A8%EC%95%BD%EA%B5%AD-%EC%84%9C%EC%9A%B8%ED%8A%B9%EB%B3%84%EC%8B%9C-%EA%B0%95%EB%82%A8%EA%B5%AC-%EC%97%AD%EC%82%BC%EB%8F%99/", "workingTime": ["-", "09:00~19:00", "09:00~19:00", "09:00~19:00", "09:00~19:00", "09:00~19:00", "09:00~15:00", "-"]}, {"name": "\ub2e4\ub798\uc57d\uad6d", "lat": "37.501836609626984", "lng": "127.03713637529677", "url": "/info/%EB%8B%A4%EB%9E%98%EC%95%BD%EA%B5%AD-%EC%84%9C%EC%9A%B8%ED%8A%B9%EB%B3%84%EC%8B%9C-%EA%B0%95%EB%82%A8%EA%B5%AC-%EC%97%AD%EC%82%BC%EB%8F%99/", "workingTime": ["-", "09:00~19:30", "09:00~19:30", "09:00~19:30", "09:00~19:30", "09:00~19:30", "-", "-"]}, {"name": "\ub274\uc695\uc57d\uad6d", "lat": "37.498681739982686", "lng": "127.02875288900574", "url": "/info/%EB%89%B4%EC%9A%95%EC%95%BD%EA%B5%AD-%EC%84%9C%EC%9A%B8%ED%8A%B9%EB%B3%84%EC%8B%9C-%EA%B0%95%EB%82%A8%EA%B5%AC-%EC%97%AD%EC%82%BC%EB%8F%99/", "workingTime": ["-", "09:00~21:30", "09:00~21:30", "09:00~21:30", "09:00~21:30", "09:00~21:30", "09:00~18:15", "-"]}, {"name": "\ubcc4\ube5b\uc57d\uad6d", "lat": "37.5071708171619", "lng": "127.034472786737", "url": "/info/%EB%B3%84%EB%B9%9B%EC%95%BD%EA%B5%AD-%EC%84%9C%EC%9A%B8%ED%8A%B9%EB%B3%84%EC%8B%9C-%EA%B0%95%EB%82%A8%EA%B5%AC-%EC%97%AD%EC%82%BC%EB%8F%99/", "workingTime": ["-", "08:00~20:00", "08:00~20:00", "08:00~20:00", "08:00~20:00", "08:00~20:00", "08:00~17:00", "-"]}, {"name": "\uac15\ub0a8\uc81c\uc77c\uc57d\uad6d", "lat": "37.50035616396546", "lng": "127.03438986520099", "url": "/info/%EA%B0%95%EB%82%A8%EC%A0%9C%EC%9D%BC%EC%95%BD%EA%B5%AD-%EC%84%9C%EC%9A%B8%ED%8A%B9%EB%B3%84%EC%8B%9C-%EA%B0%95%EB%82%A8%EA%B5%AC-%EC%97%AD%EC%82%BC%EB%8F%99/", "workingTime": ["-", "10:00~20:00", "10:00~20:00", "10:00~20:00", "10:00~20:00", "10:00~20:00", "10:00~16:30", "-"]}, {"name": "\uac15\ub0a8\uc5ed\uc2a4\ud0c0\uc57d\uad6d", "lat": "37.4976670574", "lng": "127.0292847769", "url": "/info/%EA%B0%95%EB%82%A8%EC%97%AD%EC%8A%A4%ED%83%80%EC%95%BD%EA%B5%AD-%EC%84%9C%EC%9A%B8%ED%8A%B9%EB%B3%84%EC%8B%9C-%EA%B0%95%EB%82%A8%EA%B5%AC-%EC%97%AD%EC%82%BC%EB%8F%99/", "workingTime": ["-", "09:00~21:00", "09:00~21:00", "09:00~20:30", "09:00~21:00", "09:00~21:00", "09:00~17:00", "-"]}, {"name": "\uac15\ub0a8\ubbf8\uc57d\uad6d", "lat": "37.496564351083066", "lng": "127.02877320469665", "url": "/info/%EA%B0%95%EB%82%A8%EB%AF%B8%EC%95%BD%EA%B5%AD-%EC%84%9C%EC%9A%B8%ED%8A%B9%EB%B3%84%EC%8B%9C-%EA%B0%95%EB%82%A8%EA%B5%AC-%EC%97%AD%EC%82%BC%EB%8F%99/", "workingTime": ["1,2,3,4,5\uc9f8\uc8fc09:00~19:00", "08:30~21:00", "08:30~21:00", "08:30~21:00", "08:30~21:00", "08:30~21:00", "08:00~20:00", "09:00~18:00"]}, {"name": "\uac15\ub0a8\ubbf8\uc18c\uc57d\uad6d", "lat": "37.5000319762", "lng": "127.0393552042", "url": "/info/%EA%B0%95%EB%82%A8%EB%AF%B8%EC%86%8C%EC%95%BD%EA%B5%AD-%EC%84%9C%EC%9A%B8%ED%8A%B9%EB%B3%84%EC%8B%9C-%EA%B0%95%EB%82%A8%EA%B5%AC-%EC%97%AD%EC%82%BC%EB%8F%99/", "workingTime": ["-", "09:00~21:00", "09:00~21:00", "09:00~21:00", "09:00~21:00", "09:00~21:00", "09:00~14:00", "-"]}, {"name": "\uc81c\uc774\uc57d\uad6d", "lat": "37.498580981553005", "lng": "127.02807885645207", "url": "/info/%EC%A0%9C%EC%9D%B4%EC%95%BD%EA%B5%AD-%EC%84%9C%EC%9A%B8%ED%8A%B9%EB%B3%84%EC%8B%9C-%EA%B0%95%EB%82%A8%EA%B5%AC-%EC%97%AD%EC%82%BC%EB%8F%99/", "workingTime": ["-", "09:00~21:00", "09:00~21:00", "09:00~21:00", "09:00~21:00", "09:00~21:00", "09:00~18:00", "-"]}, {"name": "\uc704\uba54\uc774\ud06c\uc57d\uad6d", "lat": "37.50039403232288", "lng": "127.02698479416406", "url": "/info/%EC%9C%84%EB%A9%94%EC%9D%B4%ED%81%AC%EC%95%BD%EA%B5%AD-%EC%84%9C%EC%9A%B8%ED%8A%B9%EB%B3%84%EC%8B%9C-%EA%B0%95%EB%82%A8%EA%B5%AC-%EC%97%AD%EC%82%BC%EB%8F%99/", "workingTime": ["1,2,3,4,5\uc9f8\uc8fc14:00~21:00", "10:00~22:00", "10:00~22:00", "10:00~22:00", "10:00~22:00", "10:00~22:00", "10:00~22:00", "10:00~21:00"]}, {"name": "\uc635\ud2f0\ub9c8\ubbf8\uc18c\uc57d\uad6d", "lat": "37.50710646857741", "lng": "127.03429782126264", "url": "/info/%EC%98%B5%ED%8B%B0%EB%A7%88%EB%AF%B8%EC%86%8C%EC%95%BD%EA%B5%AD-%EC%84%9C%EC%9A%B8%ED%8A%B9%EB%B3%84%EC%8B%9C-%EA%B0%95%EB%82%A8%EA%B5%AC-%EC%97%AD%EC%82%BC%EB%8F%99/", "workingTime": ["1,2,3,4,5\uc9f8\uc8fc09:00~13:00", "07:50~19:00", "07:50~19:00", "07:50~19:00", "07:50~19:00", "07:50~19:00", "07:50~15:00", "-"]}, {"name": "\uc5ed\uc0bc\uc624\ub298\uc57d\uad6d", "lat": "37.4996330482", "lng": "127.0358401868", "url": "/info/%EC%97%AD%EC%82%BC%EC%98%A4%EB%8A%98%EC%95%BD%EA%B5%AD-%EC%84%9C%EC%9A%B8%ED%8A%B9%EB%B3%84%EC%8B%9C-%EA%B0%95%EB%82%A8%EA%B5%AC-%EC%97%AD%EC%82%BC%EB%8F%99/", "workingTime": ["-", "08:30~19:00", "08:30~19:00", "08:30~19:00", "08:30~19:00", "08:30~19:00", "-", "-"]}, {"name": "\uac15\ub0a8\uc528\ud2f0\uc57d\uad6d", "lat": "37.499797544", "lng": "127.0271595299", "url": "/info/%EA%B0%95%EB%82%A8%EC%94%A8%ED%8B%B0%EC%95%BD%EA%B5%AD-%EC%84%9C%EC%9A%B8%ED%8A%B9%EB%B3%84%EC%8B%9C-%EA%B0%95%EB%82%A8%EA%B5%AC-%EC%97%AD%EC%82%BC%EB%8F%99/", "workingTime": ["1,2,3,4,5\uc9f8\uc8fc10:00~20:30", "08:30~21:30", "08:30~21:30", "08:30~21:30", "08:30~21:30", "08:30~21:30", "08:30~21:30", "10:00~20:30"]}]