[{"name": "\uc720\uc6d0\ub2f9\uc57d\uad6d", "lat": "37.579947613", "lng": "127.0376854883", "url": "/info/%EC%9C%A0%EC%9B%90%EB%8B%B9%EC%95%BD%EA%B5%AD-%EC%84%9C%EC%9A%B8%ED%8A%B9%EB%B3%84%EC%8B%9C-%EB%8F%99%EB%8C%80%EB%AC%B8%EA%B5%AC-%EC%A0%9C%EA%B8%B0%EB%8F%99/", "workingTime": ["-", "10:00~18:00", "10:00~18:00", "10:00~18:00", "10:00~18:00", "10:00~18:00", "-", "-"]}, {"name": "\uc77c\ud654\ub2f9\uc57d\uad6d", "lat": "37.5797564123386", "lng": "127.036278642724", "url": "/info/%EC%9D%BC%ED%99%94%EB%8B%B9%EC%95%BD%EA%B5%AD-%EC%84%9C%EC%9A%B8%ED%8A%B9%EB%B3%84%EC%8B%9C-%EB%8F%99%EB%8C%80%EB%AC%B8%EA%B5%AC-%EC%A0%9C%EA%B8%B0%EB%8F%99/", "workingTime": ["-", "10:00~17:30", "10:00~17:30", "10:00~17:30", "10:00~17:30", "10:00~17:30", "-", "-"]}, {"name": "\uc778\uc218\ub2f9\uc57d\uad6d", "lat": "37.5826584194", "lng": "127.0356988075", "url": "/info/%EC%9D%B8%EC%88%98%EB%8B%B9%EC%95%BD%EA%B5%AD-%EC%84%9C%EC%9A%B8%ED%8A%B9%EB%B3%84%EC%8B%9C-%EB%8F%99%EB%8C%80%EB%AC%B8%EA%B5%AC-%EC%A0%9C%EA%B8%B0%EB%8F%99/", "workingTime": ["-", "09:00~18:00", "09:00~18:00", "09:00~18:00", "09:00~18:00", "09:00~18:00", "-", "-"]}, {"name": "\uc5fc\uad11\ub2f9\uc57d\uad6d", "lat": "37.5817348382", "lng": "127.0387551211", "url": "/info/%EC%97%BC%EA%B4%91%EB%8B%B9%EC%95%BD%EA%B5%AD-%EC%84%9C%EC%9A%B8%ED%8A%B9%EB%B3%84%EC%8B%9C-%EB%8F%99%EB%8C%80%EB%AC%B8%EA%B5%AC-%EC%A0%9C%EA%B8%B0%EB%8F%99/", "workingTime": ["-", "09:00~17:00", "09:00~17:00", "09:00~17:00", "09:00~17:00", "09:00~17:00", "-", "-"]}, {"name": "\uc57d\uc218\ub2f9\uc57d\uad6d", "lat": "37.580820022317106", "lng": "127.0368912022225", "url": "/info/%EC%95%BD%EC%88%98%EB%8B%B9%EC%95%BD%EA%B5%AD-%EC%84%9C%EC%9A%B8%ED%8A%B9%EB%B3%84%EC%8B%9C-%EB%8F%99%EB%8C%80%EB%AC%B8%EA%B5%AC-%EC%A0%9C%EA%B8%B0%EB%8F%99/", "workingTime": ["-", "10:00~18:00", "10:00~18:00", "10:00~18:00", "10:00~18:00", "10:00~18:00", "-", "-"]}, {"name": "\uc57d\uc190\ub2f9\uc57d\uad6d", "lat": "37.5788379348", "lng": "127.03658454", "url": "/info/%EC%95%BD%EC%86%90%EB%8B%B9%EC%95%BD%EA%B5%AD-%EC%84%9C%EC%9A%B8%ED%8A%B9%EB%B3%84%EC%8B%9C-%EB%8F%99%EB%8C%80%EB%AC%B8%EA%B5%AC-%EC%A0%9C%EA%B8%B0%EB%8F%99/", "workingTime": ["-", "10:00~17:00", "10:00~17:00", "10:00~17:00", "10:00~17:00", "10:00~17:00", "-", "-"]}, {"name": "\uc2e0\uc6b0\ub2f9\uc57d\uad6d", "lat": "37.58204138823855", "lng": "127.03810316966888", "url": "/info/%EC%8B%A0%EC%9A%B0%EB%8B%B9%EC%95%BD%EA%B5%AD-%EC%84%9C%EC%9A%B8%ED%8A%B9%EB%B3%84%EC%8B%9C-%EB%8F%99%EB%8C%80%EB%AC%B8%EA%B5%AC-%EC%A0%9C%EA%B8%B0%EB%8F%99/", "workingTime": ["-", "10:00~17:00", "10:00~17:00", "10:00~17:00", "10:00~17:00", "10:00~17:00", "-", "-"]}, {"name": "\uc2e0\ub3d9\uc11c\uc57d\uad6d", "lat": "37.5823680113", "lng": "127.0302825066", "url": "/info/%EC%8B%A0%EB%8F%99%EC%84%9C%EC%95%BD%EA%B5%AD-%EC%84%9C%EC%9A%B8%ED%8A%B9%EB%B3%84%EC%8B%9C-%EB%8F%99%EB%8C%80%EB%AC%B8%EA%B5%AC-%EC%A0%9C%EA%B8%B0%EB%8F%99/", "workingTime": ["-", "09:00~22:00", "09:00~22:00", "09:00~22:00", "09:00~22:00", "09:00~22:00", "09:00~13:00", "-"]}, {"name": "\uc6b0\ub9ac\uc57d\uad6d", "lat": "37.5798893284", "lng": "127.0395828642", "url": "/info/%EC%9A%B0%EB%A6%AC%EC%95%BD%EA%B5%AD-%EC%84%9C%EC%9A%B8%ED%8A%B9%EB%B3%84%EC%8B%9C-%EB%8F%99%EB%8C%80%EB%AC%B8%EA%B5%AC-%EC%A0%9C%EA%B8%B0%EB%8F%99/", "workingTime": ["-", "08:00~20:00", "08:00~20:00", "08:00~20:00", "08:00~20:00", "08:00~20:00", "08:00~17:00", "-"]}, {"name": "\ub300\ud559\uc194\uc57d\uad6d", "lat": "37.58860870012046", "lng": "127.03528951546973", "url": "/info/%EB%8C%80%ED%95%99%EC%86%94%EC%95%BD%EA%B5%AD-%EC%84%9C%EC%9A%B8%ED%8A%B9%EB%B3%84%EC%8B%9C-%EB%8F%99%EB%8C%80%EB%AC%B8%EA%B5%AC-%EC%A0%9C%EA%B8%B0%EB%8F%99/", "workingTime": ["1,2,3,4,5\uc9f8\uc8fc10:00~22:00", "10:00~22:00", "10:00~22:00", "10:00~22:00", "10:00~22:00", "10:00~22:00", "10:00~22:00", "10:00~22:00"]}, {"name": "\ub2e8\uc6b0\ud55c\uc57d\uad6d", "lat": "37.5788373944495", "lng": "127.036583747228", "url": "/info/%EB%8B%A8%EC%9A%B0%ED%95%9C%EC%95%BD%EA%B5%AD-%EC%84%9C%EC%9A%B8%ED%8A%B9%EB%B3%84%EC%8B%9C-%EB%8F%99%EB%8C%80%EB%AC%B8%EA%B5%AC-%EC%A0%9C%EA%B8%B0%EB%8F%99/", "workingTime": ["-", "09:30~17:00", "09:30~17:00", "09:30~17:00", "09:30~17:00", "09:30~17:00", "11:00~15:00", "-"]}, {"name": "\uc0ac\ub791\uc57d\uad6d", "lat": "37.57885839114325", "lng": "127.04017553237912", "url": "/info/%EC%82%AC%EB%9E%91%EC%95%BD%EA%B5%AD-%EC%84%9C%EC%9A%B8%ED%8A%B9%EB%B3%84%EC%8B%9C-%EB%8F%99%EB%8C%80%EB%AC%B8%EA%B5%AC-%EC%A0%9C%EA%B8%B0%EB%8F%99/", "workingTime": ["-", "09:00~18:00", "09:00~18:00", "09:00~18:00", "09:00~18:00", "09:00~18:00", "09:00~13:00", "-"]}, {"name": "\ubd81\uacbd\ub2f9\ud55c\uc57d\uad6d", "lat": "37.5795873663", "lng": "127.0372098252", "url": "/info/%EB%B6%81%EA%B2%BD%EB%8B%B9%ED%95%9C%EC%95%BD%EA%B5%AD-%EC%84%9C%EC%9A%B8%ED%8A%B9%EB%B3%84%EC%8B%9C-%EB%8F%99%EB%8C%80%EB%AC%B8%EA%B5%AC-%EC%A0%9C%EA%B8%B0%EB%8F%99/", "workingTime": ["-", "10:00~18:00", "10:00~18:00", "10:00~18:00", "10:00~18:00", "10:00~18:00", "-", "-"]}, {"name": "\uc9c0\uc6b4\ub2f9\ud55c\uc57d\uad6d", "lat": "37.5815295654", "lng": "127.0382840493", "url": "/info/%EC%A7%80%EC%9A%B4%EB%8B%B9%ED%95%9C%EC%95%BD%EA%B5%AD-%EC%84%9C%EC%9A%B8%ED%8A%B9%EB%B3%84%EC%8B%9C-%EB%8F%99%EB%8C%80%EB%AC%B8%EA%B5%AC-%EC%A0%9C%EA%B8%B0%EB%8F%99/", "workingTime": ["1,2,3,4,5\uc9f8\uc8fc10:00~17:00", "08:00~20:00", "08:00~20:00", "08:00~20:00", "08:00~20:00", "08:00~20:00", "10:00~17:00", "-"]}, {"name": "\ubbf8\uc18c\ub2f4\ud55c\uc57d\uad6d", "lat": "37.5819151876", "lng": "127.0382933039", "url": "/info/%EB%AF%B8%EC%86%8C%EB%8B%B4%ED%95%9C%EC%95%BD%EA%B5%AD-%EC%84%9C%EC%9A%B8%ED%8A%B9%EB%B3%84%EC%8B%9C-%EB%8F%99%EB%8C%80%EB%AC%B8%EA%B5%AC-%EC%A0%9C%EA%B8%B0%EB%8F%99/", "workingTime": ["-", "09:30~19:00", "09:30~19:00", "09:30~19:00", "09:30~19:00", "09:30~19:00", "09:30~15:00", "-"]}, {"name": "\uc138\uad11\uc57d\uad6d", "lat": "37.5794848121", "lng": "127.0421004343", "url": "/info/%EC%84%B8%EA%B4%91%EC%95%BD%EA%B5%AD-%EC%84%9C%EC%9A%B8%ED%8A%B9%EB%B3%84%EC%8B%9C-%EB%8F%99%EB%8C%80%EB%AC%B8%EA%B5%AC-%EC%A0%9C%EA%B8%B0%EB%8F%99/", "workingTime": ["1,2,3,4,5\uc9f8\uc8fc07:00~20:30", "07:00~20:30", "07:00~20:30", "07:00~20:30", "07:00~20:30", "07:00~20:30", "07:00~20:30", "07:00~20:30"]}, {"name": "\ub0a8\uc9c4\uc57d\uad6d", "lat": "37.58282659744994", "lng": "127.03949384742859", "url": "/info/%EB%82%A8%EC%A7%84%EC%95%BD%EA%B5%AD-%EC%84%9C%EC%9A%B8%ED%8A%B9%EB%B3%84%EC%8B%9C-%EB%8F%99%EB%8C%80%EB%AC%B8%EA%B5%AC-%EC%A0%9C%EA%B8%B0%EB%8F%99/", "workingTime": ["-", "08:00~19:00", "08:00~19:00", "08:00~19:00", "08:00~19:00", "08:00~19:00", "08:00~19:00", "-"]}, {"name": "\uae08\ucc3d\uc57d\uad6d", "lat": "37.58280052862814", "lng": "127.03012418114197", "url": "/info/%EA%B8%88%EC%B0%BD%EC%95%BD%EA%B5%AD-%EC%84%9C%EC%9A%B8%ED%8A%B9%EB%B3%84%EC%8B%9C-%EB%8F%99%EB%8C%80%EB%AC%B8%EA%B5%AC-%EC%A0%9C%EA%B8%B0%EB%8F%99/", "workingTime": ["-", "09:00~21:00", "09:00~21:00", "09:00~21:00", "09:00~21:00", "09:00~21:00", "09:00~18:00", "-"]}, {"name": "\uacbd\uc6d0\uc57d\uad6d", "lat": "37.57903893677893", "lng": "127.03914316284975", "url": "/info/%EA%B2%BD%EC%9B%90%EC%95%BD%EA%B5%AD-%EC%84%9C%EC%9A%B8%ED%8A%B9%EB%B3%84%EC%8B%9C-%EB%8F%99%EB%8C%80%EB%AC%B8%EA%B5%AC-%EC%A0%9C%EA%B8%B0%EB%8F%99/", "workingTime": ["-", "07:00~19:00", "07:00~19:00", "07:00~19:00", "07:00~19:00", "07:00~19:00", "07:00~16:00", "-"]}, {"name": "\ud3c9\uc81c\uc57d\uad6d", "lat": "37.58306383410247", "lng": "127.03579412250843", "url": "/info/%ED%8F%89%EC%A0%9C%EC%95%BD%EA%B5%AD-%EC%84%9C%EC%9A%B8%ED%8A%B9%EB%B3%84%EC%8B%9C-%EB%8F%99%EB%8C%80%EB%AC%B8%EA%B5%AC-%EC%A0%9C%EA%B8%B0%EB%8F%99/", "workingTime": ["-", "09:00~20:00", "09:00~20:00", "09:00~20:00", "09:00~20:00", "09:00~20:00", "09:00~15:00", "09:00~20:00"]}, {"name": "\uc2e0\ub3c4\uc57d\uad6d", "lat": "37.58756392064914", "lng": "127.03802860433231", "url": "/info/%EC%8B%A0%EB%8F%84%EC%95%BD%EA%B5%AD-%EC%84%9C%EC%9A%B8%ED%8A%B9%EB%B3%84%EC%8B%9C-%EB%8F%99%EB%8C%80%EB%AC%B8%EA%B5%AC-%EC%A0%9C%EA%B8%B0%EB%8F%99/", "workingTime": ["-", "09:00~20:00", "09:00~20:00", "09:00~20:00", "09:00~20:00", "09:00~20:00", "09:00~19:00", "-"]}, {"name": "\uc2dc\uc7a5\uc57d\uad6d", "lat": "37.57859691562098", "lng": "127.03927403631157", "url": "/info/%EC%8B%9C%EC%9E%A5%EC%95%BD%EA%B5%AD-%EC%84%9C%EC%9A%B8%ED%8A%B9%EB%B3%84%EC%8B%9C-%EB%8F%99%EB%8C%80%EB%AC%B8%EA%B5%AC-%EC%A0%9C%EA%B8%B0%EB%8F%99/", "workingTime": ["-", "09:00~18:00", "09:00~18:00", "09:00~18:00", "09:00~18:00", "09:00~18:00", "09:00~13:00", "-"]}]