[{"name": "\uc774\ucd0c\uc0ac\ub791\uc57d\uad6d", "lat": "37.5178443505", "lng": "126.9803222459", "url": "/info/%EC%9D%B4%EC%B4%8C%EC%82%AC%EB%9E%91%EC%95%BD%EA%B5%AD-%EC%84%9C%EC%9A%B8%ED%8A%B9%EB%B3%84%EC%8B%9C-%EC%9A%A9%EC%82%B0%EA%B5%AC-%EC%9D%B4%EC%B4%8C%EB%8F%99/", "workingTime": ["-", "09:00~20:00", "09:00~20:00", "09:00~20:00", "09:00~20:00", "09:00~20:00", "09:00~13:00", "-"]}, {"name": "\ud64d\uc8fc\uc57d\uad6d", "lat": "37.52090554643411", "lng": "126.96985096768671", "url": "/info/%ED%99%8D%EC%A3%BC%EC%95%BD%EA%B5%AD-%EC%84%9C%EC%9A%B8%ED%8A%B9%EB%B3%84%EC%8B%9C-%EC%9A%A9%EC%82%B0%EA%B5%AC-%EC%9D%B4%EC%B4%8C%EB%8F%99/", "workingTime": ["-", "08:30~18:00", "08:30~18:00", "08:30~18:00", "08:30~18:00", "08:30~18:00", "08:30~14:00", "-"]}, {"name": "\ud604\ub300\uc628\ub204\ub9ac\uc57d\uad6d", "lat": "37.51844939072854", "lng": "126.97786970057633", "url": "/info/%ED%98%84%EB%8C%80%EC%98%A8%EB%88%84%EB%A6%AC%EC%95%BD%EA%B5%AD-%EC%84%9C%EC%9A%B8%ED%8A%B9%EB%B3%84%EC%8B%9C-%EC%9A%A9%EC%82%B0%EA%B5%AC-%EC%9D%B4%EC%B4%8C%EB%8F%99/", "workingTime": ["1,2,3,4,5\uc9f8\uc8fc09:00~21:00", "09:00~21:00", "09:00~21:00", "09:00~21:00", "09:00~21:00", "09:00~21:00", "09:00~21:00", "09:00~21:00"]}, {"name": "\uc11c\ud604\uc57d\uad6d", "lat": "37.52094955257561", "lng": "126.96935923779345", "url": "/info/%EC%84%9C%ED%98%84%EC%95%BD%EA%B5%AD-%EC%84%9C%EC%9A%B8%ED%8A%B9%EB%B3%84%EC%8B%9C-%EC%9A%A9%EC%82%B0%EA%B5%AC-%EC%9D%B4%EC%B4%8C%EB%8F%99/", "workingTime": ["-", "09:00~18:30", "09:00~18:30", "09:00~18:30", "09:00~18:30", "09:00~18:30", "09:00~14:30", "-"]}, {"name": "\uc784\uc0c1\uc57d\uad6d", "lat": "37.52622050324988", "lng": "126.9554135242742", "url": "/info/%EC%9E%84%EC%83%81%EC%95%BD%EA%B5%AD-%EC%84%9C%EC%9A%B8%ED%8A%B9%EB%B3%84%EC%8B%9C-%EC%9A%A9%EC%82%B0%EA%B5%AC-%EC%9D%B4%EC%B4%8C%EB%8F%99/", "workingTime": ["1,2,3,4,5\uc9f8\uc8fc08:00~22:00", "08:00~22:00", "08:00~22:00", "08:00~22:00", "08:00~22:00", "08:00~22:00", "08:00~22:00", "09:00~21:00"]}, {"name": "\uc774\uce35\uc131\uc7a5\uc57d\uad6d", "lat": "37.52016002015364", "lng": "126.97186987415556", "url": "/info/%EC%9D%B4%EC%B8%B5%EC%84%B1%EC%9E%A5%EC%95%BD%EA%B5%AD-%EC%84%9C%EC%9A%B8%ED%8A%B9%EB%B3%84%EC%8B%9C-%EC%9A%A9%EC%82%B0%EA%B5%AC-%EC%9D%B4%EC%B4%8C%EB%8F%99/", "workingTime": ["-", "08:30~19:30", "08:30~19:30", "08:30~19:30", "08:30~19:30", "08:30~19:30", "08:30~16:00", "-"]}, {"name": "\uc591\uc9c0\uc57d\uad6d", "lat": "37.5193858674", "lng": "126.975027878", "url": "/info/%EC%96%91%EC%A7%80%EC%95%BD%EA%B5%AD-%EC%84%9C%EC%9A%B8%ED%8A%B9%EB%B3%84%EC%8B%9C-%EC%9A%A9%EC%82%B0%EA%B5%AC-%EC%9D%B4%EC%B4%8C%EB%8F%99/", "workingTime": ["-", "09:00~21:00", "09:00~21:00", "09:00~21:00", "09:00~21:00", "09:00~21:00", "09:00~20:00", "-"]}, {"name": "\uc18c\ub9dd\uc57d\uad6d", "lat": "37.51903649119358", "lng": "126.97608680267129", "url": "/info/%EC%86%8C%EB%A7%9D%EC%95%BD%EA%B5%AD-%EC%84%9C%EC%9A%B8%ED%8A%B9%EB%B3%84%EC%8B%9C-%EC%9A%A9%EC%82%B0%EA%B5%AC-%EC%9D%B4%EC%B4%8C%EB%8F%99/", "workingTime": ["-", "09:00~21:00", "09:00~21:00", "09:00~21:00", "09:00~21:00", "09:00~21:00", "09:00~18:30", "-"]}, {"name": "\uc774\ucd0c\uc57d\uad6d", "lat": "37.520164560722776", "lng": "126.9719477404", "url": "/info/%EC%9D%B4%EC%B4%8C%EC%95%BD%EA%B5%AD-%EC%84%9C%EC%9A%B8%ED%8A%B9%EB%B3%84%EC%8B%9C-%EC%9A%A9%EC%82%B0%EA%B5%AC-%EC%9D%B4%EC%B4%8C%EB%8F%99/", "workingTime": ["-", "09:00~19:00", "09:00~19:00", "09:00~19:00", "09:00~19:00", "09:00~19:00", "09:00~15:30", "-"]}, {"name": "\ud55c\uad6d\uad6c\uc77c\uc628\ub204\ub9ac\uc57d\uad6d", "lat": "37.5178439903271", "lng": "126.980323377172", "url": "/info/%ED%95%9C%EA%B5%AD%EA%B5%AC%EC%9D%BC%EC%98%A8%EB%88%84%EB%A6%AC%EC%95%BD%EA%B5%AD-%EC%84%9C%EC%9A%B8%ED%8A%B9%EB%B3%84%EC%8B%9C-%EC%9A%A9%EC%82%B0%EA%B5%AC-%EC%9D%B4%EC%B4%8C%EB%8F%99/", "workingTime": ["1,2,3,4,5\uc9f8\uc8fc10:00~20:00", "08:30~20:00", "08:30~20:00", "08:30~20:00", "08:30~20:00", "08:30~20:00", "08:30~18:00", "10:00~20:00"]}]