[{"name": "\uc724\uc57d\uad6d", "lat": "37.50526615591822", "lng": "127.1062988579385", "url": "/info/%EC%9C%A4%EC%95%BD%EA%B5%AD-%EC%84%9C%EC%9A%B8%ED%8A%B9%EB%B3%84%EC%8B%9C-%EC%86%A1%ED%8C%8C%EA%B5%AC-%EC%84%9D%EC%B4%8C%EB%8F%99/", "workingTime": ["-", "09:00~19:00", "09:00~19:00", "09:00~19:00", "09:00~19:00", "09:00~19:00", "09:00~16:00", "-"]}, {"name": "\ud638\uc6d0\uc57d\uad6d", "lat": "37.506093075692654", "lng": "127.10447235222671", "url": "/info/%ED%98%B8%EC%9B%90%EC%95%BD%EA%B5%AD-%EC%84%9C%EC%9A%B8%ED%8A%B9%EB%B3%84%EC%8B%9C-%EC%86%A1%ED%8C%8C%EA%B5%AC-%EC%84%9D%EC%B4%8C%EB%8F%99/", "workingTime": ["-", "10:00~21:00", "10:00~21:00", "10:00~21:00", "10:00~21:00", "10:00~21:00", "10:00~21:00", "-"]}, {"name": "\ud638\uc218\uc57d\uad6d", "lat": "37.5061875220992", "lng": "127.098968471356", "url": "/info/%ED%98%B8%EC%88%98%EC%95%BD%EA%B5%AD-%EC%84%9C%EC%9A%B8%ED%8A%B9%EB%B3%84%EC%8B%9C-%EC%86%A1%ED%8C%8C%EA%B5%AC-%EC%84%9D%EC%B4%8C%EB%8F%99/", "workingTime": ["1,2,3,4,5\uc9f8\uc8fc10:00~23:00", "10:00~23:00", "10:00~23:00", "10:00~23:00", "10:00~23:00", "10:00~23:00", "10:00~23:00", "10:00~23:00"]}, {"name": "\uc218\uc57d\uad6d", "lat": "37.501678858157895", "lng": "127.10864535296271", "url": "/info/%EC%88%98%EC%95%BD%EA%B5%AD-%EC%84%9C%EC%9A%B8%ED%8A%B9%EB%B3%84%EC%8B%9C-%EC%86%A1%ED%8C%8C%EA%B5%AC-%EC%84%9D%EC%B4%8C%EB%8F%99/", "workingTime": ["-", "09:00~19:00", "09:00~19:00", "09:00~19:00", "09:00~19:00", "09:00~19:00", "09:00~15:00", "-"]}, {"name": "\ub77d\ud76c\uc628\ub204\ub9ac\uc57d\uad6d", "lat": "37.50141434636887", "lng": "127.11016946634783", "url": "/info/%EB%9D%BD%ED%9D%AC%EC%98%A8%EB%88%84%EB%A6%AC%EC%95%BD%EA%B5%AD-%EC%84%9C%EC%9A%B8%ED%8A%B9%EB%B3%84%EC%8B%9C-%EC%86%A1%ED%8C%8C%EA%B5%AC-%EC%84%9D%EC%B4%8C%EB%8F%99/", "workingTime": ["-", "08:30~20:30", "08:30~20:30", "08:30~19:30", "08:30~20:30", "08:30~19:30", "08:30~15:00", "-"]}, {"name": "\ud574\uc131\uc57d\uad6d", "lat": "37.50156020975422", "lng": "127.10832854419249", "url": "/info/%ED%95%B4%EC%84%B1%EC%95%BD%EA%B5%AD-%EC%84%9C%EC%9A%B8%ED%8A%B9%EB%B3%84%EC%8B%9C-%EC%86%A1%ED%8C%8C%EA%B5%AC-%EC%84%9D%EC%B4%8C%EB%8F%99/", "workingTime": ["-", "08:30~19:00", "08:30~19:00", "08:30~19:00", "08:30~19:00", "08:30~19:00", "08:30~15:00", "-"]}, {"name": "\ud478\ub978\uc57d\uad6d", "lat": "37.50249322869644", "lng": "127.09712866694258", "url": "/info/%ED%91%B8%EB%A5%B8%EC%95%BD%EA%B5%AD-%EC%84%9C%EC%9A%B8%ED%8A%B9%EB%B3%84%EC%8B%9C-%EC%86%A1%ED%8C%8C%EA%B5%AC-%EC%84%9D%EC%B4%8C%EB%8F%99/", "workingTime": ["-", "09:00~21:00", "09:00~21:00", "09:00~21:00", "09:00~21:00", "09:00~21:00", "09:00~20:00", "-"]}, {"name": "\uc628\ub204\ub9ac\uc5c4\ub9c8\uc190\uc57d\uad6d", "lat": "37.5039537055", "lng": "127.1078705521", "url": "/info/%EC%98%A8%EB%88%84%EB%A6%AC%EC%97%84%EB%A7%88%EC%86%90%EC%95%BD%EA%B5%AD-%EC%84%9C%EC%9A%B8%ED%8A%B9%EB%B3%84%EC%8B%9C-%EC%86%A1%ED%8C%8C%EA%B5%AC-%EC%84%9D%EC%B4%8C%EB%8F%99/", "workingTime": ["-", "09:00~19:30", "09:00~19:30", "09:00~19:30", "09:00~19:30", "09:00~19:30", "09:00~17:30", "-"]}, {"name": "\ub2e4\uc815\uc57d\uad6d", "lat": "37.50453658052494", "lng": "127.10495350322869", "url": "/info/%EB%8B%A4%EC%A0%95%EC%95%BD%EA%B5%AD-%EC%84%9C%EC%9A%B8%ED%8A%B9%EB%B3%84%EC%8B%9C-%EC%86%A1%ED%8C%8C%EA%B5%AC-%EC%84%9D%EC%B4%8C%EB%8F%99/", "workingTime": ["-", "09:00~19:00", "09:00~19:00", "09:00~19:00", "09:00~19:00", "09:00~19:00", "09:00~14:00", "-"]}, {"name": "\ubd04\uc57d\uad6d", "lat": "37.50654351875736", "lng": "127.10550825863882", "url": "/info/%EB%B4%84%EC%95%BD%EA%B5%AD-%EC%84%9C%EC%9A%B8%ED%8A%B9%EB%B3%84%EC%8B%9C-%EC%86%A1%ED%8C%8C%EA%B5%AC-%EC%84%9D%EC%B4%8C%EB%8F%99/", "workingTime": ["-", "08:30~20:00", "08:30~20:00", "08:30~20:00", "08:30~18:30", "08:30~18:30", "08:30~16:00", "-"]}, {"name": "\ubcf4\ub2c8\uc57d\uad6d", "lat": "37.5016670216", "lng": "127.1097536382", "url": "/info/%EB%B3%B4%EB%8B%88%EC%95%BD%EA%B5%AD-%EC%84%9C%EC%9A%B8%ED%8A%B9%EB%B3%84%EC%8B%9C-%EC%86%A1%ED%8C%8C%EA%B5%AC-%EC%84%9D%EC%B4%8C%EB%8F%99/", "workingTime": ["-", "08:30~18:00", "08:30~18:00", "08:30~18:00", "08:30~18:00", "08:30~18:00", "08:30~13:00", "-"]}, {"name": "\uc11d\ucd0c\ud55c\uc6b0\ub9ac\uc57d\uad6d", "lat": "37.5058077145", "lng": "127.1061676968", "url": "/info/%EC%84%9D%EC%B4%8C%ED%95%9C%EC%9A%B0%EB%A6%AC%EC%95%BD%EA%B5%AD-%EC%84%9C%EC%9A%B8%ED%8A%B9%EB%B3%84%EC%8B%9C-%EC%86%A1%ED%8C%8C%EA%B5%AC-%EC%84%9D%EC%B4%8C%EB%8F%99/", "workingTime": ["-", "08:30~19:30", "08:30~19:30", "08:30~19:30", "08:30~19:30", "08:30~19:30", "08:30~15:30", "-"]}, {"name": "\uc11d\ucd0c\uc194\uc57d\uad6d", "lat": "37.5064525267242", "lng": "127.105302947903", "url": "/info/%EC%84%9D%EC%B4%8C%EC%86%94%EC%95%BD%EA%B5%AD-%EC%84%9C%EC%9A%B8%ED%8A%B9%EB%B3%84%EC%8B%9C-%EC%86%A1%ED%8C%8C%EA%B5%AC-%EC%84%9D%EC%B4%8C%EB%8F%99/", "workingTime": ["-", "08:30~19:00", "08:30~19:30", "08:30~19:30", "08:30~19:00", "08:30~19:00", "08:00~14:30", "-"]}, {"name": "\uc11d\ucd0c\uc0ac\ub791\uc57d\uad6d", "lat": "37.505623046794", "lng": "127.106325433287", "url": "/info/%EC%84%9D%EC%B4%8C%EC%82%AC%EB%9E%91%EC%95%BD%EA%B5%AD-%EC%84%9C%EC%9A%B8%ED%8A%B9%EB%B3%84%EC%8B%9C-%EC%86%A1%ED%8C%8C%EA%B5%AC-%EC%84%9D%EC%B4%8C%EB%8F%99/", "workingTime": ["-", "09:00~19:30", "09:00~19:30", "09:00~19:30", "09:00~19:30", "09:00~19:30", "09:00~14:00", "-"]}, {"name": "\ub204\uac00\uc2e0\uc57d\uad6d", "lat": "37.50155862089506", "lng": "127.11004753905712", "url": "/info/%EB%88%84%EA%B0%80%EC%8B%A0%EC%95%BD%EA%B5%AD-%EC%84%9C%EC%9A%B8%ED%8A%B9%EB%B3%84%EC%8B%9C-%EC%86%A1%ED%8C%8C%EA%B5%AC-%EC%84%9D%EC%B4%8C%EB%8F%99/", "workingTime": ["-", "08:30~20:00", "08:30~20:00", "08:30~20:00", "08:30~20:00", "08:30~20:00", "08:30~16:00", "-"]}, {"name": "\uae08\uac15\uc57d\uad6d", "lat": "37.50024850620812", "lng": "127.10414232121242", "url": "/info/%EA%B8%88%EA%B0%95%EC%95%BD%EA%B5%AD-%EC%84%9C%EC%9A%B8%ED%8A%B9%EB%B3%84%EC%8B%9C-%EC%86%A1%ED%8C%8C%EA%B5%AC-%EC%84%9D%EC%B4%8C%EB%8F%99/", "workingTime": ["-", "09:00~21:00", "09:00~21:00", "09:00~21:00", "09:00~21:00", "09:00~21:00", "09:00~18:00", "09:00~18:00"]}, {"name": "\uc740\ud61c\uc57d\uad6d", "lat": "37.5056453193309", "lng": "127.105904513799", "url": "/info/%EC%9D%80%ED%98%9C%EC%95%BD%EA%B5%AD-%EC%84%9C%EC%9A%B8%ED%8A%B9%EB%B3%84%EC%8B%9C-%EC%86%A1%ED%8C%8C%EA%B5%AC-%EC%84%9D%EC%B4%8C%EB%8F%99/", "workingTime": ["-", "08:30~20:00", "08:30~20:00", "08:30~20:00", "08:30~18:00", "08:30~20:00", "08:00~14:00", "-"]}, {"name": "\ud55c\uac00\uc871\uc57d\uad6d", "lat": "37.50450924062104", "lng": "127.10729684231825", "url": "/info/%ED%95%9C%EA%B0%80%EC%A1%B1%EC%95%BD%EA%B5%AD-%EC%84%9C%EC%9A%B8%ED%8A%B9%EB%B3%84%EC%8B%9C-%EC%86%A1%ED%8C%8C%EA%B5%AC-%EC%84%9D%EC%B4%8C%EB%8F%99/", "workingTime": ["-", "09:00~19:00", "09:00~19:00", "09:00~19:00", "09:00~19:00", "09:00~19:00", "09:00~17:00", "-"]}, {"name": "\ud558\ub298\uc57d\uad6d", "lat": "37.502207745790365", "lng": "127.09726899375804", "url": "/info/%ED%95%98%EB%8A%98%EC%95%BD%EA%B5%AD-%EC%84%9C%EC%9A%B8%ED%8A%B9%EB%B3%84%EC%8B%9C-%EC%86%A1%ED%8C%8C%EA%B5%AC-%EC%84%9D%EC%B4%8C%EB%8F%99/", "workingTime": ["-", "08:30~19:00", "08:30~19:00", "08:30~19:00", "08:30~19:00", "08:30~19:00", "08:30~15:00", "-"]}, {"name": "\ud31c\ucf54\ub9ac\uc544\uc57d\uad6d", "lat": "37.501149794320895", "lng": "127.10697617181734", "url": "/info/%ED%8C%9C%EC%BD%94%EB%A6%AC%EC%95%84%EC%95%BD%EA%B5%AD-%EC%84%9C%EC%9A%B8%ED%8A%B9%EB%B3%84%EC%8B%9C-%EC%86%A1%ED%8C%8C%EA%B5%AC-%EC%84%9D%EC%B4%8C%EB%8F%99/", "workingTime": ["-", "08:00~22:00", "08:00~22:00", "08:00~22:00", "08:00~22:00", "08:00~22:00", "09:00~22:00", "-"]}, {"name": "\uc77c\uc120\uc57d\uad6d", "lat": "37.50105432580847", "lng": "127.10489517682558", "url": "/info/%EC%9D%BC%EC%84%A0%EC%95%BD%EA%B5%AD-%EC%84%9C%EC%9A%B8%ED%8A%B9%EB%B3%84%EC%8B%9C-%EC%86%A1%ED%8C%8C%EA%B5%AC-%EC%84%9D%EC%B4%8C%EB%8F%99/", "workingTime": ["-", "09:00~21:30", "09:00~21:30", "09:00~21:30", "09:00~21:30", "09:00~21:30", "09:00~21:30", "-"]}, {"name": "\uc0c8\uc870\uc740\uc57d\uad6d", "lat": "37.50064873347335", "lng": "127.11087402647001", "url": "/info/%EC%83%88%EC%A1%B0%EC%9D%80%EC%95%BD%EA%B5%AD-%EC%84%9C%EC%9A%B8%ED%8A%B9%EB%B3%84%EC%8B%9C-%EC%86%A1%ED%8C%8C%EA%B5%AC-%EC%84%9D%EC%B4%8C%EB%8F%99/", "workingTime": ["-", "09:00~19:30", "09:00~19:30", "09:00~19:30", "09:00~19:30", "09:00~19:30", "09:00~15:00", "09:00~13:00"]}, {"name": "\uc1a1\ud30c\ud504\ub77c\uc790\uc57d\uad6d", "lat": "37.50119960039254", "lng": "127.10855420596766", "url": "/info/%EC%86%A1%ED%8C%8C%ED%94%84%EB%9D%BC%EC%9E%90%EC%95%BD%EA%B5%AD-%EC%84%9C%EC%9A%B8%ED%8A%B9%EB%B3%84%EC%8B%9C-%EC%86%A1%ED%8C%8C%EA%B5%AC-%EC%84%9D%EC%B4%8C%EB%8F%99/", "workingTime": ["-", "09:00~19:30", "09:00~19:30", "09:00~19:30", "09:00~19:30", "09:00~19:30", "09:00~17:00", "-"]}, {"name": "\uba54\ub514\ud31c\ud558\ub098\uc57d\uad6d", "lat": "37.500404361547915", "lng": "127.11108627466606", "url": "/info/%EB%A9%94%EB%94%94%ED%8C%9C%ED%95%98%EB%82%98%EC%95%BD%EA%B5%AD-%EC%84%9C%EC%9A%B8%ED%8A%B9%EB%B3%84%EC%8B%9C-%EC%86%A1%ED%8C%8C%EA%B5%AC-%EC%84%9D%EC%B4%8C%EB%8F%99/", "workingTime": ["1,2,3,4,5\uc9f8\uc8fc09:00~13:00", "08:00~20:00", "08:00~20:00", "08:00~20:00", "08:00~20:00", "08:00~20:00", "08:00~18:00", "-"]}, {"name": "\uc11d\ucd0c\ubbf8\uc18c\uc57d\uad6d", "lat": "37.5062512420326", "lng": "127.105404228076", "url": "/info/%EC%84%9D%EC%B4%8C%EB%AF%B8%EC%86%8C%EC%95%BD%EA%B5%AD-%EC%84%9C%EC%9A%B8%ED%8A%B9%EB%B3%84%EC%8B%9C-%EC%86%A1%ED%8C%8C%EA%B5%AC-%EC%84%9D%EC%B4%8C%EB%8F%99/", "workingTime": ["-", "08:30~20:00", "08:30~20:00", "08:30~20:00", "08:30~19:00", "08:30~19:00", "08:00~15:00", "-"]}, {"name": "\uac74\uac15\uc0d8\uc57d\uad6d", "lat": "37.502777131339975", "lng": "127.09733756814594", "url": "/info/%EA%B1%B4%EA%B0%95%EC%83%98%EC%95%BD%EA%B5%AD-%EC%84%9C%EC%9A%B8%ED%8A%B9%EB%B3%84%EC%8B%9C-%EC%86%A1%ED%8C%8C%EA%B5%AC-%EC%84%9D%EC%B4%8C%EB%8F%99/", "workingTime": ["-", "09:00~20:00", "09:00~20:00", "09:00~20:00", "09:00~20:00", "09:00~20:00", "09:00~15:00", "-"]}, {"name": "\uc1a1\ud30c\uc0ac\uac70\ub9ac\uc57d\uad6d", "lat": "37.501970853872805", "lng": "127.10953809672769", "url": "/info/%EC%86%A1%ED%8C%8C%EC%82%AC%EA%B1%B0%EB%A6%AC%EC%95%BD%EA%B5%AD-%EC%84%9C%EC%9A%B8%ED%8A%B9%EB%B3%84%EC%8B%9C-%EC%86%A1%ED%8C%8C%EA%B5%AC-%EC%84%9D%EC%B4%8C%EB%8F%99/", "workingTime": ["-", "09:00~18:00", "09:00~18:00", "09:00~18:00", "09:00~18:00", "09:00~18:00", "09:00~13:00", "-"]}]