[{"name": "\uc6b0\ub9ac\uc57d\uad6d", "lat": "37.52955792890878", "lng": "126.96415593558876", "url": "/info/%EC%9A%B0%EB%A6%AC%EC%95%BD%EA%B5%AD-%EC%84%9C%EC%9A%B8%ED%8A%B9%EB%B3%84%EC%8B%9C-%EC%9A%A9%EC%82%B0%EA%B5%AC-%ED%95%9C%EA%B0%95%EB%A1%9C3%EA%B0%80/", "workingTime": ["-", "10:00~20:00", "10:00~20:00", "10:00~20:00", "10:00~20:00", "10:00~20:00", "10:00~18:30", "-"]}, {"name": "\uc6a9\uc0b0\ud30c\ud06c\uc57d\uad6d", "lat": "37.5269056148241", "lng": "126.966566172294", "url": "/info/%EC%9A%A9%EC%82%B0%ED%8C%8C%ED%81%AC%EC%95%BD%EA%B5%AD-%EC%84%9C%EC%9A%B8%ED%8A%B9%EB%B3%84%EC%8B%9C-%EC%9A%A9%EC%82%B0%EA%B5%AC-%ED%95%9C%EA%B0%95%EB%A1%9C3%EA%B0%80/", "workingTime": ["-", "09:00~20:00", "09:00~20:00", "09:30~19:30", "09:00~20:00", "09:00~20:00", "09:00~16:00", "-"]}, {"name": "\uc0bc\ud76c\uc57d\uad6d", "lat": "37.526487824988244", "lng": "126.96572316757215", "url": "/info/%EC%82%BC%ED%9D%AC%EC%95%BD%EA%B5%AD-%EC%84%9C%EC%9A%B8%ED%8A%B9%EB%B3%84%EC%8B%9C-%EC%9A%A9%EC%82%B0%EA%B5%AC-%ED%95%9C%EA%B0%95%EB%A1%9C3%EA%B0%80/", "workingTime": ["-", "08:30~18:30", "08:30~18:30", "08:30~18:30", "08:30~18:30", "08:30~18:30", "08:30~16:30", "08:30~13:00"]}, {"name": "\ub2e4\ub2c8\uc5d8\uc57d\uad6d", "lat": "37.524016666666668", "lng": "126.959447222222224", "url": "/info/%EB%8B%A4%EB%8B%88%EC%97%98%EC%95%BD%EA%B5%AD-%EC%84%9C%EC%9A%B8%ED%8A%B9%EB%B3%84%EC%8B%9C-%EC%9A%A9%EC%82%B0%EA%B5%AC-%ED%95%9C%EA%B0%95%EB%A1%9C3%EA%B0%80/", "workingTime": ["-", "09:00~20:00", "09:00~20:00", "09:00~20:00", "09:00~20:00", "09:00~20:00", "09:00~16:00", "-"]}, {"name": "\uadf8\ub798\uc57d\uad6d", "lat": "37.5269056148241", "lng": "126.966566172294", "url": "/info/%EA%B7%B8%EB%9E%98%EC%95%BD%EA%B5%AD-%EC%84%9C%EC%9A%B8%ED%8A%B9%EB%B3%84%EC%8B%9C-%EC%9A%A9%EC%82%B0%EA%B5%AC-%ED%95%9C%EA%B0%95%EB%A1%9C3%EA%B0%80/", "workingTime": ["-", "09:10~20:00", "09:10~20:00", "09:10~20:00", "09:10~20:00", "09:10~20:00", "09:30~16:00", "-"]}, {"name": "\ud574\ud53c\uc57d\uad6d", "lat": "37.5269056148241", "lng": "126.966566172294", "url": "/info/%ED%95%B4%ED%94%BC%EC%95%BD%EA%B5%AD-%EC%84%9C%EC%9A%B8%ED%8A%B9%EB%B3%84%EC%8B%9C-%EC%9A%A9%EC%82%B0%EA%B5%AC-%ED%95%9C%EA%B0%95%EB%A1%9C3%EA%B0%80/", "workingTime": ["-", "08:30~19:00", "08:30~19:00", "08:30~19:00", "08:30~19:00", "08:30~19:00", "08:30~15:00", "-"]}, {"name": "\ud3b8\ud55c\uc57d\uad6d", "lat": "37.51809060385795", "lng": "126.98110643031347", "url": "/info/%ED%8E%B8%ED%95%9C%EC%95%BD%EA%B5%AD-%EC%84%9C%EC%9A%B8%ED%8A%B9%EB%B3%84%EC%8B%9C-%EC%9A%A9%EC%82%B0%EA%B5%AC-%ED%95%9C%EA%B0%95%EB%A1%9C3%EA%B0%80/", "workingTime": ["-", "08:30~21:00", "08:30~21:00", "08:30~21:00", "08:30~21:00", "08:30~21:00", "08:30~21:00", "-"]}, {"name": "\ud31c\uadf8\ub9b0\uc57d\uad6d", "lat": "37.5327675879736", "lng": "126.95972836984481", "url": "/info/%ED%8C%9C%EA%B7%B8%EB%A6%B0%EC%95%BD%EA%B5%AD-%EC%84%9C%EC%9A%B8%ED%8A%B9%EB%B3%84%EC%8B%9C-%EC%9A%A9%EC%82%B0%EA%B5%AC-%ED%95%9C%EA%B0%95%EB%A1%9C3%EA%B0%80/", "workingTime": ["-", "09:30~19:00", "09:30~19:00", "09:30~19:00", "09:30~19:00", "09:30~16:00", "10:00~19:30", "-"]}, {"name": "\uc885\ub85c\ud504\ub77c\uc790\uc57d\uad6d", "lat": "37.52972707884954", "lng": "126.96585601231524", "url": "/info/%EC%A2%85%EB%A1%9C%ED%94%84%EB%9D%BC%EC%9E%90%EC%95%BD%EA%B5%AD-%EC%84%9C%EC%9A%B8%ED%8A%B9%EB%B3%84%EC%8B%9C-%EC%9A%A9%EC%82%B0%EA%B5%AC-%ED%95%9C%EA%B0%95%EB%A1%9C3%EA%B0%80/", "workingTime": ["1,2,3,4,5\uc9f8\uc8fc10:00~22:30", "10:00~22:30", "10:00~22:30", "10:00~22:30", "10:00~22:30", "10:00~22:30", "10:00~22:30", "10:00~23:00"]}, {"name": "\uc0c8\ubb34\ub9bc\uc57d\uad6d", "lat": "37.525907182287085", "lng": "126.9644202127333", "url": "/info/%EC%83%88%EB%AC%B4%EB%A6%BC%EC%95%BD%EA%B5%AD-%EC%84%9C%EC%9A%B8%ED%8A%B9%EB%B3%84%EC%8B%9C-%EC%9A%A9%EC%82%B0%EA%B5%AC-%ED%95%9C%EA%B0%95%EB%A1%9C3%EA%B0%80/", "workingTime": ["-", "09:00~19:00", "09:00~19:00", "09:00~19:00", "09:00~19:00", "09:00~19:00", "09:00~16:00", "-"]}, {"name": "\uc2e0\uc6a9\uc0b0\uc57d\uad6d", "lat": "37.5253509714", "lng": "126.9630569607", "url": "/info/%EC%8B%A0%EC%9A%A9%EC%82%B0%EC%95%BD%EA%B5%AD-%EC%84%9C%EC%9A%B8%ED%8A%B9%EB%B3%84%EC%8B%9C-%EC%9A%A9%EC%82%B0%EA%B5%AC-%ED%95%9C%EA%B0%95%EB%A1%9C3%EA%B0%80/", "workingTime": ["-", "08:30~18:30", "08:30~18:30", "08:30~18:30", "08:30~18:30", "08:30~18:30", "08:30~14:00", "-"]}]