[{"name": "\ub9c8\ud3ec\uc0bc\uc131\uc57d\uad6d", "lat": "37.5411322820991", "lng": "126.949457505448", "url": "/info/%EB%A7%88%ED%8F%AC%EC%82%BC%EC%84%B1%EC%95%BD%EA%B5%AD-%EC%84%9C%EC%9A%B8%ED%8A%B9%EB%B3%84%EC%8B%9C-%EB%A7%88%ED%8F%AC%EA%B5%AC-%EB%8F%84%ED%99%94%EB%8F%99/", "workingTime": ["-", "08:30~21:00", "08:30~21:00", "08:30~21:00", "08:30~21:00", "08:30~21:00", "08:30~21:00", "09:00~21:00"]}, {"name": "\uc544\uce74\ub370\ubbf8\uc57d\uad6d", "lat": "37.54033780884478", "lng": "126.94766109855231", "url": "/info/%EC%95%84%EC%B9%B4%EB%8D%B0%EB%AF%B8%EC%95%BD%EA%B5%AD-%EC%84%9C%EC%9A%B8%ED%8A%B9%EB%B3%84%EC%8B%9C-%EB%A7%88%ED%8F%AC%EA%B5%AC-%EB%8F%84%ED%99%94%EB%8F%99/", "workingTime": ["-", "09:00~19:00", "09:00~19:00", "09:00~19:00", "09:00~19:00", "09:00~19:00", "09:00~15:00", "-"]}, {"name": "\uc218\uc815\uc57d\uad6d", "lat": "37.5422597095372", "lng": "126.947815454166", "url": "/info/%EC%88%98%EC%A0%95%EC%95%BD%EA%B5%AD-%EC%84%9C%EC%9A%B8%ED%8A%B9%EB%B3%84%EC%8B%9C-%EB%A7%88%ED%8F%AC%EA%B5%AC-%EB%8F%84%ED%99%94%EB%8F%99/", "workingTime": ["-", "09:00~19:00", "09:00~19:00", "09:00~19:00", "09:00~19:00", "09:00~19:00", "09:00~14:00", "-"]}, {"name": "\ud5c8\ube0c\uc57d\uad6d", "lat": "37.542392652853096", "lng": "126.94896321234213", "url": "/info/%ED%97%88%EB%B8%8C%EC%95%BD%EA%B5%AD-%EC%84%9C%EC%9A%B8%ED%8A%B9%EB%B3%84%EC%8B%9C-%EB%A7%88%ED%8F%AC%EA%B5%AC-%EB%8F%84%ED%99%94%EB%8F%99/", "workingTime": ["-", "08:30~19:00", "08:30~19:00", "08:30~19:00", "08:30~19:00", "08:30~19:00", "08:30~19:00", "-"]}, {"name": "\ub9c8\ud3ec\uc628\ub204\ub9ac\uc57d\uad6d", "lat": "37.5408050156165", "lng": "126.945946191673", "url": "/info/%EB%A7%88%ED%8F%AC%EC%98%A8%EB%88%84%EB%A6%AC%EC%95%BD%EA%B5%AD-%EC%84%9C%EC%9A%B8%ED%8A%B9%EB%B3%84%EC%8B%9C-%EB%A7%88%ED%8F%AC%EA%B5%AC-%EB%8F%84%ED%99%94%EB%8F%99/", "workingTime": ["-", "08:30~21:00", "08:30~21:00", "08:30~21:00", "08:30~21:00", "08:30~21:00", "08:30~17:00", "-"]}, {"name": "\ud587\ube5b\uc57d\uad6d", "lat": "37.54133353318082", "lng": "126.9489606572827", "url": "/info/%ED%96%87%EB%B9%9B%EC%95%BD%EA%B5%AD-%EC%84%9C%EC%9A%B8%ED%8A%B9%EB%B3%84%EC%8B%9C-%EB%A7%88%ED%8F%AC%EA%B5%AC-%EB%8F%84%ED%99%94%EB%8F%99/", "workingTime": ["1,2,3,4,5\uc9f8\uc8fc08:00~14:00", "08:00~19:30", "08:00~19:30", "08:00~19:30", "08:00~19:30", "08:00~19:30", "08:00~14:00", "08:00~14:00"]}, {"name": "\ub3c5\uc77c\uc57d\uad6d", "lat": "37.54104199760971", "lng": "126.95095560063984", "url": "/info/%EB%8F%85%EC%9D%BC%EC%95%BD%EA%B5%AD-%EC%84%9C%EC%9A%B8%ED%8A%B9%EB%B3%84%EC%8B%9C-%EB%A7%88%ED%8F%AC%EA%B5%AC-%EB%8F%84%ED%99%94%EB%8F%99/", "workingTime": ["-", "09:00~21:00", "09:00~21:00", "09:00~21:00", "09:00~21:00", "09:00~21:00", "09:00~21:00", "-"]}, {"name": "\ud3ec\ub3c4\uc57d\uad6d", "lat": "37.539973013511", "lng": "126.947098319374", "url": "/info/%ED%8F%AC%EB%8F%84%EC%95%BD%EA%B5%AD-%EC%84%9C%EC%9A%B8%ED%8A%B9%EB%B3%84%EC%8B%9C-%EB%A7%88%ED%8F%AC%EA%B5%AC-%EB%8F%84%ED%99%94%EB%8F%99/", "workingTime": ["-", "09:00~19:00", "09:00~19:00", "09:00~19:00", "09:00~19:00", "09:00~19:00", "09:00~13:00", "-"]}, {"name": "\uc815\uc57d\uad6d", "lat": "37.5413330809", "lng": "126.9489593879", "url": "/info/%EC%A0%95%EC%95%BD%EA%B5%AD-%EC%84%9C%EC%9A%B8%ED%8A%B9%EB%B3%84%EC%8B%9C-%EB%A7%88%ED%8F%AC%EA%B5%AC-%EB%8F%84%ED%99%94%EB%8F%99/", "workingTime": ["-", "09:00~19:30", "09:00~19:30", "09:00~19:30", "09:00~19:30", "09:00~19:30", "09:00~14:00", "-"]}, {"name": "\ubbf8\uc18c\uc57d\uad6d", "lat": "37.54135156107907", "lng": "126.94897874880843", "url": "/info/%EB%AF%B8%EC%86%8C%EC%95%BD%EA%B5%AD-%EC%84%9C%EC%9A%B8%ED%8A%B9%EB%B3%84%EC%8B%9C-%EB%A7%88%ED%8F%AC%EA%B5%AC-%EB%8F%84%ED%99%94%EB%8F%99/", "workingTime": ["-", "08:30~19:00", "08:30~19:00", "08:30~19:00", "08:30~19:00", "08:30~19:00", "08:30~16:00", "-"]}, {"name": "\uacf5\ub355\uc624\uac70\ub9ac\uc57d\uad6d", "lat": "37.54246933954342", "lng": "126.95132578928957", "url": "/info/%EA%B3%B5%EB%8D%95%EC%98%A4%EA%B1%B0%EB%A6%AC%EC%95%BD%EA%B5%AD-%EC%84%9C%EC%9A%B8%ED%8A%B9%EB%B3%84%EC%8B%9C-%EB%A7%88%ED%8F%AC%EA%B5%AC-%EB%8F%84%ED%99%94%EB%8F%99/", "workingTime": ["1,2,3,4,5\uc9f8\uc8fc09:00~16:00", "09:00~21:00", "09:00~21:00", "09:00~21:00", "09:00~21:00", "09:00~21:00", "09:00~16:00", "09:00~16:00"]}, {"name": "\uc544\ud06c\ub85c\uc57d\uad6d", "lat": "37.5413421541668", "lng": "126.948897374412", "url": "/info/%EC%95%84%ED%81%AC%EB%A1%9C%EC%95%BD%EA%B5%AD-%EC%84%9C%EC%9A%B8%ED%8A%B9%EB%B3%84%EC%8B%9C-%EB%A7%88%ED%8F%AC%EA%B5%AC-%EB%8F%84%ED%99%94%EB%8F%99/", "workingTime": ["-", "09:00~19:30", "09:00~20:00", "09:00~19:30", "09:00~20:00", "09:00~19:30", "09:00~15:00", "-"]}, {"name": "\ub300\uad50\uc57d\uad6d", "lat": "37.539786252893684", "lng": "126.94734921159554", "url": "/info/%EB%8C%80%EA%B5%90%EC%95%BD%EA%B5%AD-%EC%84%9C%EC%9A%B8%ED%8A%B9%EB%B3%84%EC%8B%9C-%EB%A7%88%ED%8F%AC%EA%B5%AC-%EB%8F%84%ED%99%94%EB%8F%99/", "workingTime": ["-", "08:30~21:00", "08:30~21:00", "08:30~21:00", "08:30~21:00", "08:30~21:00", "08:30~15:00", "-"]}, {"name": "\ud558\uc784\uc628\ub204\ub9ac\uc57d\uad6d", "lat": "37.541787737", "lng": "126.9502535448", "url": "/info/%ED%95%98%EC%9E%84%EC%98%A8%EB%88%84%EB%A6%AC%EC%95%BD%EA%B5%AD-%EC%84%9C%EC%9A%B8%ED%8A%B9%EB%B3%84%EC%8B%9C-%EB%A7%88%ED%8F%AC%EA%B5%AC-%EB%8F%84%ED%99%94%EB%8F%99/", "workingTime": ["1,2,3,4,5\uc9f8\uc8fc09:00~13:00", "08:30~14:00", "08:30~14:00", "08:30~14:00", "08:30~14:00", "08:30~14:00", "09:00~13:00", "-"]}, {"name": "\ucc38\uc870\uc740\uc57d\uad6d", "lat": "37.542844159", "lng": "126.951334598", "url": "/info/%EC%B0%B8%EC%A1%B0%EC%9D%80%EC%95%BD%EA%B5%AD-%EC%84%9C%EC%9A%B8%ED%8A%B9%EB%B3%84%EC%8B%9C-%EB%A7%88%ED%8F%AC%EA%B5%AC-%EB%8F%84%ED%99%94%EB%8F%99/", "workingTime": ["1,2,3,4,5\uc9f8\uc8fc09:00~16:00", "09:00~21:00", "09:00~21:00", "09:00~21:00", "09:00~21:00", "09:00~21:00", "09:00~16:00", "08:00~16:00"]}, {"name": "\uc81c\ubbfc\uc57d\uad6d", "lat": "37.537984690492024", "lng": "126.94729297217677", "url": "/info/%EC%A0%9C%EB%AF%BC%EC%95%BD%EA%B5%AD-%EC%84%9C%EC%9A%B8%ED%8A%B9%EB%B3%84%EC%8B%9C-%EB%A7%88%ED%8F%AC%EA%B5%AC-%EB%8F%84%ED%99%94%EB%8F%99/", "workingTime": ["-", "09:30~19:30", "09:30~19:30", "09:30~19:30", "09:30~19:30", "09:30~19:30", "09:30~16:30", "-"]}, {"name": "\uc720\uc9c4\uc628\ub204\ub9ac\uc57d\uad6d", "lat": "37.53901727401081", "lng": "126.95147868550177", "url": "/info/%EC%9C%A0%EC%A7%84%EC%98%A8%EB%88%84%EB%A6%AC%EC%95%BD%EA%B5%AD-%EC%84%9C%EC%9A%B8%ED%8A%B9%EB%B3%84%EC%8B%9C-%EB%A7%88%ED%8F%AC%EA%B5%AC-%EB%8F%84%ED%99%94%EB%8F%99/", "workingTime": ["-", "09:00~21:00", "09:00~21:00", "09:00~21:00", "09:00~21:00", "09:00~21:00", "09:00~18:00", "-"]}, {"name": "\uc0c1\uc218\uc57d\uad6d", "lat": "37.541275077754094", "lng": "126.94616655514358", "url": "/info/%EC%83%81%EC%88%98%EC%95%BD%EA%B5%AD-%EC%84%9C%EC%9A%B8%ED%8A%B9%EB%B3%84%EC%8B%9C-%EB%A7%88%ED%8F%AC%EA%B5%AC-%EB%8F%84%ED%99%94%EB%8F%99/", "workingTime": ["-", "09:00~18:00", "09:00~18:00", "09:00~18:00", "09:00~18:00", "09:00~18:00", "09:00~15:00", "-"]}, {"name": "\uad11\uc2e4\uc57d\uad6d", "lat": "37.54081845988182", "lng": "126.94962634267173", "url": "/info/%EA%B4%91%EC%8B%A4%EC%95%BD%EA%B5%AD-%EC%84%9C%EC%9A%B8%ED%8A%B9%EB%B3%84%EC%8B%9C-%EB%A7%88%ED%8F%AC%EA%B5%AC-%EB%8F%84%ED%99%94%EB%8F%99/", "workingTime": ["-", "08:00~20:00", "08:00~20:00", "08:00~20:00", "08:00~20:00", "08:00~20:00", "08:00~19:00", "-"]}, {"name": "\ub3c4\uc6d0\uc57d\uad6d", "lat": "37.540352672569256", "lng": "126.94767144015194", "url": "/info/%EB%8F%84%EC%9B%90%EC%95%BD%EA%B5%AD-%EC%84%9C%EC%9A%B8%ED%8A%B9%EB%B3%84%EC%8B%9C-%EB%A7%88%ED%8F%AC%EA%B5%AC-%EB%8F%84%ED%99%94%EB%8F%99/", "workingTime": ["-", "09:00~19:00", "09:00~19:00", "09:00~19:00", "09:00~19:00", "09:00~19:00", "09:00~15:00", "-"]}]