[{"name": "\uc5b4\uae68\ub3d9\ubb34\uc57d\uad6d", "lat": "37.58126653695913", "lng": "127.02958447912366", "url": "/info/%EC%96%B4%EA%B9%A8%EB%8F%99%EB%AC%B4%EC%95%BD%EA%B5%AD-%EC%84%9C%EC%9A%B8%ED%8A%B9%EB%B3%84%EC%8B%9C-%EB%8F%99%EB%8C%80%EB%AC%B8%EA%B5%AC-%EC%9A%A9%EB%91%90%EB%8F%99/", "workingTime": ["-", "09:00~18:00", "09:00~18:00", "09:00~18:00", "09:00~18:00", "09:00~18:00", "09:00~13:30", "-"]}, {"name": "\uc2e0\uc0c1\ub85d\uc218\uc57d\uad6d", "lat": "37.57349659826146", "lng": "127.03113020370216", "url": "/info/%EC%8B%A0%EC%83%81%EB%A1%9D%EC%88%98%EC%95%BD%EA%B5%AD-%EC%84%9C%EC%9A%B8%ED%8A%B9%EB%B3%84%EC%8B%9C-%EB%8F%99%EB%8C%80%EB%AC%B8%EA%B5%AC-%EC%9A%A9%EB%91%90%EB%8F%99/", "workingTime": ["2,4\uc9f8\uc8fc10:00~20:00", "08:00~20:00", "08:00~20:00", "08:00~20:00", "08:00~20:00", "08:00~20:00", "08:00~20:00", "-"]}, {"name": "\ud765\uba85\uc57d\uad6d", "lat": "37.57545764415045", "lng": "127.04130802633438", "url": "/info/%ED%9D%A5%EB%AA%85%EC%95%BD%EA%B5%AD-%EC%84%9C%EC%9A%B8%ED%8A%B9%EB%B3%84%EC%8B%9C-%EB%8F%99%EB%8C%80%EB%AC%B8%EA%B5%AC-%EC%9A%A9%EB%91%90%EB%8F%99/", "workingTime": ["1,2,3,4,5\uc9f8\uc8fc14:00~22:30", "10:30~23:00", "10:30~23:00", "10:30~23:00", "10:30~23:00", "10:30~23:00", "10:30~23:00", "-"]}, {"name": "\ub9c8\uc7a5\ubc31\ud654\uc810\uc57d\uad6d", "lat": "37.57616808753487", "lng": "127.03853924954028", "url": "/info/%EB%A7%88%EC%9E%A5%EB%B0%B1%ED%99%94%EC%A0%90%EC%95%BD%EA%B5%AD-%EC%84%9C%EC%9A%B8%ED%8A%B9%EB%B3%84%EC%8B%9C-%EB%8F%99%EB%8C%80%EB%AC%B8%EA%B5%AC-%EC%9A%A9%EB%91%90%EB%8F%99/", "workingTime": ["1,2,3,4,5\uc9f8\uc8fc08:00~23:00", "07:00~23:00", "07:00~23:00", "07:00~23:00", "07:00~23:00", "07:00~23:00", "07:00~23:00", "08:00~23:00"]}, {"name": "\ub3d9\uc548\uba54\ub514\uc57d\uad6d", "lat": "37.5774444904", "lng": "127.0321371015", "url": "/info/%EB%8F%99%EC%95%88%EB%A9%94%EB%94%94%EC%95%BD%EA%B5%AD-%EC%84%9C%EC%9A%B8%ED%8A%B9%EB%B3%84%EC%8B%9C-%EB%8F%99%EB%8C%80%EB%AC%B8%EA%B5%AC-%EC%9A%A9%EB%91%90%EB%8F%99/", "workingTime": ["-", "09:00~18:00", "09:00~18:00", "09:00~18:00", "09:00~18:00", "09:00~18:00", "-", "-"]}, {"name": "\ub3d9\ub300\ubb38\ubcf4\uac74\uc57d\uad6d", "lat": "37.57497461072219", "lng": "127.04031366583861", "url": "/info/%EB%8F%99%EB%8C%80%EB%AC%B8%EB%B3%B4%EA%B1%B4%EC%95%BD%EA%B5%AD-%EC%84%9C%EC%9A%B8%ED%8A%B9%EB%B3%84%EC%8B%9C-%EB%8F%99%EB%8C%80%EB%AC%B8%EA%B5%AC-%EC%9A%A9%EB%91%90%EB%8F%99/", "workingTime": ["-", "08:00~18:00", "08:00~18:00", "08:00~18:00", "08:00~18:00", "08:00~18:00", "-", "-"]}, {"name": "\ub300\uba85\ub2f9\uc57d\uad6d", "lat": "37.576473165252516", "lng": "127.03009436337473", "url": "/info/%EB%8C%80%EB%AA%85%EB%8B%B9%EC%95%BD%EA%B5%AD-%EC%84%9C%EC%9A%B8%ED%8A%B9%EB%B3%84%EC%8B%9C-%EB%8F%99%EB%8C%80%EB%AC%B8%EA%B5%AC-%EC%9A%A9%EB%91%90%EB%8F%99/", "workingTime": ["-", "09:00~20:00", "09:00~20:00", "09:00~20:00", "09:00~20:00", "09:00~20:00", "09:00~18:00", "-"]}, {"name": "\ub274\ud504\ub77c\uc790\uc57d\uad6d", "lat": "37.575245687813975", "lng": "127.03785957858607", "url": "/info/%EB%89%B4%ED%94%84%EB%9D%BC%EC%9E%90%EC%95%BD%EA%B5%AD-%EC%84%9C%EC%9A%B8%ED%8A%B9%EB%B3%84%EC%8B%9C-%EB%8F%99%EB%8C%80%EB%AC%B8%EA%B5%AC-%EC%9A%A9%EB%91%90%EB%8F%99/", "workingTime": ["-", "09:00~19:00", "09:00~19:00", "09:00~19:00", "09:00~19:00", "09:00~19:00", "09:00~15:00", "-"]}, {"name": "\uac74\uac15\ud55c\uc57d\uad6d", "lat": "37.57872808516668", "lng": "127.04179660921798", "url": "/info/%EA%B1%B4%EA%B0%95%ED%95%9C%EC%95%BD%EA%B5%AD-%EC%84%9C%EC%9A%B8%ED%8A%B9%EB%B3%84%EC%8B%9C-%EB%8F%99%EB%8C%80%EB%AC%B8%EA%B5%AC-%EC%9A%A9%EB%91%90%EB%8F%99/", "workingTime": ["-", "10:00~22:00", "10:00~22:00", "10:00~22:00", "10:00~22:00", "10:00~22:00", "10:00~22:00", "10:00~22:00"]}, {"name": "\ucc9c\uc0ac\uc57d\uad6d", "lat": "37.5774438803903", "lng": "127.036701479588", "url": "/info/%EC%B2%9C%EC%82%AC%EC%95%BD%EA%B5%AD-%EC%84%9C%EC%9A%B8%ED%8A%B9%EB%B3%84%EC%8B%9C-%EB%8F%99%EB%8C%80%EB%AC%B8%EA%B5%AC-%EC%9A%A9%EB%91%90%EB%8F%99/", "workingTime": ["-", "08:30~19:00", "08:30~19:00", "08:30~19:00", "08:30~19:00", "08:30~19:00", "08:30~13:30", "-"]}, {"name": "365\ud50c\ub7ec\uc2a4\uc57d\uad6d", "lat": "37.5745483247197", "lng": "127.03876781084", "url": "/info/365%ED%94%8C%EB%9F%AC%EC%8A%A4%EC%95%BD%EA%B5%AD-%EC%84%9C%EC%9A%B8%ED%8A%B9%EB%B3%84%EC%8B%9C-%EB%8F%99%EB%8C%80%EB%AC%B8%EA%B5%AC-%EC%9A%A9%EB%91%90%EB%8F%99/", "workingTime": ["1,2,3,4,5\uc9f8\uc8fc10:00~22:00", "10:00~22:00", "10:00~22:00", "10:00~22:00", "10:00~22:00", "10:00~22:00", "10:00~22:00", "10:00~22:00"]}, {"name": "\ud478\ub974\uc9c0\uc624\uc57d\uad6d", "lat": "37.57788531216351", "lng": "127.03247676543113", "url": "/info/%ED%91%B8%EB%A5%B4%EC%A7%80%EC%98%A4%EC%95%BD%EA%B5%AD-%EC%84%9C%EC%9A%B8%ED%8A%B9%EB%B3%84%EC%8B%9C-%EB%8F%99%EB%8C%80%EB%AC%B8%EA%B5%AC-%EC%9A%A9%EB%91%90%EB%8F%99/", "workingTime": ["-", "08:00~19:00", "08:00~19:00", "08:00~19:00", "08:00~19:00", "08:00~19:00", "-", "-"]}, {"name": "\uccad\uc218\uc57d\uad6d", "lat": "37.577811587718756", "lng": "127.03395310261833", "url": "/info/%EC%B2%AD%EC%88%98%EC%95%BD%EA%B5%AD-%EC%84%9C%EC%9A%B8%ED%8A%B9%EB%B3%84%EC%8B%9C-%EB%8F%99%EB%8C%80%EB%AC%B8%EA%B5%AC-%EC%9A%A9%EB%91%90%EB%8F%99/", "workingTime": ["-", "09:00~21:00", "09:00~21:00", "09:00~21:00", "09:00~21:00", "09:00~21:00", "09:00~21:00", "-"]}, {"name": "\uc778\uc601\uc57d\uad6d", "lat": "37.577974329436145", "lng": "127.0363575219362", "url": "/info/%EC%9D%B8%EC%98%81%EC%95%BD%EA%B5%AD-%EC%84%9C%EC%9A%B8%ED%8A%B9%EB%B3%84%EC%8B%9C-%EB%8F%99%EB%8C%80%EB%AC%B8%EA%B5%AC-%EC%9A%A9%EB%91%90%EB%8F%99/", "workingTime": ["-", "08:30~18:00", "08:30~18:00", "08:30~18:00", "08:30~18:00", "08:30~18:00", "08:30~18:00", "-"]}, {"name": "\uc5f0\uc218\ub2f9\uc57d\uad6d", "lat": "37.57650585715619", "lng": "127.03136918737485", "url": "/info/%EC%97%B0%EC%88%98%EB%8B%B9%EC%95%BD%EA%B5%AD-%EC%84%9C%EC%9A%B8%ED%8A%B9%EB%B3%84%EC%8B%9C-%EB%8F%99%EB%8C%80%EB%AC%B8%EA%B5%AC-%EC%9A%A9%EB%91%90%EB%8F%99/", "workingTime": ["-", "09:00~20:00", "09:00~20:00", "09:00~20:00", "09:00~20:00", "09:00~20:00", "09:00~17:00", "09:00~19:00"]}, {"name": "\uc544\ud30c\ud2b8\uc5e0\uc57d\uad6d", "lat": "37.573286855785625", "lng": "127.03177302550876", "url": "/info/%EC%95%84%ED%8C%8C%ED%8A%B8%EC%97%A0%EC%95%BD%EA%B5%AD-%EC%84%9C%EC%9A%B8%ED%8A%B9%EB%B3%84%EC%8B%9C-%EB%8F%99%EB%8C%80%EB%AC%B8%EA%B5%AC-%EC%9A%A9%EB%91%90%EB%8F%99/", "workingTime": ["-", "09:00~21:30", "09:00~21:30", "09:00~21:30", "09:00~21:30", "09:00~21:30", "09:00~21:30", "-"]}, {"name": "\ub3d9\ubd80\uba54\ub514\uce7c\uc57d\uad6d", "lat": "37.575600000000001", "lng": "127.030741666666671", "url": "/info/%EB%8F%99%EB%B6%80%EB%A9%94%EB%94%94%EC%B9%BC%EC%95%BD%EA%B5%AD-%EC%84%9C%EC%9A%B8%ED%8A%B9%EB%B3%84%EC%8B%9C-%EB%8F%99%EB%8C%80%EB%AC%B8%EA%B5%AC-%EC%9A%A9%EB%91%90%EB%8F%99/", "workingTime": ["-", "09:00~18:00", "09:00~18:00", "09:00~18:00", "09:00~18:00", "09:00~18:00", "09:00~12:00", "-"]}, {"name": "\ub3d9\ubd80\ub300\ud559\uc57d\uad6d", "lat": "37.57504221450593", "lng": "127.03084095039608", "url": "/info/%EB%8F%99%EB%B6%80%EB%8C%80%ED%95%99%EC%95%BD%EA%B5%AD-%EC%84%9C%EC%9A%B8%ED%8A%B9%EB%B3%84%EC%8B%9C-%EB%8F%99%EB%8C%80%EB%AC%B8%EA%B5%AC-%EC%9A%A9%EB%91%90%EB%8F%99/", "workingTime": ["-", "08:30~20:00", "08:30~20:00", "08:30~20:00", "08:30~20:00", "08:30~20:00", "08:30~13:00", "-"]}, {"name": "\uc73c\ub738\uc57d\uad6d", "lat": "37.5771885830465", "lng": "127.029470644625", "url": "/info/%EC%9C%BC%EB%9C%B8%EC%95%BD%EA%B5%AD-%EC%84%9C%EC%9A%B8%ED%8A%B9%EB%B3%84%EC%8B%9C-%EB%8F%99%EB%8C%80%EB%AC%B8%EA%B5%AC-%EC%9A%A9%EB%91%90%EB%8F%99/", "workingTime": ["-", "09:00~19:00", "09:00~19:00", "09:00~19:00", "09:00~19:00", "09:00~19:00", "09:00~14:00", "-"]}]