[{"name": "\ud55c\ub204\ub9ac\uc57d\uad6d", "lat": "37.5748262116781", "lng": "126.972937994085", "url": "/info/%ED%95%9C%EB%88%84%EB%A6%AC%EC%95%BD%EA%B5%AD-%EC%84%9C%EC%9A%B8%ED%8A%B9%EB%B3%84%EC%8B%9C-%EC%A2%85%EB%A1%9C%EA%B5%AC-%EB%82%B4%EC%9E%90%EB%8F%99/", "workingTime": ["-", "09:00~19:00", "09:00~19:00", "09:00~19:00", "09:00~19:00", "09:00~19:00", "-", "-"]}, {"name": "\ucd08\uc6d0\uc57d\uad6d", "lat": "37.5763198182948", "lng": "126.972281883776", "url": "/info/%EC%B4%88%EC%9B%90%EC%95%BD%EA%B5%AD-%EC%84%9C%EC%9A%B8%ED%8A%B9%EB%B3%84%EC%8B%9C-%EC%A2%85%EB%A1%9C%EA%B5%AC-%EB%82%B4%EC%9E%90%EB%8F%99/", "workingTime": ["-", "08:30~21:00", "08:30~21:00", "08:30~21:00", "08:30~21:00", "08:30~21:00", "09:00~20:00", "-"]}, {"name": "\ub0b4\uc790\uc57d\uad6d", "lat": "37.5763321550439", "lng": "126.970759498959", "url": "/info/%EB%82%B4%EC%9E%90%EC%95%BD%EA%B5%AD-%EC%84%9C%EC%9A%B8%ED%8A%B9%EB%B3%84%EC%8B%9C-%EC%A2%85%EB%A1%9C%EA%B5%AC-%EB%82%B4%EC%9E%90%EB%8F%99/", "workingTime": ["-", "08:00~18:30", "08:00~18:30", "08:00~19:00", "08:00~18:30", "08:00~18:30", "08:00~13:30", "-"]}, {"name": "\ud55c\uc194\uc57d\uad6d", "lat": "37.57630458744067", "lng": "126.97078635999365", "url": "/info/%ED%95%9C%EC%86%94%EC%95%BD%EA%B5%AD-%EC%84%9C%EC%9A%B8%ED%8A%B9%EB%B3%84%EC%8B%9C-%EC%A2%85%EB%A1%9C%EA%B5%AC-%EB%82%B4%EC%9E%90%EB%8F%99/", "workingTime": ["-", "09:00~20:00", "09:00~20:00", "09:00~20:00", "09:00~20:00", "09:00~20:00", "09:00~15:00", "-"]}, {"name": "\ubbfc\uc57d\uad6d", "lat": "37.5749409657279", "lng": "126.97086652555122", "url": "/info/%EB%AF%BC%EC%95%BD%EA%B5%AD-%EC%84%9C%EC%9A%B8%ED%8A%B9%EB%B3%84%EC%8B%9C-%EC%A2%85%EB%A1%9C%EA%B5%AC-%EB%82%B4%EC%9E%90%EB%8F%99/", "workingTime": ["1,2,3,4,5\uc9f8\uc8fc09:00~20:00", "09:00~20:00", "09:00~20:00", "09:00~20:00", "09:00~20:00", "09:00~20:00", "09:00~20:00", "13:00~21:00"]}]