[{"name": "5\uce35\uc0ac\ub791\uc57d\uad6d", "lat": "37.5630153591", "lng": "126.9726681333", "url": "/info/5%EC%B8%B5%EC%82%AC%EB%9E%91%EC%95%BD%EA%B5%AD-%EC%84%9C%EC%9A%B8%ED%8A%B9%EB%B3%84%EC%8B%9C-%EC%A4%91%EA%B5%AC-%EC%84%9C%EC%86%8C%EB%AC%B8%EB%8F%99/", "workingTime": ["-", "08:30~19:00", "08:30~19:00", "08:30~19:00", "08:30~19:00", "08:30~19:00", "-", "-"]}, {"name": "\ubaa8\ub4dc\ub2c8\uc57d\uad6d", "lat": "37.562766541313735", "lng": "126.97403124763437", "url": "/info/%EB%AA%A8%EB%93%9C%EB%8B%88%EC%95%BD%EA%B5%AD-%EC%84%9C%EC%9A%B8%ED%8A%B9%EB%B3%84%EC%8B%9C-%EC%A4%91%EA%B5%AC-%EC%84%9C%EC%86%8C%EB%AC%B8%EB%8F%99/", "workingTime": ["-", "08:00~20:00", "08:00~20:00", "08:00~20:00", "08:00~20:00", "08:00~20:00", "-", "-"]}, {"name": "13\uce35\uc57d\uad6d", "lat": "37.5627316675026", "lng": "126.974007434429", "url": "/info/13%EC%B8%B5%EC%95%BD%EA%B5%AD-%EC%84%9C%EC%9A%B8%ED%8A%B9%EB%B3%84%EC%8B%9C-%EC%A4%91%EA%B5%AC-%EC%84%9C%EC%86%8C%EB%AC%B8%EB%8F%99/", "workingTime": ["-", "08:40~18:50", "08:40~18:50", "08:40~18:50", "08:40~18:50", "08:40~18:50", "-", "-"]}, {"name": "\ud55c\uc911\uc57d\uad6d", "lat": "37.563387164427695", "lng": "126.97537086397837", "url": "/info/%ED%95%9C%EC%A4%91%EC%95%BD%EA%B5%AD-%EC%84%9C%EC%9A%B8%ED%8A%B9%EB%B3%84%EC%8B%9C-%EC%A4%91%EA%B5%AC-%EC%84%9C%EC%86%8C%EB%AC%B8%EB%8F%99/", "workingTime": ["-", "07:30~21:00", "07:30~21:00", "07:30~21:00", "07:30~21:00", "07:30~21:00", "09:30~18:30", "-"]}, {"name": "\ud55c\uc77c\uc57d\uad6d", "lat": "37.56304851651894", "lng": "126.97325278838767", "url": "/info/%ED%95%9C%EC%9D%BC%EC%95%BD%EA%B5%AD-%EC%84%9C%EC%9A%B8%ED%8A%B9%EB%B3%84%EC%8B%9C-%EC%A4%91%EA%B5%AC-%EC%84%9C%EC%86%8C%EB%AC%B8%EB%8F%99/", "workingTime": ["-", "08:00~20:00", "08:00~20:00", "08:00~20:00", "08:00~20:00", "08:00~20:00", "08:00~13:00", "-"]}]