[{"name": "\uc2e0\uc131\ub9bc\uc57d\uad6d", "lat": "37.55982177050001", "lng": "127.04130163559999", "url": "/info/%EC%8B%A0%EC%84%B1%EB%A6%BC%EC%95%BD%EA%B5%AD-%EC%84%9C%EC%9A%B8%ED%8A%B9%EB%B3%84%EC%8B%9C-%EC%84%B1%EB%8F%99%EA%B5%AC-%ED%96%89%EB%8B%B9%EB%8F%99/", "workingTime": ["-", "09:00~20:00", "09:00~20:00", "09:00~20:00", "09:00~20:00", "09:00~20:00", "09:00~15:00", "-"]}, {"name": "\ud6c4\ubb38\uc57d\uad6d", "lat": "37.559821730813255", "lng": "127.04141481552267", "url": "/info/%ED%9B%84%EB%AC%B8%EC%95%BD%EA%B5%AD-%EC%84%9C%EC%9A%B8%ED%8A%B9%EB%B3%84%EC%8B%9C-%EC%84%B1%EB%8F%99%EA%B5%AC-%ED%96%89%EB%8B%B9%EB%8F%99/", "workingTime": ["-", "09:00~19:00", "09:00~19:00", "09:00~19:00", "09:00~19:00", "09:00~19:00", "09:00~14:00", "-"]}, {"name": "\ud61c\ubbfc\uc57d\uad6d", "lat": "37.56022681126973", "lng": "127.0415736307713", "url": "/info/%ED%98%9C%EB%AF%BC%EC%95%BD%EA%B5%AD-%EC%84%9C%EC%9A%B8%ED%8A%B9%EB%B3%84%EC%8B%9C-%EC%84%B1%EB%8F%99%EA%B5%AC-%ED%96%89%EB%8B%B9%EB%8F%99/", "workingTime": ["-", "09:00~18:00", "09:00~18:00", "09:00~18:00", "09:00~18:00", "09:00~18:00", "09:00~13:00", "-"]}, {"name": "\ub354\ubc1d\uc740\uc57d\uad6d", "lat": "37.561170189870765", "lng": "127.03976310460999", "url": "/info/%EB%8D%94%EB%B0%9D%EC%9D%80%EC%95%BD%EA%B5%AD-%EC%84%9C%EC%9A%B8%ED%8A%B9%EB%B3%84%EC%8B%9C-%EC%84%B1%EB%8F%99%EA%B5%AC-%ED%96%89%EB%8B%B9%EB%8F%99/", "workingTime": ["1,2,3,4,5\uc9f8\uc8fc12:00~22:00", "11:00~23:00", "11:00~23:00", "11:00~23:00", "11:00~23:00", "11:00~23:00", "12:00~22:00", "12:00~22:00"]}, {"name": "\ube44\ud2b8\ud50c\ub809\uc2a4\uc57d\uad6d", "lat": "37.5614417528647", "lng": "127.038394194396", "url": "/info/%EB%B9%84%ED%8A%B8%ED%94%8C%EB%A0%89%EC%8A%A4%EC%95%BD%EA%B5%AD-%EC%84%9C%EC%9A%B8%ED%8A%B9%EB%B3%84%EC%8B%9C-%EC%84%B1%EB%8F%99%EA%B5%AC-%ED%96%89%EB%8B%B9%EB%8F%99/", "workingTime": ["1,2,3,4,5\uc9f8\uc8fc10:30~21:30", "10:30~21:30", "10:30~21:30", "10:30~21:30", "10:30~21:30", "10:30~21:30", "10:30~21:30", "10:30~21:30"]}, {"name": "\uc815\ubb38\uc57d\uad6d", "lat": "37.557945592900985", "lng": "127.04131436794154", "url": "/info/%EC%A0%95%EB%AC%B8%EC%95%BD%EA%B5%AD-%EC%84%9C%EC%9A%B8%ED%8A%B9%EB%B3%84%EC%8B%9C-%EC%84%B1%EB%8F%99%EA%B5%AC-%ED%96%89%EB%8B%B9%EB%8F%99/", "workingTime": ["-", "09:00~18:00", "09:00~18:00", "09:00~18:00", "09:00~18:00", "09:00~18:00", "09:00~13:00", "-"]}, {"name": "\ubbf8\uc18c\uc57d\uad6d", "lat": "37.558756328", "lng": "127.0372809523", "url": "/info/%EB%AF%B8%EC%86%8C%EC%95%BD%EA%B5%AD-%EC%84%9C%EC%9A%B8%ED%8A%B9%EB%B3%84%EC%8B%9C-%EC%84%B1%EB%8F%99%EA%B5%AC-%ED%96%89%EB%8B%B9%EB%8F%99/", "workingTime": ["-", "09:00~19:00", "09:00~19:00", "09:00~19:00", "09:00~19:00", "09:00~19:00", "09:00~14:00", "-"]}, {"name": "\uc131\uc0b0\uc57d\uad6d", "lat": "37.56056253476294", "lng": "127.03528535844184", "url": "/info/%EC%84%B1%EC%82%B0%EC%95%BD%EA%B5%AD-%EC%84%9C%EC%9A%B8%ED%8A%B9%EB%B3%84%EC%8B%9C-%EC%84%B1%EB%8F%99%EA%B5%AC-%ED%96%89%EB%8B%B9%EB%8F%99/", "workingTime": ["-", "09:00~19:00", "09:00~19:00", "09:00~19:00", "09:00~19:00", "09:00~19:00", "09:00~14:00", "-"]}, {"name": "\uc124\uc57d\uad6d", "lat": "37.5609489015845", "lng": "127.03923488132", "url": "/info/%EC%84%A4%EC%95%BD%EA%B5%AD-%EC%84%9C%EC%9A%B8%ED%8A%B9%EB%B3%84%EC%8B%9C-%EC%84%B1%EB%8F%99%EA%B5%AC-%ED%96%89%EB%8B%B9%EB%8F%99/", "workingTime": ["1,2,3,4,5\uc9f8\uc8fc12:00~23:00", "10:00~23:00", "10:00~23:00", "10:00~23:00", "10:00~23:00", "10:00~23:00", "10:00~23:00", "10:00~23:00"]}, {"name": "\uc0c8\uc11c\ub3c5\uc57d\uad6d", "lat": "37.55850884033676", "lng": "127.03329245746215", "url": "/info/%EC%83%88%EC%84%9C%EB%8F%85%EC%95%BD%EA%B5%AD-%EC%84%9C%EC%9A%B8%ED%8A%B9%EB%B3%84%EC%8B%9C-%EC%84%B1%EB%8F%99%EA%B5%AC-%ED%96%89%EB%8B%B9%EB%8F%99/", "workingTime": ["-", "09:00~21:00", "09:00~21:00", "09:00~21:00", "09:00~21:00", "09:00~21:00", "09:00~19:00", "-"]}, {"name": "\uc5f0\uc138\uc6b0\ub9ac\uc57d\uad6d", "lat": "37.5607569358", "lng": "127.0360097903", "url": "/info/%EC%97%B0%EC%84%B8%EC%9A%B0%EB%A6%AC%EC%95%BD%EA%B5%AD-%EC%84%9C%EC%9A%B8%ED%8A%B9%EB%B3%84%EC%8B%9C-%EC%84%B1%EB%8F%99%EA%B5%AC-%ED%96%89%EB%8B%B9%EB%8F%99/", "workingTime": ["-", "09:00~21:00", "09:00~21:00", "09:00~21:00", "09:00~21:00", "09:00~18:00", "-", "-"]}, {"name": "\uc774\uc218\ud504\ub77c\uc790\uc57d\uad6d", "lat": "37.56133898816259", "lng": "127.03460678223206", "url": "/info/%EC%9D%B4%EC%88%98%ED%94%84%EB%9D%BC%EC%9E%90%EC%95%BD%EA%B5%AD-%EC%84%9C%EC%9A%B8%ED%8A%B9%EB%B3%84%EC%8B%9C-%EC%84%B1%EB%8F%99%EA%B5%AC-%ED%96%89%EB%8B%B9%EB%8F%99/", "workingTime": ["-", "08:40~20:00", "08:40~20:00", "08:40~20:00", "08:40~20:00", "08:40~20:00", "08:40~16:00", "-"]}, {"name": "\uc885\ub85c\uc57d\uad6d", "lat": "37.55997311920281", "lng": "127.04134248464743", "url": "/info/%EC%A2%85%EB%A1%9C%EC%95%BD%EA%B5%AD-%EC%84%9C%EC%9A%B8%ED%8A%B9%EB%B3%84%EC%8B%9C-%EC%84%B1%EB%8F%99%EA%B5%AC-%ED%96%89%EB%8B%B9%EB%8F%99/", "workingTime": ["-", "09:00~19:30", "09:00~19:30", "09:00~19:30", "09:00~19:30", "09:00~19:30", "09:00~14:30", "-"]}, {"name": "\ud55c\uc591\uc57d\uad6d", "lat": "37.5595553639", "lng": "127.0404684869", "url": "/info/%ED%95%9C%EC%96%91%EC%95%BD%EA%B5%AD-%EC%84%9C%EC%9A%B8%ED%8A%B9%EB%B3%84%EC%8B%9C-%EC%84%B1%EB%8F%99%EA%B5%AC-%ED%96%89%EB%8B%B9%EB%8F%99/", "workingTime": ["2,4\uc9f8\uc8fc09:00~14:00", "09:00~21:00", "09:00~21:00", "09:00~21:00", "09:00~21:00", "09:00~21:00", "09:00~21:00", "-"]}, {"name": "\ud558\uc774\uc628\ub204\ub9ac\uc57d\uad6d", "lat": "37.55729194026884", "lng": "127.02854302438026", "url": "/info/%ED%95%98%EC%9D%B4%EC%98%A8%EB%88%84%EB%A6%AC%EC%95%BD%EA%B5%AD-%EC%84%9C%EC%9A%B8%ED%8A%B9%EB%B3%84%EC%8B%9C-%EC%84%B1%EB%8F%99%EA%B5%AC-%ED%96%89%EB%8B%B9%EB%8F%99/", "workingTime": ["-", "09:00~19:30", "09:00~19:30", "09:00~19:30", "09:00~19:30", "09:00~19:30", "09:00~16:30", "-"]}, {"name": "\ud3c9\uc548\uc57d\uad6d", "lat": "37.55826310508561", "lng": "127.03556948168611", "url": "/info/%ED%8F%89%EC%95%88%EC%95%BD%EA%B5%AD-%EC%84%9C%EC%9A%B8%ED%8A%B9%EB%B3%84%EC%8B%9C-%EC%84%B1%EB%8F%99%EA%B5%AC-%ED%96%89%EB%8B%B9%EB%8F%99/", "workingTime": ["-", "09:00~20:00", "09:00~20:00", "09:00~20:00", "09:00~20:00", "09:00~20:00", "09:00~19:00", "-"]}, {"name": "\uc9c4\uc57d\uad6d", "lat": "37.5617197281", "lng": "127.0342355468", "url": "/info/%EC%A7%84%EC%95%BD%EA%B5%AD-%EC%84%9C%EC%9A%B8%ED%8A%B9%EB%B3%84%EC%8B%9C-%EC%84%B1%EB%8F%99%EA%B5%AC-%ED%96%89%EB%8B%B9%EB%8F%99/", "workingTime": ["-", "08:30~20:00", "08:30~20:00", "08:30~20:00", "08:30~20:00", "08:30~20:00", "08:30~17:00", "-"]}, {"name": "\uc9c0\uc548\uc57d\uad6d", "lat": "37.56144094138514", "lng": "127.038396004898", "url": "/info/%EC%A7%80%EC%95%88%EC%95%BD%EA%B5%AD-%EC%84%9C%EC%9A%B8%ED%8A%B9%EB%B3%84%EC%8B%9C-%EC%84%B1%EB%8F%99%EA%B5%AC-%ED%96%89%EB%8B%B9%EB%8F%99/", "workingTime": ["-", "10:00~22:00", "10:00~22:00", "10:00~22:00", "10:00~22:00", "10:00~22:00", "-", "10:00~22:00"]}, {"name": "\uc0c1\ub3c4\uc57d\uad6d", "lat": "37.5604047093", "lng": "127.0326956855", "url": "/info/%EC%83%81%EB%8F%84%EC%95%BD%EA%B5%AD-%EC%84%9C%EC%9A%B8%ED%8A%B9%EB%B3%84%EC%8B%9C-%EC%84%B1%EB%8F%99%EA%B5%AC-%ED%96%89%EB%8B%B9%EB%8F%99/", "workingTime": ["-", "09:00~20:30", "09:00~20:30", "09:00~20:30", "09:00~20:30", "09:00~20:30", "09:00~19:00", "-"]}, {"name": "\uba85\ub3d9\uc628\ub204\ub9ac\uc57d\uad6d", "lat": "37.55488065515367", "lng": "127.03473973266199", "url": "/info/%EB%AA%85%EB%8F%99%EC%98%A8%EB%88%84%EB%A6%AC%EC%95%BD%EA%B5%AD-%EC%84%9C%EC%9A%B8%ED%8A%B9%EB%B3%84%EC%8B%9C-%EC%84%B1%EB%8F%99%EA%B5%AC-%ED%96%89%EB%8B%B9%EB%8F%99/", "workingTime": ["-", "09:00~19:30", "09:00~19:30", "09:00~19:30", "09:00~19:30", "09:00~19:30", "09:00~16:00", "-"]}, {"name": "\uba54\ub514\ud31c\ud55c\uc194\uc57d\uad6d", "lat": "37.556567489012295", "lng": "127.02874646314241", "url": "/info/%EB%A9%94%EB%94%94%ED%8C%9C%ED%95%9C%EC%86%94%EC%95%BD%EA%B5%AD-%EC%84%9C%EC%9A%B8%ED%8A%B9%EB%B3%84%EC%8B%9C-%EC%84%B1%EB%8F%99%EA%B5%AC-%ED%96%89%EB%8B%B9%EB%8F%99/", "workingTime": ["-", "09:00~20:00", "09:00~20:00", "09:00~20:00", "09:00~20:00", "09:00~20:00", "09:00~20:00", "-"]}, {"name": "\uba54\ub514\ud31c\ub300\ub9bc\uc57d\uad6d", "lat": "37.5572572388776", "lng": "127.02857500394613", "url": "/info/%EB%A9%94%EB%94%94%ED%8C%9C%EB%8C%80%EB%A6%BC%EC%95%BD%EA%B5%AD-%EC%84%9C%EC%9A%B8%ED%8A%B9%EB%B3%84%EC%8B%9C-%EC%84%B1%EB%8F%99%EA%B5%AC-%ED%96%89%EB%8B%B9%EB%8F%99/", "workingTime": ["-", "09:00~20:00", "09:00~20:00", "09:00~20:00", "09:00~20:00", "09:00~20:00", "13:00~17:00", "-"]}, {"name": "\ub300\ud559\uc57d\uad6d", "lat": "37.55996583141433", "lng": "127.04158240195673", "url": "/info/%EB%8C%80%ED%95%99%EC%95%BD%EA%B5%AD-%EC%84%9C%EC%9A%B8%ED%8A%B9%EB%B3%84%EC%8B%9C-%EC%84%B1%EB%8F%99%EA%B5%AC-%ED%96%89%EB%8B%B9%EB%8F%99/", "workingTime": ["-", "09:00~18:30", "09:00~18:30", "09:00~18:30", "09:00~18:30", "09:00~18:30", "09:00~12:30", "-"]}]