[{"name": "\ucf54\ub07c\ub9ac\uc57d\uad6d", "lat": "36.50527758342529", "lng": "127.2340746560324", "url": "/info/%EC%BD%94%EB%81%BC%EB%A6%AC%EC%95%BD%EA%B5%AD-%EC%84%B8%EC%A2%85%ED%8A%B9%EB%B3%84%EC%9E%90%EC%B9%98%EC%8B%9C-%EB%A7%88%EC%9D%8C%EB%A1%9C-%EA%B3%A0%EC%9A%B4%EB%8F%99/", "workingTime": ["-", "08:30~20:00", "09:00~20:00", "09:00~20:00", "09:00~20:00", "09:00~20:00", "09:00~16:00", "-"]}, {"name": "\uc9c0\uc74c\uc57d\uad6d", "lat": "36.51305851791917", "lng": "127.22924635373856", "url": "/info/%EC%A7%80%EC%9D%8C%EC%95%BD%EA%B5%AD-%EC%84%B8%EC%A2%85%ED%8A%B9%EB%B3%84%EC%9E%90%EC%B9%98%EC%8B%9C-%EB%A7%88%EC%9D%8C%EB%A1%9C-%EA%B3%A0%EC%9A%B4%EB%8F%99/", "workingTime": ["-", "09:00~20:00", "09:00~20:00", "09:00~20:00", "09:00~20:00", "09:00~20:00", "09:00~17:00", "-"]}, {"name": "\ub3c4\uc194\uc57d\uad6d", "lat": "36.505046257843595", "lng": "127.23439544019841", "url": "/info/%EB%8F%84%EC%86%94%EC%95%BD%EA%B5%AD-%EC%84%B8%EC%A2%85%ED%8A%B9%EB%B3%84%EC%9E%90%EC%B9%98%EC%8B%9C-%EB%A7%88%EC%9D%8C%EB%A1%9C-%EA%B3%A0%EC%9A%B4%EB%8F%99/", "workingTime": ["-", "09:00~18:00", "09:00~18:00", "09:00~18:00", "09:00~18:00", "09:00~18:00", "-", "-"]}, {"name": "\ucc38\uace0\uc6b4\uc57d\uad6d", "lat": "36.5050462578", "lng": "127.2343954402", "url": "/info/%EC%B0%B8%EA%B3%A0%EC%9A%B4%EC%95%BD%EA%B5%AD-%EC%84%B8%EC%A2%85%ED%8A%B9%EB%B3%84%EC%9E%90%EC%B9%98%EC%8B%9C-%EB%A7%88%EC%9D%8C%EB%A1%9C-%EA%B3%A0%EC%9A%B4%EB%8F%99/", "workingTime": ["1,2,3,4,5\uc9f8\uc8fc13:00~18:00", "08:30~20:00", "08:30~20:00", "08:30~20:00", "08:30~20:00", "08:30~20:00", "08:30~18:00", "09:00~18:00"]}, {"name": "\uace0\uc6b4\uae38\uc628\ub204\ub9ac\uc57d\uad6d", "lat": "36.5195854195", "lng": "127.2353413861", "url": "/info/%EA%B3%A0%EC%9A%B4%EA%B8%B8%EC%98%A8%EB%88%84%EB%A6%AC%EC%95%BD%EA%B5%AD-%EC%84%B8%EC%A2%85%ED%8A%B9%EB%B3%84%EC%9E%90%EC%B9%98%EC%8B%9C-%EB%A7%88%EC%9D%8C%EB%A1%9C-%EA%B3%A0%EC%9A%B4%EB%8F%99/", "workingTime": ["-", "08:00~19:00", "08:00~19:00", "08:00~19:00", "08:00~19:00", "08:00~19:00", "08:00~14:00", "-"]}]