[{"name": "\uba54\ub514\ud31c\uc138\uc885\uc57d\uad6d", "lat": "36.479873716608346", "lng": "127.26187503295134", "url": "/info/%EB%A9%94%EB%94%94%ED%8C%9C%EC%84%B8%EC%A2%85%EC%95%BD%EA%B5%AD-%EC%84%B8%EC%A2%85%ED%8A%B9%EB%B3%84%EC%9E%90%EC%B9%98%EC%8B%9C-%ED%95%9C%EB%88%84%EB%A6%AC%EB%8C%80%EB%A1%9C-%EB%82%98%EC%84%B1%EB%8F%99/", "workingTime": ["-", "09:00~19:30", "09:00~19:30", "09:00~19:30", "09:00~19:30", "09:00~19:30", "09:00~16:00", "09:00~13:00"]}, {"name": "\uc138\uc885\ub2e4\uc628\uc57d\uad6d", "lat": "36.4888053794371", "lng": "127.25637592667", "url": "/info/%EC%84%B8%EC%A2%85%EB%8B%A4%EC%98%A8%EC%95%BD%EA%B5%AD-%EC%84%B8%EC%A2%85%ED%8A%B9%EB%B3%84%EC%9E%90%EC%B9%98%EC%8B%9C-%ED%95%9C%EB%88%84%EB%A6%AC%EB%8C%80%EB%A1%9C-%EB%82%98%EC%84%B1%EB%8F%99/", "workingTime": ["-", "09:00~20:00", "09:00~20:00", "09:00~20:00", "09:00~20:00", "09:00~20:00", "09:00~14:00", "-"]}, {"name": "\ud558\ub298\uc57d\uad6d", "lat": "36.486799405604344", "lng": "127.25725396155626", "url": "/info/%ED%95%98%EB%8A%98%EC%95%BD%EA%B5%AD-%EC%84%B8%EC%A2%85%ED%8A%B9%EB%B3%84%EC%9E%90%EC%B9%98%EC%8B%9C-%ED%95%9C%EB%88%84%EB%A6%AC%EB%8C%80%EB%A1%9C-%EB%82%98%EC%84%B1%EB%8F%99/", "workingTime": ["-", "09:00~20:00", "09:00~20:00", "09:00~20:00", "09:00~21:00", "09:00~20:00", "09:00~15:30", "-"]}, {"name": "\ud55c\uc544\ub984\uc57d\uad6d", "lat": "36.480236270926774", "lng": "127.2618118994402", "url": "/info/%ED%95%9C%EC%95%84%EB%A6%84%EC%95%BD%EA%B5%AD-%EC%84%B8%EC%A2%85%ED%8A%B9%EB%B3%84%EC%9E%90%EC%B9%98%EC%8B%9C-%ED%95%9C%EB%88%84%EB%A6%AC%EB%8C%80%EB%A1%9C-%EB%82%98%EC%84%B1%EB%8F%99/", "workingTime": ["-", "09:00~20:30", "09:00~20:30", "09:00~20:30", "09:00~20:30", "09:00~20:30", "09:00~16:00", "09:00~16:00"]}, {"name": "\ub354\uc138\uc885\uc57d\uad6d", "lat": "36.4885276832", "lng": "127.2564829302", "url": "/info/%EB%8D%94%EC%84%B8%EC%A2%85%EC%95%BD%EA%B5%AD-%EC%84%B8%EC%A2%85%ED%8A%B9%EB%B3%84%EC%9E%90%EC%B9%98%EC%8B%9C-%ED%95%9C%EB%88%84%EB%A6%AC%EB%8C%80%EB%A1%9C-%EB%82%98%EC%84%B1%EB%8F%99/", "workingTime": ["1,2,3,4,5\uc9f8\uc8fc09:00~19:00", "09:00~21:00", "09:00~21:00", "09:00~21:00", "09:00~21:00", "09:00~21:00", "09:00~19:00", "09:00~19:00"]}, {"name": "\ub354\uc624\ucf00\uc774\uc57d\uad6d", "lat": "36.49403331019581", "lng": "127.25584928444464", "url": "/info/%EB%8D%94%EC%98%A4%EC%BC%80%EC%9D%B4%EC%95%BD%EA%B5%AD-%EC%84%B8%EC%A2%85%ED%8A%B9%EB%B3%84%EC%9E%90%EC%B9%98%EC%8B%9C-%ED%95%9C%EB%88%84%EB%A6%AC%EB%8C%80%EB%A1%9C-%EB%82%98%EC%84%B1%EB%8F%99/", "workingTime": ["-", "08:00~19:00", "08:00~19:00", "08:00~19:00", "08:00~19:00", "08:00~19:00", "09:00~13:00", "-"]}, {"name": "\uc0ac\ub791\uc628\ub204\ub9ac\uc57d\uad6d", "lat": "36.47932645865882", "lng": "127.26246944105384", "url": "/info/%EC%82%AC%EB%9E%91%EC%98%A8%EB%88%84%EB%A6%AC%EC%95%BD%EA%B5%AD-%EC%84%B8%EC%A2%85%ED%8A%B9%EB%B3%84%EC%9E%90%EC%B9%98%EC%8B%9C-%ED%95%9C%EB%88%84%EB%A6%AC%EB%8C%80%EB%A1%9C-%EB%82%98%EC%84%B1%EB%8F%99/", "workingTime": ["1,2,3,4,5\uc9f8\uc8fc09:00~13:00", "08:30~19:00", "08:30~19:00", "08:30~19:00", "08:30~19:00", "08:30~19:00", "08:30~14:00", "-"]}, {"name": "\uc2a4\ub9c8\uc77c\uc628\ub204\ub9ac\uc57d\uad6d", "lat": "36.4864276981", "lng": "127.2574536097", "url": "/info/%EC%8A%A4%EB%A7%88%EC%9D%BC%EC%98%A8%EB%88%84%EB%A6%AC%EC%95%BD%EA%B5%AD-%EC%84%B8%EC%A2%85%ED%8A%B9%EB%B3%84%EC%9E%90%EC%B9%98%EC%8B%9C-%ED%95%9C%EB%88%84%EB%A6%AC%EB%8C%80%EB%A1%9C-%EB%82%98%EC%84%B1%EB%8F%99/", "workingTime": ["-", "09:00~19:30", "09:00~19:30", "09:00~19:30", "09:00~19:30", "09:00~19:30", "09:00~14:30", "-"]}, {"name": "\uc544\ub984\ub2e4\uc6b4\uc57d\uad6d", "lat": "36.4878226052568", "lng": "127.256740076769", "url": "/info/%EC%95%84%EB%A6%84%EB%8B%A4%EC%9A%B4%EC%95%BD%EA%B5%AD-%EC%84%B8%EC%A2%85%ED%8A%B9%EB%B3%84%EC%9E%90%EC%B9%98%EC%8B%9C-%ED%95%9C%EB%88%84%EB%A6%AC%EB%8C%80%EB%A1%9C-%EB%82%98%EC%84%B1%EB%8F%99/", "workingTime": ["2,4\uc9f8\uc8fc13:00~18:00", "09:00~21:00", "09:00~21:00", "09:00~21:00", "09:00~21:00", "09:00~21:00", "09:00~18:00", "-"]}, {"name": "NK\ub4dc\ub9bc\uc57d\uad6d", "lat": "36.47962250753158", "lng": "127.26225618927695", "url": "/info/NK%EB%93%9C%EB%A6%BC%EC%95%BD%EA%B5%AD-%EC%84%B8%EC%A2%85%ED%8A%B9%EB%B3%84%EC%9E%90%EC%B9%98%EC%8B%9C-%ED%95%9C%EB%88%84%EB%A6%AC%EB%8C%80%EB%A1%9C-%EB%82%98%EC%84%B1%EB%8F%99/", "workingTime": ["-", "09:00~18:30", "09:00~18:30", "09:00~18:30", "09:00~18:30", "09:00~18:30", "09:00~13:00", "-"]}]