[{"name": "\ud574\uac15\uc57d\uad6d", "lat": "35.570833333333333", "lng": "129.341780555555545", "url": "/info/%ED%95%B4%EA%B0%95%EC%95%BD%EA%B5%AD-%EC%9A%B8%EC%82%B0%EA%B4%91%EC%97%AD%EC%8B%9C-%EC%A4%91%EA%B5%AC-%EB%82%A8%EC%99%B8%EB%8F%99/", "workingTime": ["-", "09:30~19:00", "09:30~19:00", "09:30~19:00", "14:00~19:00", "09:30~19:00", "09:30~14:00", "09:30~13:00"]}, {"name": "\ud5c8\ube0c\uc57d\uad6d", "lat": "35.56668605372165", "lng": "129.35095989052127", "url": "/info/%ED%97%88%EB%B8%8C%EC%95%BD%EA%B5%AD-%EC%9A%B8%EC%82%B0%EA%B4%91%EC%97%AD%EC%8B%9C-%EC%A4%91%EA%B5%AC-%EB%82%A8%EC%99%B8%EB%8F%99/", "workingTime": ["1,2,3,4,5\uc9f8\uc8fc09:00~13:00", "09:00~18:00", "09:00~18:00", "09:00~18:00", "09:00~18:00", "09:00~18:00", "09:00~16:00", "09:00~13:00"]}, {"name": "\ud6a8\uc131\uc57d\uad6d", "lat": "35.56824537954673", "lng": "129.35028640562678", "url": "/info/%ED%9A%A8%EC%84%B1%EC%95%BD%EA%B5%AD-%EC%9A%B8%EC%82%B0%EA%B4%91%EC%97%AD%EC%8B%9C-%EC%A4%91%EA%B5%AC-%EB%82%A8%EC%99%B8%EB%8F%99/", "workingTime": ["-", "09:00~20:00", "09:00~20:00", "09:00~20:00", "09:00~20:00", "09:00~20:00", "09:00~17:00", "-"]}, {"name": "\ud76c\ub9dd\uc57d\uad6d", "lat": "35.56895176375612", "lng": "129.34648881007178", "url": "/info/%ED%9D%AC%EB%A7%9D%EC%95%BD%EA%B5%AD-%EC%9A%B8%EC%82%B0%EA%B4%91%EC%97%AD%EC%8B%9C-%EC%A4%91%EA%B5%AC-%EB%82%A8%EC%99%B8%EB%8F%99/", "workingTime": ["-", "09:00~19:00", "09:00~19:00", "09:00~19:00", "09:00~19:00", "09:00~19:00", "09:00~16:00", "09:00~13:00"]}, {"name": "\uac00\uae4c\uc6b4\uc628\ub204\ub9ac\uc57d\uad6d", "lat": "35.56826942502029", "lng": "129.35061547308132", "url": "/info/%EA%B0%80%EA%B9%8C%EC%9A%B4%EC%98%A8%EB%88%84%EB%A6%AC%EC%95%BD%EA%B5%AD-%EC%9A%B8%EC%82%B0%EA%B4%91%EC%97%AD%EC%8B%9C-%EC%A4%91%EA%B5%AC-%EB%82%A8%EC%99%B8%EB%8F%99/", "workingTime": ["-", "09:00~18:00", "09:00~18:00", "09:00~18:00", "09:00~18:00", "09:00~18:00", "09:00~13:00", "-"]}, {"name": "\uae30\uc05c\uc6b0\ub9ac\uc57d\uad6d", "lat": "35.568231875500004", "lng": "129.3503232340033", "url": "/info/%EA%B8%B0%EC%81%9C%EC%9A%B0%EB%A6%AC%EC%95%BD%EA%B5%AD-%EC%9A%B8%EC%82%B0%EA%B4%91%EC%97%AD%EC%8B%9C-%EC%A4%91%EA%B5%AC-%EB%82%A8%EC%99%B8%EB%8F%99/", "workingTime": ["-", "09:00~18:00", "09:00~18:00", "09:00~18:00", "09:00~18:00", "09:00~18:00", "09:00~13:00", "-"]}, {"name": "\ubb34\uc9c0\uac1c\uc57d\uad6d", "lat": "35.568529181555775", "lng": "129.3449659208258", "url": "/info/%EB%AC%B4%EC%A7%80%EA%B0%9C%EC%95%BD%EA%B5%AD-%EC%9A%B8%EC%82%B0%EA%B4%91%EC%97%AD%EC%8B%9C-%EC%A4%91%EA%B5%AC-%EB%82%A8%EC%99%B8%EB%8F%99/", "workingTime": ["-", "09:00~21:00", "09:00~21:00", "09:00~21:00", "09:00~21:00", "09:00~21:00", "09:00~18:00", "-"]}, {"name": "\ubbf8\uc18c\uc57d\uad6d", "lat": "35.568192370804915", "lng": "129.3439371167628", "url": "/info/%EB%AF%B8%EC%86%8C%EC%95%BD%EA%B5%AD-%EC%9A%B8%EC%82%B0%EA%B4%91%EC%97%AD%EC%8B%9C-%EC%A4%91%EA%B5%AC-%EB%82%A8%EC%99%B8%EB%8F%99/", "workingTime": ["-", "09:00~19:00", "09:00~19:00", "09:00~19:00", "09:00~19:00", "09:00~19:00", "09:00~13:00", "-"]}, {"name": "\ubcf4\uac15\uc57d\uad6d", "lat": "35.570219444444447", "lng": "129.346283333333332", "url": "/info/%EB%B3%B4%EA%B0%95%EC%95%BD%EA%B5%AD-%EC%9A%B8%EC%82%B0%EA%B4%91%EC%97%AD%EC%8B%9C-%EC%A4%91%EA%B5%AC-%EB%82%A8%EC%99%B8%EB%8F%99/", "workingTime": ["-", "09:00~19:00", "09:00~19:00", "09:00~19:00", "09:00~19:00", "09:00~19:00", "09:00~13:00", "-"]}, {"name": "\ubcf4\uc131\uc57d\uad6d", "lat": "35.56857489594754", "lng": "129.3453951429049", "url": "/info/%EB%B3%B4%EC%84%B1%EC%95%BD%EA%B5%AD-%EC%9A%B8%EC%82%B0%EA%B4%91%EC%97%AD%EC%8B%9C-%EC%A4%91%EA%B5%AC-%EB%82%A8%EC%99%B8%EB%8F%99/", "workingTime": ["-", "09:00~20:00", "09:00~20:00", "09:00~20:00", "09:00~20:00", "09:00~20:00", "09:00~16:00", "-"]}, {"name": "\ube44\ud0c0\ubbfc\uc57d\uad6d", "lat": "35.568667780035064", "lng": "129.34562282291017", "url": "/info/%EB%B9%84%ED%83%80%EB%AF%BC%EC%95%BD%EA%B5%AD-%EC%9A%B8%EC%82%B0%EA%B4%91%EC%97%AD%EC%8B%9C-%EC%A4%91%EA%B5%AC-%EB%82%A8%EC%99%B8%EB%8F%99/", "workingTime": ["-", "09:00~20:00", "09:00~20:00", "09:00~20:00", "09:00~20:00", "09:00~20:00", "09:00~16:00", "-"]}, {"name": "\uc11c\uc9c4\uc57d\uad6d", "lat": "35.569272856233574", "lng": "129.34489799361455", "url": "/info/%EC%84%9C%EC%A7%84%EC%95%BD%EA%B5%AD-%EC%9A%B8%EC%82%B0%EA%B4%91%EC%97%AD%EC%8B%9C-%EC%A4%91%EA%B5%AC-%EB%82%A8%EC%99%B8%EB%8F%99/", "workingTime": ["-", "08:30~19:00", "08:30~19:00", "08:30~19:00", "08:30~19:00", "08:30~19:00", "08:30~13:00", "-"]}, {"name": "\uc2dc\uc6d0\uc57d\uad6d", "lat": "35.56841455013743", "lng": "129.34483215160026", "url": "/info/%EC%8B%9C%EC%9B%90%EC%95%BD%EA%B5%AD-%EC%9A%B8%EC%82%B0%EA%B4%91%EC%97%AD%EC%8B%9C-%EC%A4%91%EA%B5%AC-%EB%82%A8%EC%99%B8%EB%8F%99/", "workingTime": ["-", "09:00~20:00", "09:00~20:00", "09:00~20:00", "09:00~20:00", "09:00~20:00", "09:00~16:00", "-"]}, {"name": "\uc2e0\ubcd1\uc601\uc57d\uad6d", "lat": "35.569166666666668", "lng": "129.344116666666679", "url": "/info/%EC%8B%A0%EB%B3%91%EC%98%81%EC%95%BD%EA%B5%AD-%EC%9A%B8%EC%82%B0%EA%B4%91%EC%97%AD%EC%8B%9C-%EC%A4%91%EA%B5%AC-%EB%82%A8%EC%99%B8%EB%8F%99/", "workingTime": ["-", "09:00~20:00", "09:00~20:00", "09:00~20:00", "09:00~20:00", "09:00~20:00", "09:00~13:00", "-"]}, {"name": "\uc624\uac70\ub9ac\uc57d\uad6d", "lat": "35.56804584544696", "lng": "129.34377594052705", "url": "/info/%EC%98%A4%EA%B1%B0%EB%A6%AC%EC%95%BD%EA%B5%AD-%EC%9A%B8%EC%82%B0%EA%B4%91%EC%97%AD%EC%8B%9C-%EC%A4%91%EA%B5%AC-%EB%82%A8%EC%99%B8%EB%8F%99/", "workingTime": ["-", "08:30~18:00", "08:30~18:00", "08:30~18:00", "08:30~18:00", "08:30~18:00", "08:30~14:00", "09:00~13:00"]}]