[{"name": "e\uc870\uc740\uc57d\uad6d", "lat": "35.5526437984", "lng": "129.2684999922", "url": "/info/e%EC%A1%B0%EC%9D%80%EC%95%BD%EA%B5%AD-%EC%9A%B8%EC%82%B0%EA%B4%91%EC%97%AD%EC%8B%9C-%EB%82%A8%EA%B5%AC-%EB%AC%B4%EA%B1%B0%EB%8F%99/", "workingTime": ["2,4\uc9f8\uc8fc09:00~18:00", "09:00~19:00", "09:00~19:00", "09:00~19:00", "09:00~19:00", "09:00~19:00", "09:00~13:00", "-"]}, {"name": "\uae30\ub9b0\uc57d\uad6d", "lat": "35.552471195460484", "lng": "129.2661796370331", "url": "/info/%EA%B8%B0%EB%A6%B0%EC%95%BD%EA%B5%AD-%EC%9A%B8%EC%82%B0%EA%B4%91%EC%97%AD%EC%8B%9C-%EB%82%A8%EA%B5%AC-%EB%AC%B4%EA%B1%B0%EB%8F%99/", "workingTime": ["-", "08:30~20:00", "08:30~20:00", "08:30~20:00", "08:30~20:00", "08:30~20:00", "09:00~13:00", "09:00~13:00"]}, {"name": "\ub298\ud478\ub978\uc57d\uad6d", "lat": "35.55217691794869", "lng": "129.25515847776222", "url": "/info/%EB%8A%98%ED%91%B8%EB%A5%B8%EC%95%BD%EA%B5%AD-%EC%9A%B8%EC%82%B0%EA%B4%91%EC%97%AD%EC%8B%9C-%EB%82%A8%EA%B5%AC-%EB%AC%B4%EA%B1%B0%EB%8F%99/", "workingTime": ["-", "09:00~19:00", "09:00~19:00", "09:00~19:00", "09:00~19:00", "09:00~19:00", "09:00~16:00", "09:00~13:00"]}, {"name": "\uba54\ub514\ud31c\ud589\ubcf5\uc57d\uad6d", "lat": "35.54597268770275", "lng": "129.2615733572126", "url": "/info/%EB%A9%94%EB%94%94%ED%8C%9C%ED%96%89%EB%B3%B5%EC%95%BD%EA%B5%AD-%EC%9A%B8%EC%82%B0%EA%B4%91%EC%97%AD%EC%8B%9C-%EB%82%A8%EA%B5%AC-%EB%AC%B4%EA%B1%B0%EB%8F%99/", "workingTime": ["-", "08:30~20:00", "08:30~20:00", "08:30~19:30", "08:30~20:00", "08:30~20:00", "08:30~13:00", "-"]}, {"name": "\ubb34\uac70\uc6b0\ub9ac\ub4e4\uc57d\uad6d", "lat": "35.551020446927204", "lng": "129.26455105387885", "url": "/info/%EB%AC%B4%EA%B1%B0%EC%9A%B0%EB%A6%AC%EB%93%A4%EC%95%BD%EA%B5%AD-%EC%9A%B8%EC%82%B0%EA%B4%91%EC%97%AD%EC%8B%9C-%EB%82%A8%EA%B5%AC-%EB%AC%B4%EA%B1%B0%EB%8F%99/", "workingTime": ["-", "09:00~18:00", "09:00~18:00", "09:00~18:00", "09:00~18:00", "09:00~18:00", "-", "-"]}, {"name": "\ubb34\uac70\ud604\ub300\uc57d\uad6d", "lat": "35.54887525490599", "lng": "129.25501641285283", "url": "/info/%EB%AC%B4%EA%B1%B0%ED%98%84%EB%8C%80%EC%95%BD%EA%B5%AD-%EC%9A%B8%EC%82%B0%EA%B4%91%EC%97%AD%EC%8B%9C-%EB%82%A8%EA%B5%AC-%EB%AC%B4%EA%B1%B0%EB%8F%99/", "workingTime": ["-", "09:00~21:00", "09:00~21:00", "09:00~21:00", "09:00~21:00", "09:00~21:00", "09:00~21:00", "09:00~21:00"]}, {"name": "\ubb38\uc131\uc628\ub204\ub9ac\uc57d\uad6d", "lat": "35.547312040569665", "lng": "129.26184143157042", "url": "/info/%EB%AC%B8%EC%84%B1%EC%98%A8%EB%88%84%EB%A6%AC%EC%95%BD%EA%B5%AD-%EC%9A%B8%EC%82%B0%EA%B4%91%EC%97%AD%EC%8B%9C-%EB%82%A8%EA%B5%AC-%EB%AC%B4%EA%B1%B0%EB%8F%99/", "workingTime": ["-", "09:00~19:00", "09:00~19:00", "09:00~19:00", "09:00~19:00", "09:00~19:00", "09:00~14:00", "-"]}, {"name": "\ubcf4\ub839\uc57d\uad6d", "lat": "35.551438557602566", "lng": "129.26517472314484", "url": "/info/%EB%B3%B4%EB%A0%B9%EC%95%BD%EA%B5%AD-%EC%9A%B8%EC%82%B0%EA%B4%91%EC%97%AD%EC%8B%9C-%EB%82%A8%EA%B5%AC-%EB%AC%B4%EA%B1%B0%EB%8F%99/", "workingTime": ["-", "09:00~19:00", "09:00~19:00", "09:00~19:00", "09:00~19:00", "09:00~19:00", "09:00~15:00", "09:00~13:00"]}, {"name": "\ubb34\uc9c0\uac1c\uc57d\uad6d", "lat": "35.551521819074544", "lng": "129.26644840394468", "url": "/info/%EB%AC%B4%EC%A7%80%EA%B0%9C%EC%95%BD%EA%B5%AD-%EC%9A%B8%EC%82%B0%EA%B4%91%EC%97%AD%EC%8B%9C-%EB%82%A8%EA%B5%AC-%EB%AC%B4%EA%B1%B0%EB%8F%99/", "workingTime": ["-", "09:00~19:00", "09:00~19:00", "09:00~19:00", "09:00~19:00", "09:00~19:00", "09:00~13:00", "-"]}, {"name": "\uc628\ub204\ub9ac\ud070\uc0ac\ub791\uc57d\uad6d", "lat": "35.55230484967625", "lng": "129.26898552732396", "url": "/info/%EC%98%A8%EB%88%84%EB%A6%AC%ED%81%B0%EC%82%AC%EB%9E%91%EC%95%BD%EA%B5%AD-%EC%9A%B8%EC%82%B0%EA%B4%91%EC%97%AD%EC%8B%9C-%EB%82%A8%EA%B5%AC-%EB%AC%B4%EA%B1%B0%EB%8F%99/", "workingTime": ["-", "09:00~18:00", "09:00~18:00", "09:00~18:00", "14:00~20:00", "09:00~18:00", "-", "-"]}, {"name": "\uc0bc\ud638\uc57d\uad6d", "lat": "35.55269453182386", "lng": "129.26886750678372", "url": "/info/%EC%82%BC%ED%98%B8%EC%95%BD%EA%B5%AD-%EC%9A%B8%EC%82%B0%EA%B4%91%EC%97%AD%EC%8B%9C-%EB%82%A8%EA%B5%AC-%EB%AC%B4%EA%B1%B0%EB%8F%99/", "workingTime": ["1,3,5\uc9f8\uc8fc09:00~18:00", "09:00~19:00", "09:00~19:00", "09:00~19:00", "09:00~19:00", "09:00~19:00", "09:00~15:00", "-"]}, {"name": "\ub354\ub098\uc740\uc57d\uad6d", "lat": "35.55243516359488", "lng": "129.27058247730213", "url": "/info/%EB%8D%94%EB%82%98%EC%9D%80%EC%95%BD%EA%B5%AD-%EC%9A%B8%EC%82%B0%EA%B4%91%EC%97%AD%EC%8B%9C-%EB%82%A8%EA%B5%AC-%EB%AC%B4%EA%B1%B0%EB%8F%99/", "workingTime": ["-", "09:00~19:00", "09:00~19:00", "09:00~19:00", "09:00~19:00", "09:00~19:00", "09:00~15:30", "-"]}, {"name": "\uc560\ud50c\uc57d\uad6d", "lat": "35.55460025847678", "lng": "129.26489436101193", "url": "/info/%EC%95%A0%ED%94%8C%EC%95%BD%EA%B5%AD-%EC%9A%B8%EC%82%B0%EA%B4%91%EC%97%AD%EC%8B%9C-%EB%82%A8%EA%B5%AC-%EB%AC%B4%EA%B1%B0%EB%8F%99/", "workingTime": ["-", "09:00~19:30", "09:00~20:00", "09:00~19:30", "09:00~19:30", "09:00~20:00", "09:30~14:00", "-"]}, {"name": "\uc624\ub80c\uc9c0\uc57d\uad6d", "lat": "35.54677422346895", "lng": "129.26212406224954", "url": "/info/%EC%98%A4%EB%A0%8C%EC%A7%80%EC%95%BD%EA%B5%AD-%EC%9A%B8%EC%82%B0%EA%B4%91%EC%97%AD%EC%8B%9C-%EB%82%A8%EA%B5%AC-%EB%AC%B4%EA%B1%B0%EB%8F%99/", "workingTime": ["-", "09:00~18:30", "09:00~19:30", "09:00~18:30", "09:00~18:00", "09:00~19:30", "09:00~15:30", "-"]}, {"name": "\uad7f\ubaa8\ub2dd\uc57d\uad6d", "lat": "35.55122215394853", "lng": "129.26570785671973", "url": "/info/%EA%B5%BF%EB%AA%A8%EB%8B%9D%EC%95%BD%EA%B5%AD-%EC%9A%B8%EC%82%B0%EA%B4%91%EC%97%AD%EC%8B%9C-%EB%82%A8%EA%B5%AC-%EB%AC%B4%EA%B1%B0%EB%8F%99/", "workingTime": ["-", "09:00~20:00", "09:00~20:00", "09:00~20:00", "09:00~20:00", "09:00~20:00", "09:00~18:00", "09:00~13:00"]}, {"name": "\ub300\ud559\uc57d\uad6d", "lat": "35.54657713627199", "lng": "129.26201372693654", "url": "/info/%EB%8C%80%ED%95%99%EC%95%BD%EA%B5%AD-%EC%9A%B8%EC%82%B0%EA%B4%91%EC%97%AD%EC%8B%9C-%EB%82%A8%EA%B5%AC-%EB%AC%B4%EA%B1%B0%EB%8F%99/", "workingTime": ["-", "09:00~19:00", "09:00~19:00", "09:00~19:00", "09:00~19:00", "09:00~19:00", "09:00~13:00", "-"]}, {"name": "\ub450\ub808\uc57d\uad6d", "lat": "35.55536651035725", "lng": "129.26290788658383", "url": "/info/%EB%91%90%EB%A0%88%EC%95%BD%EA%B5%AD-%EC%9A%B8%EC%82%B0%EA%B4%91%EC%97%AD%EC%8B%9C-%EB%82%A8%EA%B5%AC-%EB%AC%B4%EA%B1%B0%EB%8F%99/", "workingTime": ["-", "09:00~18:30", "09:00~18:30", "09:00~18:30", "09:00~18:30", "09:00~18:30", "09:00~13:00", "-"]}, {"name": "\ub450\uc0b0\uc57d\uad6d", "lat": "35.55203793973575", "lng": "129.25824961320825", "url": "/info/%EB%91%90%EC%82%B0%EC%95%BD%EA%B5%AD-%EC%9A%B8%EC%82%B0%EA%B4%91%EC%97%AD%EC%8B%9C-%EB%82%A8%EA%B5%AC-%EB%AC%B4%EA%B1%B0%EB%8F%99/", "workingTime": ["-", "09:00~20:00", "09:00~20:00", "09:00~20:00", "09:00~20:00", "09:00~20:00", "09:00~20:00", "-"]}, {"name": "\uac74\uac15\ud55c\uc57d\uad6d", "lat": "35.552058826331795", "lng": "129.2663080014854", "url": "/info/%EA%B1%B4%EA%B0%95%ED%95%9C%EC%95%BD%EA%B5%AD-%EC%9A%B8%EC%82%B0%EA%B4%91%EC%97%AD%EC%8B%9C-%EB%82%A8%EA%B5%AC-%EB%AC%B4%EA%B1%B0%EB%8F%99/", "workingTime": ["-", "09:00~18:30", "09:00~18:30", "09:00~18:30", "09:00~18:30", "09:00~18:30", "09:00~15:30", "09:00~12:00"]}, {"name": "\uc0c8\ucc9c\ub144\uc57d\uad6d", "lat": "35.549608333333332", "lng": "129.273200000000003", "url": "/info/%EC%83%88%EC%B2%9C%EB%85%84%EC%95%BD%EA%B5%AD-%EC%9A%B8%EC%82%B0%EA%B4%91%EC%97%AD%EC%8B%9C-%EB%82%A8%EA%B5%AC-%EB%AC%B4%EA%B1%B0%EB%8F%99/", "workingTime": ["-", "09:00~19:00", "09:00~19:00", "09:00~19:00", "09:00~19:00", "09:00~19:00", "09:00~14:00", "09:00~12:00"]}, {"name": "\uc625\uc0b0\uc57d\uad6d", "lat": "35.54112391563749", "lng": "129.2618684090022", "url": "/info/%EC%98%A5%EC%82%B0%EC%95%BD%EA%B5%AD-%EC%9A%B8%EC%82%B0%EA%B4%91%EC%97%AD%EC%8B%9C-%EB%82%A8%EA%B5%AC-%EB%AC%B4%EA%B1%B0%EB%8F%99/", "workingTime": ["-", "08:00~20:00", "08:00~20:00", "08:00~20:00", "08:00~20:00", "08:00~20:00", "08:00~13:30", "-"]}, {"name": "\ud55c\ucc3d\uc57d\uad6d", "lat": "35.5397147147", "lng": "129.2543110876", "url": "/info/%ED%95%9C%EC%B0%BD%EC%95%BD%EA%B5%AD-%EC%9A%B8%EC%82%B0%EA%B4%91%EC%97%AD%EC%8B%9C-%EB%82%A8%EA%B5%AC-%EB%AC%B4%EA%B1%B0%EB%8F%99/", "workingTime": ["-", "09:00~19:30", "09:00~19:30", "09:00~19:30", "09:00~19:30", "09:00~19:30", "09:00~19:30", "-"]}, {"name": "\ud55c\uc0ac\ub791\uc57d\uad6d", "lat": "35.5518629188515", "lng": "129.25464578189886", "url": "/info/%ED%95%9C%EC%82%AC%EB%9E%91%EC%95%BD%EA%B5%AD-%EC%9A%B8%EC%82%B0%EA%B4%91%EC%97%AD%EC%8B%9C-%EB%82%A8%EA%B5%AC-%EB%AC%B4%EA%B1%B0%EB%8F%99/", "workingTime": ["-", "09:00~19:00", "09:00~19:00", "09:00~19:00", "09:00~19:00", "09:00~19:00", "09:00~16:00", "-"]}, {"name": "\uc6b8\ub300\uc815\ubb38\uc57d\uad6d", "lat": "35.543066313679645", "lng": "129.2604906581672", "url": "/info/%EC%9A%B8%EB%8C%80%EC%A0%95%EB%AC%B8%EC%95%BD%EA%B5%AD-%EC%9A%B8%EC%82%B0%EA%B4%91%EC%97%AD%EC%8B%9C-%EB%82%A8%EA%B5%AC-%EB%AC%B4%EA%B1%B0%EB%8F%99/", "workingTime": ["1,2,3,4,5\uc9f8\uc8fc12:00~22:00", "10:00~22:00", "10:00~22:00", "10:00~22:00", "10:00~22:00", "10:00~22:00", "10:00~22:00", "12:00~22:00"]}]