[{"name": "\ud574\ub9d1\uc740\uc57d\uad6d", "lat": "35.48664867908377", "lng": "129.4259293570895", "url": "/info/%ED%95%B4%EB%A7%91%EC%9D%80%EC%95%BD%EA%B5%AD-%EC%9A%B8%EC%82%B0%EA%B4%91%EC%97%AD%EC%8B%9C-%EB%8F%99%EA%B5%AC-%EB%B0%A9%EC%96%B4%EB%8F%99/", "workingTime": ["-", "09:00~19:30", "09:00~19:30", "09:00~19:30", "09:00~19:30", "09:00~19:30", "09:00~15:00", "-"]}, {"name": "\uc0c8\ubaa8\ubc94\uc57d\uad6d", "lat": "35.486500703445046", "lng": "129.42594764441287", "url": "/info/%EC%83%88%EB%AA%A8%EB%B2%94%EC%95%BD%EA%B5%AD-%EC%9A%B8%EC%82%B0%EA%B4%91%EC%97%AD%EC%8B%9C-%EB%8F%99%EA%B5%AC-%EB%B0%A9%EC%96%B4%EB%8F%99/", "workingTime": ["1,2,3,4\uc9f8\uc8fc13:00~19:00", "09:00~21:00", "09:00~21:00", "09:00~21:00", "09:00~21:00", "09:00~21:00", "09:00~19:00", "09:00~20:00"]}, {"name": "\uc21c\uc815\uc57d\uad6d", "lat": "35.482897829270826", "lng": "129.41690735109296", "url": "/info/%EC%88%9C%EC%A0%95%EC%95%BD%EA%B5%AD-%EC%9A%B8%EC%82%B0%EA%B4%91%EC%97%AD%EC%8B%9C-%EB%8F%99%EA%B5%AC-%EB%B0%A9%EC%96%B4%EB%8F%99/", "workingTime": ["-", "09:00~19:00", "09:00~19:00", "09:00~13:00", "09:00~19:00", "09:00~19:00", "09:00~13:00", "-"]}, {"name": "\uc81c\uc77c\uc57d\uad6d", "lat": "35.485341666666663", "lng": "129.422494444444453", "url": "/info/%EC%A0%9C%EC%9D%BC%EC%95%BD%EA%B5%AD-%EC%9A%B8%EC%82%B0%EA%B4%91%EC%97%AD%EC%8B%9C-%EB%8F%99%EA%B5%AC-%EB%B0%A9%EC%96%B4%EB%8F%99/", "workingTime": ["-", "09:00~20:00", "09:00~20:00", "09:00~20:00", "09:00~20:00", "09:00~20:00", "09:00~20:00", "-"]}, {"name": "\ucd08\ub871\uc57d\uad6d", "lat": "35.483427777777777", "lng": "129.417597222222213", "url": "/info/%EC%B4%88%EB%A1%B1%EC%95%BD%EA%B5%AD-%EC%9A%B8%EC%82%B0%EA%B4%91%EC%97%AD%EC%8B%9C-%EB%8F%99%EA%B5%AC-%EB%B0%A9%EC%96%B4%EB%8F%99/", "workingTime": ["-", "09:00~19:00", "09:00~19:00", "09:00~19:00", "09:00~19:00", "09:00~19:00", "09:00~13:00", "09:00~13:00"]}, {"name": "\ub4dc\ub9bc\uc57d\uad6d", "lat": "35.48282817138667", "lng": "129.41678628939823", "url": "/info/%EB%93%9C%EB%A6%BC%EC%95%BD%EA%B5%AD-%EC%9A%B8%EC%82%B0%EA%B4%91%EC%97%AD%EC%8B%9C-%EB%8F%99%EA%B5%AC-%EB%B0%A9%EC%96%B4%EB%8F%99/", "workingTime": ["-", "09:00~20:00", "09:00~20:00", "09:00~20:00", "09:00~20:00", "09:00~20:00", "09:00~18:00", "-"]}, {"name": "\uba54\ub514\uce7c\uc57d\uad6d", "lat": "35.48717083211901", "lng": "129.42020753027688", "url": "/info/%EB%A9%94%EB%94%94%EC%B9%BC%EC%95%BD%EA%B5%AD-%EC%9A%B8%EC%82%B0%EA%B4%91%EC%97%AD%EC%8B%9C-%EB%8F%99%EA%B5%AC-%EB%B0%A9%EC%96%B4%EB%8F%99/", "workingTime": ["-", "09:00~18:30", "09:00~18:30", "09:00~18:30", "14:00~18:30", "09:00~18:30", "09:00~13:00", "-"]}, {"name": "\uaf43\ubc14\uc704\uc57d\uad6d", "lat": "35.48487081646192", "lng": "129.4132158493522", "url": "/info/%EA%BD%83%EB%B0%94%EC%9C%84%EC%95%BD%EA%B5%AD-%EC%9A%B8%EC%82%B0%EA%B4%91%EC%97%AD%EC%8B%9C-%EB%8F%99%EA%B5%AC-%EB%B0%A9%EC%96%B4%EB%8F%99/", "workingTime": ["-", "09:00~19:00", "09:00~19:00", "09:00~19:00", "09:00~19:00", "09:00~19:00", "09:00~13:00", "-"]}]