[{"name": "\uac74\uac15\ub4dc\ub9bc\uc57d\uad6d", "lat": "35.43340851099651", "lng": "129.30969706025215", "url": "/info/%EA%B1%B4%EA%B0%95%EB%93%9C%EB%A6%BC%EC%95%BD%EA%B5%AD-%EC%9A%B8%EC%82%B0%EA%B4%91%EC%97%AD%EC%8B%9C-%EC%9A%B8%EC%A3%BC%EA%B5%B0-%EC%98%A8%EC%82%B0%EC%9D%8D/", "workingTime": ["-", "09:00~18:30", "09:00~18:30", "09:00~18:30", "14:00~18:30", "09:00~18:30", "09:00~13:00", "-"]}, {"name": "\ub355\uc2e0\uc57d\uad6d", "lat": "35.43351647050712", "lng": "129.31028904712113", "url": "/info/%EB%8D%95%EC%8B%A0%EC%95%BD%EA%B5%AD-%EC%9A%B8%EC%82%B0%EA%B4%91%EC%97%AD%EC%8B%9C-%EC%9A%B8%EC%A3%BC%EA%B5%B0-%EC%98%A8%EC%82%B0%EC%9D%8D/", "workingTime": ["-", "09:00~20:15", "09:00~20:15", "09:00~20:15", "09:00~20:15", "09:00~20:15", "09:00~18:00", "-"]}, {"name": "\ub355\uc2e0\uc911\uc559\uc57d\uad6d", "lat": "35.43223619713838", "lng": "129.31051671405768", "url": "/info/%EB%8D%95%EC%8B%A0%EC%A4%91%EC%95%99%EC%95%BD%EA%B5%AD-%EC%9A%B8%EC%82%B0%EA%B4%91%EC%97%AD%EC%8B%9C-%EC%9A%B8%EC%A3%BC%EA%B5%B0-%EC%98%A8%EC%82%B0%EC%9D%8D/", "workingTime": ["-", "09:00~21:00", "09:00~21:00", "09:00~21:00", "09:00~21:00", "09:00~21:00", "09:00~15:00", "09:00~13:00"]}, {"name": "\ubd80\uc0b0\uc57d\uad6d", "lat": "35.43342404192783", "lng": "129.30965665307758", "url": "/info/%EB%B6%80%EC%82%B0%EC%95%BD%EA%B5%AD-%EC%9A%B8%EC%82%B0%EA%B4%91%EC%97%AD%EC%8B%9C-%EC%9A%B8%EC%A3%BC%EA%B5%B0-%EC%98%A8%EC%82%B0%EC%9D%8D/", "workingTime": ["-", "08:50~19:00", "08:50~19:00", "08:50~19:00", "08:50~19:00", "08:50~19:00", "08:50~13:30", "-"]}, {"name": "\uc11c\uc6b8\uc57d\uad6d", "lat": "35.4330038588", "lng": "129.3113479623", "url": "/info/%EC%84%9C%EC%9A%B8%EC%95%BD%EA%B5%AD-%EC%9A%B8%EC%82%B0%EA%B4%91%EC%97%AD%EC%8B%9C-%EC%9A%B8%EC%A3%BC%EA%B5%B0-%EC%98%A8%EC%82%B0%EC%9D%8D/", "workingTime": ["-", "09:00~19:00", "09:00~19:00", "09:00~19:00", "09:00~19:00", "09:00~19:00", "09:00~14:00", "09:00~17:00"]}, {"name": "\uc624\ub80c\uc9c0\uc57d\uad6d", "lat": "35.44044086849296", "lng": "129.30780904214572", "url": "/info/%EC%98%A4%EB%A0%8C%EC%A7%80%EC%95%BD%EA%B5%AD-%EC%9A%B8%EC%82%B0%EA%B4%91%EC%97%AD%EC%8B%9C-%EC%9A%B8%EC%A3%BC%EA%B5%B0-%EC%98%A8%EC%82%B0%EC%9D%8D/", "workingTime": ["-", "09:00~19:00", "09:00~19:00", "09:00~19:00", "09:00~19:00", "09:00~19:00", "09:00~13:00", "-"]}, {"name": "\uc628\uc815\uc57d\uad6d", "lat": "35.43423972741138", "lng": "129.31193379137676", "url": "/info/%EC%98%A8%EC%A0%95%EC%95%BD%EA%B5%AD-%EC%9A%B8%EC%82%B0%EA%B4%91%EC%97%AD%EC%8B%9C-%EC%9A%B8%EC%A3%BC%EA%B5%B0-%EC%98%A8%EC%82%B0%EC%9D%8D/", "workingTime": ["-", "09:00~19:30", "09:00~19:30", "09:00~19:30", "09:00~19:30", "09:00~19:30", "09:00~15:00", "09:00~14:00"]}, {"name": "\uc7ac\uc5f0\uc57d\uad6d", "lat": "35.4342690408461", "lng": "129.304936756943", "url": "/info/%EC%9E%AC%EC%97%B0%EC%95%BD%EA%B5%AD-%EC%9A%B8%EC%82%B0%EA%B4%91%EC%97%AD%EC%8B%9C-%EC%9A%B8%EC%A3%BC%EA%B5%B0-%EC%98%A8%EC%82%B0%EC%9D%8D/", "workingTime": ["-", "09:00~18:30", "09:00~18:30", "09:00~18:30", "09:00~13:00", "09:00~18:30", "09:00~13:00", "-"]}, {"name": "\ucc9c\uc9c0\uc778\uc57d\uad6d", "lat": "35.43355281215834", "lng": "129.31046183645267", "url": "/info/%EC%B2%9C%EC%A7%80%EC%9D%B8%EC%95%BD%EA%B5%AD-%EC%9A%B8%EC%82%B0%EA%B4%91%EC%97%AD%EC%8B%9C-%EC%9A%B8%EC%A3%BC%EA%B5%B0-%EC%98%A8%EC%82%B0%EC%9D%8D/", "workingTime": ["1,2,3,4,5\uc9f8\uc8fc09:00~19:00", "09:00~21:00", "09:00~21:00", "09:00~21:00", "09:00~21:00", "09:00~21:00", "09:00~19:00", "09:00~19:00"]}, {"name": "\ud070\uc0ac\ub791\uc57d\uad6d", "lat": "35.433574999999998", "lng": "129.310094444444445", "url": "/info/%ED%81%B0%EC%82%AC%EB%9E%91%EC%95%BD%EA%B5%AD-%EC%9A%B8%EC%82%B0%EA%B4%91%EC%97%AD%EC%8B%9C-%EC%9A%B8%EC%A3%BC%EA%B5%B0-%EC%98%A8%EC%82%B0%EC%9D%8D/", "workingTime": ["-", "09:00~18:30", "09:00~18:30", "09:00~18:30", "09:00~18:30", "09:00~18:30", "09:00~13:00", "-"]}]