[{"name": "\ub0a8\uc77c\uc57d\uad6d", "lat": "35.41698041096345", "lng": "129.28125036108167", "url": "/info/%EB%82%A8%EC%9D%BC%EC%95%BD%EA%B5%AD-%EC%9A%B8%EC%82%B0%EA%B4%91%EC%97%AD%EC%8B%9C-%EC%9A%B8%EC%A3%BC%EA%B5%B0-%EC%98%A8%EC%96%91%EC%9D%8D/", "workingTime": ["-", "08:00~20:00", "08:00~20:00", "08:00~20:00", "08:00~20:00", "08:00~20:00", "08:00~19:00", "-"]}, {"name": "\ub0a8\ucc3d\uc911\uc559\uc57d\uad6d", "lat": "35.41587299540404", "lng": "129.28034296597613", "url": "/info/%EB%82%A8%EC%B0%BD%EC%A4%91%EC%95%99%EC%95%BD%EA%B5%AD-%EC%9A%B8%EC%82%B0%EA%B4%91%EC%97%AD%EC%8B%9C-%EC%9A%B8%EC%A3%BC%EA%B5%B0-%EC%98%A8%EC%96%91%EC%9D%8D/", "workingTime": ["-", "09:00~18:00", "09:00~18:00", "09:00~18:00", "09:00~15:00", "09:00~18:00", "09:00~12:30", "-"]}, {"name": "\ub2e4\ub9ac\uac78\uc911\uc559\uc57d\uad6d", "lat": "35.41107264696493", "lng": "129.28011970503226", "url": "/info/%EB%8B%A4%EB%A6%AC%EA%B1%B8%EC%A4%91%EC%95%99%EC%95%BD%EA%B5%AD-%EC%9A%B8%EC%82%B0%EA%B4%91%EC%97%AD%EC%8B%9C-%EC%9A%B8%EC%A3%BC%EA%B5%B0-%EC%98%A8%EC%96%91%EC%9D%8D/", "workingTime": ["-", "09:00~18:30", "09:00~18:30", "09:00~18:30", "09:00~18:30", "09:00~18:30", "09:00~14:00", "-"]}, {"name": "\ub77c\ub77c\uc57d\uad6d", "lat": "35.4070989618", "lng": "129.2900130048", "url": "/info/%EB%9D%BC%EB%9D%BC%EC%95%BD%EA%B5%AD-%EC%9A%B8%EC%82%B0%EA%B4%91%EC%97%AD%EC%8B%9C-%EC%9A%B8%EC%A3%BC%EA%B5%B0-%EC%98%A8%EC%96%91%EC%9D%8D/", "workingTime": ["-", "09:00~18:00", "09:00~18:00", "09:00~18:00", "09:00~18:00", "09:00~18:00", "-", "-"]}, {"name": "\ubbf8\ub798\ud31c\ud558\ub098\ub85c\uc57d\uad6d", "lat": "35.413430555555557", "lng": "129.281869444444453", "url": "/info/%EB%AF%B8%EB%9E%98%ED%8C%9C%ED%95%98%EB%82%98%EB%A1%9C%EC%95%BD%EA%B5%AD-%EC%9A%B8%EC%82%B0%EA%B4%91%EC%97%AD%EC%8B%9C-%EC%9A%B8%EC%A3%BC%EA%B5%B0-%EC%98%A8%EC%96%91%EC%9D%8D/", "workingTime": ["-", "09:00~21:00", "09:00~21:00", "09:00~21:00", "09:00~21:00", "09:00~21:00", "09:00~21:00", "09:00~21:00"]}, {"name": "\ubbf8\uc18c\uc57d\uad6d", "lat": "35.4091422269074", "lng": "129.282573314545", "url": "/info/%EB%AF%B8%EC%86%8C%EC%95%BD%EA%B5%AD-%EC%9A%B8%EC%82%B0%EA%B4%91%EC%97%AD%EC%8B%9C-%EC%9A%B8%EC%A3%BC%EA%B5%B0-%EC%98%A8%EC%96%91%EC%9D%8D/", "workingTime": ["-", "09:00~19:30", "09:00~19:30", "09:00~19:30", "09:00~19:30", "09:00~20:00", "09:00~13:30", "-"]}, {"name": "\uc0c8\ub9c8\uc744\uc57d\uad6d", "lat": "35.4103808988001", "lng": "129.282533083051", "url": "/info/%EC%83%88%EB%A7%88%EC%9D%84%EC%95%BD%EA%B5%AD-%EC%9A%B8%EC%82%B0%EA%B4%91%EC%97%AD%EC%8B%9C-%EC%9A%B8%EC%A3%BC%EA%B5%B0-%EC%98%A8%EC%96%91%EC%9D%8D/", "workingTime": ["-", "09:00~19:30", "09:00~19:30", "09:00~19:30", "09:00~19:30", "09:00~19:30", "09:00~15:00", "-"]}, {"name": "\uc628\uc591\uc628\ub204\ub9ac\uc57d\uad6d", "lat": "35.4169634626", "lng": "129.2809049847", "url": "/info/%EC%98%A8%EC%96%91%EC%98%A8%EB%88%84%EB%A6%AC%EC%95%BD%EA%B5%AD-%EC%9A%B8%EC%82%B0%EA%B4%91%EC%97%AD%EC%8B%9C-%EC%9A%B8%EC%A3%BC%EA%B5%B0-%EC%98%A8%EC%96%91%EC%9D%8D/", "workingTime": ["-", "09:00~20:00", "09:00~20:00", "09:00~20:00", "09:00~20:00", "09:00~20:00", "09:00~20:00", "-"]}, {"name": "\uc6b0\ub9ac\uc57d\uad6d", "lat": "35.408569444444446", "lng": "129.282236111111104", "url": "/info/%EC%9A%B0%EB%A6%AC%EC%95%BD%EA%B5%AD-%EC%9A%B8%EC%82%B0%EA%B4%91%EC%97%AD%EC%8B%9C-%EC%9A%B8%EC%A3%BC%EA%B5%B0-%EC%98%A8%EC%96%91%EC%9D%8D/", "workingTime": ["-", "09:00~18:30", "09:00~18:30", "09:00~18:30", "09:00~18:30", "09:00~18:30", "09:00~12:00", "-"]}, {"name": "\uc8fc\uc57d\uad6d", "lat": "35.4102949883", "lng": "129.2834070102", "url": "/info/%EC%A3%BC%EC%95%BD%EA%B5%AD-%EC%9A%B8%EC%82%B0%EA%B4%91%EC%97%AD%EC%8B%9C-%EC%9A%B8%EC%A3%BC%EA%B5%B0-%EC%98%A8%EC%96%91%EC%9D%8D/", "workingTime": ["-", "09:00~19:30", "09:00~19:30", "09:00~19:30", "09:00~19:30", "09:00~19:30", "09:00~14:00", "-"]}, {"name": "\ud0dc\uc120\uc57d\uad6d", "lat": "35.4123654592255", "lng": "129.28005307035", "url": "/info/%ED%83%9C%EC%84%A0%EC%95%BD%EA%B5%AD-%EC%9A%B8%EC%82%B0%EA%B4%91%EC%97%AD%EC%8B%9C-%EC%9A%B8%EC%A3%BC%EA%B5%B0-%EC%98%A8%EC%96%91%EC%9D%8D/", "workingTime": ["-", "09:00~18:30", "09:00~18:30", "09:00~13:30", "09:00~18:30", "09:00~18:30", "09:00~13:30", "-"]}, {"name": "\ud2bc\ud2bc\uc57d\uad6d", "lat": "35.409969444444442", "lng": "129.282783333333327", "url": "/info/%ED%8A%BC%ED%8A%BC%EC%95%BD%EA%B5%AD-%EC%9A%B8%EC%82%B0%EA%B4%91%EC%97%AD%EC%8B%9C-%EC%9A%B8%EC%A3%BC%EA%B5%B0-%EC%98%A8%EC%96%91%EC%9D%8D/", "workingTime": ["-", "09:00~19:00", "09:00~19:00", "09:00~19:00", "09:00~19:00", "09:00~19:00", "09:00~13:00", "-"]}]