[{"name": "\ud558\ub098\ub85c\uc57d\uad6d", "lat": "35.54126630026294", "lng": "129.32723121820456", "url": "/info/%ED%95%98%EB%82%98%EB%A1%9C%EC%95%BD%EA%B5%AD-%EC%9A%B8%EC%82%B0%EA%B4%91%EC%97%AD%EC%8B%9C-%EB%82%A8%EA%B5%AC-%EB%8B%AC%EB%8F%99/", "workingTime": ["-", "09:00~18:30", "09:00~18:30", "09:00~18:30", "09:00~18:30", "09:00~18:30", "09:00~13:00", "-"]}, {"name": "\ub9c8\uc74c\ud3b8\ud55c\uc57d\uad6d", "lat": "35.53408465392243", "lng": "129.34065627827965", "url": "/info/%EB%A7%88%EC%9D%8C%ED%8E%B8%ED%95%9C%EC%95%BD%EA%B5%AD-%EC%9A%B8%EC%82%B0%EA%B4%91%EC%97%AD%EC%8B%9C-%EB%82%A8%EA%B5%AC-%EB%8B%AC%EB%8F%99/", "workingTime": ["-", "09:00~19:00", "09:00~19:00", "09:00~19:00", "09:00~19:00", "09:00~19:00", "09:00~13:30", "-"]}, {"name": "\ubd80\uac15\uc57d\uad6d", "lat": "35.539160465363565", "lng": "129.33510774847474", "url": "/info/%EB%B6%80%EA%B0%95%EC%95%BD%EA%B5%AD-%EC%9A%B8%EC%82%B0%EA%B4%91%EC%97%AD%EC%8B%9C-%EB%82%A8%EA%B5%AC-%EB%8B%AC%EB%8F%99/", "workingTime": ["-", "09:00~18:30", "09:00~18:30", "09:00~18:30", "09:00~18:30", "09:00~18:30", "09:00~14:30", "-"]}, {"name": "\uc0bc\uc0b0\ud604\ub300\uc57d\uad6d", "lat": "35.53972558528773", "lng": "129.33514618529293", "url": "/info/%EC%82%BC%EC%82%B0%ED%98%84%EB%8C%80%EC%95%BD%EA%B5%AD-%EC%9A%B8%EC%82%B0%EA%B4%91%EC%97%AD%EC%8B%9C-%EB%82%A8%EA%B5%AC-%EB%8B%AC%EB%8F%99/", "workingTime": ["-", "09:00~19:30", "09:00~20:30", "09:00~19:30", "09:00~20:30", "09:00~19:30", "09:00~15:00", "-"]}, {"name": "\uc2e0\ud604\ub300\uc57d\uad6d", "lat": "35.53477830701278", "lng": "129.3220169714623", "url": "/info/%EC%8B%A0%ED%98%84%EB%8C%80%EC%95%BD%EA%B5%AD-%EC%9A%B8%EC%82%B0%EA%B4%91%EC%97%AD%EC%8B%9C-%EB%82%A8%EA%B5%AC-%EB%8B%AC%EB%8F%99/", "workingTime": ["-", "09:00~19:00", "09:00~19:00", "09:00~19:00", "09:00~19:00", "09:00~19:00", "09:00~14:00", "-"]}, {"name": "\uc548\uc57d\uc0ac\uc758\uc548\uc57d\uad6d", "lat": "35.5357772005", "lng": "129.3143071003", "url": "/info/%EC%95%88%EC%95%BD%EC%82%AC%EC%9D%98%EC%95%88%EC%95%BD%EA%B5%AD-%EC%9A%B8%EC%82%B0%EA%B4%91%EC%97%AD%EC%8B%9C-%EB%82%A8%EA%B5%AC-%EB%8B%AC%EB%8F%99/", "workingTime": ["-", "09:30~20:00", "09:30~20:00", "09:30~20:00", "09:30~20:00", "09:30~20:00", "09:00~14:00", "-"]}, {"name": "\uc62c\ub9ac\ube0c\uc57d\uad6d", "lat": "35.53648125575557", "lng": "129.3222060180767", "url": "/info/%EC%98%AC%EB%A6%AC%EB%B8%8C%EC%95%BD%EA%B5%AD-%EC%9A%B8%EC%82%B0%EA%B4%91%EC%97%AD%EC%8B%9C-%EB%82%A8%EA%B5%AC-%EB%8B%AC%EB%8F%99/", "workingTime": ["-", "09:00~18:30", "09:00~18:30", "09:00~13:30", "09:00~18:30", "09:00~18:30", "09:00~13:30", "-"]}, {"name": "\uc635\ud2f0\ub9c8 \uc720\uc131\uc57d\uad6d", "lat": "35.5424448412595", "lng": "129.330097932183", "url": "/info/%EC%98%B5%ED%8B%B0%EB%A7%88+%EC%9C%A0%EC%84%B1%EC%95%BD%EA%B5%AD-%EC%9A%B8%EC%82%B0%EA%B4%91%EC%97%AD%EC%8B%9C-%EB%82%A8%EA%B5%AC-%EB%8B%AC%EB%8F%99/", "workingTime": ["-", "09:00~19:00", "09:00~19:00", "09:00~19:00", "09:00~19:00", "09:00~19:00", "09:00~13:30", "-"]}, {"name": "\uc6b8\uc0b0\uc6b0\ub9ac\uc548\uc57d\uad6d", "lat": "35.534636638281704", "lng": "129.31973210451014", "url": "/info/%EC%9A%B8%EC%82%B0%EC%9A%B0%EB%A6%AC%EC%95%88%EC%95%BD%EA%B5%AD-%EC%9A%B8%EC%82%B0%EA%B4%91%EC%97%AD%EC%8B%9C-%EB%82%A8%EA%B5%AC-%EB%8B%AC%EB%8F%99/", "workingTime": ["-", "09:00~19:00", "09:00~19:00", "09:00~19:00", "09:00~19:00", "09:00~19:00", "09:00~14:00", "-"]}, {"name": "\uc9c4\uc57d\uad6d", "lat": "35.539093236", "lng": "129.3341136106", "url": "/info/%EC%A7%84%EC%95%BD%EA%B5%AD-%EC%9A%B8%EC%82%B0%EA%B4%91%EC%97%AD%EC%8B%9C-%EB%82%A8%EA%B5%AC-%EB%8B%AC%EB%8F%99/", "workingTime": ["-", "08:00~20:00", "08:00~20:00", "08:00~20:00", "08:00~20:00", "08:00~20:00", "08:00~16:00", "-"]}, {"name": "\ud3b8\uc548\ud55c\uc57d\uad6d", "lat": "35.5351784147181", "lng": "129.31995606359572", "url": "/info/%ED%8E%B8%EC%95%88%ED%95%9C%EC%95%BD%EA%B5%AD-%EC%9A%B8%EC%82%B0%EA%B4%91%EC%97%AD%EC%8B%9C-%EB%82%A8%EA%B5%AC-%EB%8B%AC%EB%8F%99/", "workingTime": ["-", "09:00~18:30", "09:00~18:30", "09:00~18:30", "09:00~18:30", "09:00~18:30", "09:00~14:00", "-"]}, {"name": "\ud61c\ubbfc\uc57d\uad6d", "lat": "35.5244581616", "lng": "129.323575614", "url": "/info/%ED%98%9C%EB%AF%BC%EC%95%BD%EA%B5%AD-%EC%9A%B8%EC%82%B0%EA%B4%91%EC%97%AD%EC%8B%9C-%EB%82%A8%EA%B5%AC-%EB%8B%AC%EB%8F%99/", "workingTime": ["-", "09:00~18:00", "09:00~18:00", "09:00~18:00", "09:00~18:00", "09:00~18:00", "09:00~13:00", "-"]}, {"name": "\uac00\ub78c\uc57d\uad6d", "lat": "35.537038920825616", "lng": "129.32468930224465", "url": "/info/%EA%B0%80%EB%9E%8C%EC%95%BD%EA%B5%AD-%EC%9A%B8%EC%82%B0%EA%B4%91%EC%97%AD%EC%8B%9C-%EB%82%A8%EA%B5%AC-%EB%8B%AC%EB%8F%99/", "workingTime": ["1,2,3,4,5\uc9f8\uc8fc09:00~26:00", "09:00~26:00", "09:00~26:00", "09:00~26:00", "09:00~26:00", "09:00~26:00", "09:00~26:00", "09:00~26:00"]}, {"name": "\ud558\uc9c4\uc57d\uad6d", "lat": "35.5372053148", "lng": "129.3254999375", "url": "/info/%ED%95%98%EC%A7%84%EC%95%BD%EA%B5%AD-%EC%9A%B8%EC%82%B0%EA%B4%91%EC%97%AD%EC%8B%9C-%EB%82%A8%EA%B5%AC-%EB%8B%AC%EB%8F%99/", "workingTime": ["-", "09:00~19:00", "09:00~19:00", "09:00~19:00", "09:30~19:30", "09:00~19:00", "09:00~15:00", "09:00~13:30"]}, {"name": "\uba54\ub514\uce7c\uc57d\uad6d", "lat": "35.538063892191914", "lng": "129.3292893226178", "url": "/info/%EB%A9%94%EB%94%94%EC%B9%BC%EC%95%BD%EA%B5%AD-%EC%9A%B8%EC%82%B0%EA%B4%91%EC%97%AD%EC%8B%9C-%EB%82%A8%EA%B5%AC-%EB%8B%AC%EB%8F%99/", "workingTime": ["-", "09:00~18:00", "09:00~18:00", "09:00~18:00", "09:00~18:00", "09:00~18:00", "09:00~17:00", "09:00~13:00"]}, {"name": "\ud55c\uc194\uc57d\uad6d", "lat": "35.53480773743259", "lng": "129.3288061221701", "url": "/info/%ED%95%9C%EC%86%94%EC%95%BD%EA%B5%AD-%EC%9A%B8%EC%82%B0%EA%B4%91%EC%97%AD%EC%8B%9C-%EB%82%A8%EA%B5%AC-%EB%8B%AC%EB%8F%99/", "workingTime": ["-", "09:00~18:00", "09:00~18:00", "09:00~18:00", "09:00~18:00", "09:00~18:00", "09:00~13:00", "-"]}, {"name": "\uc655\uc57d\uad6d", "lat": "35.5389360466053", "lng": "129.333669191815", "url": "/info/%EC%99%95%EC%95%BD%EA%B5%AD-%EC%9A%B8%EC%82%B0%EA%B4%91%EC%97%AD%EC%8B%9C-%EB%82%A8%EA%B5%AC-%EB%8B%AC%EB%8F%99/", "workingTime": ["-", "08:30~20:00", "08:30~20:00", "08:30~19:00", "08:30~20:00", "08:30~20:00", "08:30~15:00", "-"]}, {"name": "\ub9d1\uc740\ud558\ub298\uc57d\uad6d", "lat": "35.5373522176", "lng": "129.3259186792", "url": "/info/%EB%A7%91%EC%9D%80%ED%95%98%EB%8A%98%EC%95%BD%EA%B5%AD-%EC%9A%B8%EC%82%B0%EA%B4%91%EC%97%AD%EC%8B%9C-%EB%82%A8%EA%B5%AC-%EB%8B%AC%EB%8F%99/", "workingTime": ["-", "09:00~19:30", "09:00~19:30", "09:00~21:00", "09:00~19:30", "09:00~19:30", "09:00~16:00", "09:00~13:00"]}, {"name": "\ubbf8\ub798\ud31c\uc5f0\uc138\uc57d\uad6d", "lat": "35.53538353238445", "lng": "129.32184481455437", "url": "/info/%EB%AF%B8%EB%9E%98%ED%8C%9C%EC%97%B0%EC%84%B8%EC%95%BD%EA%B5%AD-%EC%9A%B8%EC%82%B0%EA%B4%91%EC%97%AD%EC%8B%9C-%EB%82%A8%EA%B5%AC-%EB%8B%AC%EB%8F%99/", "workingTime": ["-", "09:00~20:00", "09:00~20:00", "09:00~20:00", "09:00~20:00", "09:00~20:00", "09:00~20:00", "-"]}, {"name": "\uc131\ub3c4\uc57d\uad6d", "lat": "35.5339705949988", "lng": "129.31580620615372", "url": "/info/%EC%84%B1%EB%8F%84%EC%95%BD%EA%B5%AD-%EC%9A%B8%EC%82%B0%EA%B4%91%EC%97%AD%EC%8B%9C-%EB%82%A8%EA%B5%AC-%EB%8B%AC%EB%8F%99/", "workingTime": ["1,2,3,5\uc9f8\uc8fc10:00~21:00", "10:00~21:00", "10:00~21:00", "10:00~21:00", "10:00~21:00", "10:00~21:00", "10:00~21:00", "10:00~21:00"]}, {"name": "\ubc1d\uc740\uc57d\uad6d", "lat": "35.538318091718956", "lng": "129.3304002935944", "url": "/info/%EB%B0%9D%EC%9D%80%EC%95%BD%EA%B5%AD-%EC%9A%B8%EC%82%B0%EA%B4%91%EC%97%AD%EC%8B%9C-%EB%82%A8%EA%B5%AC-%EB%8B%AC%EB%8F%99/", "workingTime": ["-", "08:00~18:30", "08:00~18:30", "08:00~18:30", "08:00~18:30", "08:00~18:30", "08:00~13:00", "-"]}, {"name": "\ub3d9\uc778\ub2f9\ud55c\uc57d\uad6d", "lat": "35.53318978343887", "lng": "129.3226226603189", "url": "/info/%EB%8F%99%EC%9D%B8%EB%8B%B9%ED%95%9C%EC%95%BD%EA%B5%AD-%EC%9A%B8%EC%82%B0%EA%B4%91%EC%97%AD%EC%8B%9C-%EB%82%A8%EA%B5%AC-%EB%8B%AC%EB%8F%99/", "workingTime": ["-", "14:00~18:00", "14:00~18:00", "14:00~18:00", "14:00~18:00", "14:00~18:00", "-", "-"]}, {"name": "\ub098\ub77c\uc57d\uad6d", "lat": "35.53853015071349", "lng": "129.33500000872596", "url": "/info/%EB%82%98%EB%9D%BC%EC%95%BD%EA%B5%AD-%EC%9A%B8%EC%82%B0%EA%B4%91%EC%97%AD%EC%8B%9C-%EB%82%A8%EA%B5%AC-%EB%8B%AC%EB%8F%99/", "workingTime": ["-", "09:00~19:00", "09:00~19:00", "09:00~19:00", "09:00~19:00", "09:00~19:00", "09:00~16:00", "-"]}, {"name": "\uae08\uc57d\uad6d", "lat": "35.53497685498932", "lng": "129.3220006488051", "url": "/info/%EA%B8%88%EC%95%BD%EA%B5%AD-%EC%9A%B8%EC%82%B0%EA%B4%91%EC%97%AD%EC%8B%9C-%EB%82%A8%EA%B5%AC-%EB%8B%AC%EB%8F%99/", "workingTime": ["-", "09:00~20:00", "09:00~20:00", "09:00~20:00", "09:00~20:00", "09:00~20:00", "09:00~20:00", "-"]}, {"name": "\uacbd\ud76c\uc57d\uad6d", "lat": "35.53525748620479", "lng": "129.32847624224468", "url": "/info/%EA%B2%BD%ED%9D%AC%EC%95%BD%EA%B5%AD-%EC%9A%B8%EC%82%B0%EA%B4%91%EC%97%AD%EC%8B%9C-%EB%82%A8%EA%B5%AC-%EB%8B%AC%EB%8F%99/", "workingTime": ["-", "09:00~19:30", "09:00~19:30", "09:00~19:30", "09:00~19:30", "09:00~19:30", "09:00~14:00", "-"]}, {"name": "\ubcf4\uc544\uc2a4\uc57d\uad6d", "lat": "35.53948224866576", "lng": "129.32760296879567", "url": "/info/%EB%B3%B4%EC%95%84%EC%8A%A4%EC%95%BD%EA%B5%AD-%EC%9A%B8%EC%82%B0%EA%B4%91%EC%97%AD%EC%8B%9C-%EB%82%A8%EA%B5%AC-%EB%8B%AC%EB%8F%99/", "workingTime": ["-", "09:30~19:00", "09:30~21:00", "09:30~19:00", "09:30~19:00", "09:30~21:00", "09:30~17:00", "-"]}, {"name": "\uac70\ubd09\uc57d\uad6d", "lat": "35.539910747871396", "lng": "129.3351767158134", "url": "/info/%EA%B1%B0%EB%B4%89%EC%95%BD%EA%B5%AD-%EC%9A%B8%EC%82%B0%EA%B4%91%EC%97%AD%EC%8B%9C-%EB%82%A8%EA%B5%AC-%EB%8B%AC%EB%8F%99/", "workingTime": ["1,2,3,4,5\uc9f8\uc8fc10:00~20:00", "09:00~21:00", "09:00~21:00", "09:00~21:00", "09:00~21:00", "09:00~21:00", "09:00~21:00", "10:00~20:00"]}, {"name": "\ud53c\uc5d4\ube44\uc57d\uad6d", "lat": "35.5357992753", "lng": "129.3223418288", "url": "/info/%ED%94%BC%EC%97%94%EB%B9%84%EC%95%BD%EA%B5%AD-%EC%9A%B8%EC%82%B0%EA%B4%91%EC%97%AD%EC%8B%9C-%EB%82%A8%EA%B5%AC-%EB%8B%AC%EB%8F%99/", "workingTime": ["1,2,3,4,5\uc9f8\uc8fc09:00~15:00", "09:00~21:00", "09:00~21:00", "09:00~21:00", "09:00~21:00", "09:00~21:00", "09:00~15:00", "09:00~15:00"]}, {"name": "\uc6b8\uc0b0\uc81c\uc77c\uc57d\uad6d", "lat": "35.53839477079846", "lng": "129.3148233062592", "url": "/info/%EC%9A%B8%EC%82%B0%EC%A0%9C%EC%9D%BC%EC%95%BD%EA%B5%AD-%EC%9A%B8%EC%82%B0%EA%B4%91%EC%97%AD%EC%8B%9C-%EB%82%A8%EA%B5%AC-%EB%8B%AC%EB%8F%99/", "workingTime": ["-", "09:00~18:30", "09:00~18:30", "09:00~18:30", "09:00~18:30", "09:00~18:30", "09:00~13:00", "-"]}, {"name": "\ud574\uc131\uc57d\uad6d", "lat": "35.53366156810423", "lng": "129.3300186407997", "url": "/info/%ED%95%B4%EC%84%B1%EC%95%BD%EA%B5%AD-%EC%9A%B8%EC%82%B0%EA%B4%91%EC%97%AD%EC%8B%9C-%EB%82%A8%EA%B5%AC-%EB%8B%AC%EB%8F%99/", "workingTime": ["-", "08:40~19:00", "08:40~19:00", "08:40~19:00", "08:40~19:00", "08:40~19:00", "08:40~12:30", "-"]}, {"name": "\uba85\ub3d9\uc57d\uad6d", "lat": "35.537774396", "lng": "129.3309313481", "url": "/info/%EB%AA%85%EB%8F%99%EC%95%BD%EA%B5%AD-%EC%9A%B8%EC%82%B0%EA%B4%91%EC%97%AD%EC%8B%9C-%EB%82%A8%EA%B5%AC-%EB%8B%AC%EB%8F%99/", "workingTime": ["-", "09:00~16:30", "09:00~16:30", "09:00~16:30", "09:00~16:30", "09:00~16:30", "09:00~13:00", "-"]}, {"name": "\ud574\ub9d1\uc740\uc57d\uad6d", "lat": "35.535427555824654", "lng": "129.32844147106795", "url": "/info/%ED%95%B4%EB%A7%91%EC%9D%80%EC%95%BD%EA%B5%AD-%EC%9A%B8%EC%82%B0%EA%B4%91%EC%97%AD%EC%8B%9C-%EB%82%A8%EA%B5%AC-%EB%8B%AC%EB%8F%99/", "workingTime": ["-", "09:00~19:00", "09:00~19:00", "09:00~19:00", "09:00~19:00", "09:00~19:00", "09:00~14:00", "-"]}, {"name": "\uc870\uc544\uc57d\uad6d", "lat": "35.5382495168", "lng": "129.3300323111", "url": "/info/%EC%A1%B0%EC%95%84%EC%95%BD%EA%B5%AD-%EC%9A%B8%EC%82%B0%EA%B4%91%EC%97%AD%EC%8B%9C-%EB%82%A8%EA%B5%AC-%EB%8B%AC%EB%8F%99/", "workingTime": ["-", "08:00~19:00", "08:00~19:00", "08:00~19:00", "08:00~19:00", "08:00~19:00", "08:00~13:00", "08:00~13:00"]}]