[{"name": "\uadf8\ub9b0\uc57d\uad6d", "lat": "35.5274214689088", "lng": "129.32129785953813", "url": "/info/%EA%B7%B8%EB%A6%B0%EC%95%BD%EA%B5%AD-%EC%9A%B8%EC%82%B0%EA%B4%91%EC%97%AD%EC%8B%9C-%EB%82%A8%EA%B5%AC-%EC%95%BC%EC%9D%8C%EB%8F%99/", "workingTime": ["1,2,3,4,5\uc9f8\uc8fc08:30~17:30", "08:30~20:00", "08:30~20:00", "08:30~21:00", "08:30~20:00", "08:30~20:00", "08:30~17:30", "08:30~17:30"]}, {"name": "\ub2e4\uc708\uc57d\uad6d", "lat": "35.527443222472876", "lng": "129.32147924098987", "url": "/info/%EB%8B%A4%EC%9C%88%EC%95%BD%EA%B5%AD-%EC%9A%B8%EC%82%B0%EA%B4%91%EC%97%AD%EC%8B%9C-%EB%82%A8%EA%B5%AC-%EC%95%BC%EC%9D%8C%EB%8F%99/", "workingTime": ["1,2,3,4,5\uc9f8\uc8fc09:00~17:00", "09:00~21:00", "09:00~21:00", "09:00~21:00", "09:00~21:00", "09:00~21:00", "09:00~17:00", "09:00~17:00"]}, {"name": "\ud604\ub300\uc628\ub204\ub9ac\uc57d\uad6d", "lat": "35.53074418251737", "lng": "129.32393772628913", "url": "/info/%ED%98%84%EB%8C%80%EC%98%A8%EB%88%84%EB%A6%AC%EC%95%BD%EA%B5%AD-%EC%9A%B8%EC%82%B0%EA%B4%91%EC%97%AD%EC%8B%9C-%EB%82%A8%EA%B5%AC-%EC%95%BC%EC%9D%8C%EB%8F%99/", "workingTime": ["-", "09:00~19:00", "09:00~19:00", "09:00~19:00", "09:00~19:00", "09:00~19:00", "09:00~14:00", "09:00~13:00"]}, {"name": "\ud648\ud0c0\uc6b4\uc57d\uad6d", "lat": "35.53074418251737", "lng": "129.32393772628913", "url": "/info/%ED%99%88%ED%83%80%EC%9A%B4%EC%95%BD%EA%B5%AD-%EC%9A%B8%EC%82%B0%EA%B4%91%EC%97%AD%EC%8B%9C-%EB%82%A8%EA%B5%AC-%EC%95%BC%EC%9D%8C%EB%8F%99/", "workingTime": ["-", "09:00~20:00", "09:00~20:00", "09:00~20:00", "09:00~20:00", "09:00~20:00", "09:00~18:00", "-"]}, {"name": "\uc601\uc9c4\uc57d\uad6d", "lat": "35.52457907219231", "lng": "129.33104236207885", "url": "/info/%EC%98%81%EC%A7%84%EC%95%BD%EA%B5%AD-%EC%9A%B8%EC%82%B0%EA%B4%91%EC%97%AD%EC%8B%9C-%EB%82%A8%EA%B5%AC-%EC%95%BC%EC%9D%8C%EB%8F%99/", "workingTime": ["3,5\uc9f8\uc8fc10:00~19:00", "09:00~20:00", "09:00~20:00", "09:00~20:00", "09:00~20:00", "09:00~20:00", "09:00~20:00", "09:00~20:00"]}, {"name": "\ud0c0\uc784\uc57d\uad6d", "lat": "35.52696644314779", "lng": "129.3219064019908", "url": "/info/%ED%83%80%EC%9E%84%EC%95%BD%EA%B5%AD-%EC%9A%B8%EC%82%B0%EA%B4%91%EC%97%AD%EC%8B%9C-%EB%82%A8%EA%B5%AC-%EC%95%BC%EC%9D%8C%EB%8F%99/", "workingTime": ["-", "09:00~20:00", "09:00~19:30", "09:00~19:30", "09:00~20:00", "09:00~19:30", "09:00~15:00", "09:00~13:00"]}, {"name": "\ud55c\uc591\uc57d\uad6d", "lat": "35.51735567181439", "lng": "129.33907733280643", "url": "/info/%ED%95%9C%EC%96%91%EC%95%BD%EA%B5%AD-%EC%9A%B8%EC%82%B0%EA%B4%91%EC%97%AD%EC%8B%9C-%EB%82%A8%EA%B5%AC-%EC%95%BC%EC%9D%8C%EB%8F%99/", "workingTime": ["-", "09:00~18:30", "09:00~18:30", "09:00~18:30", "09:00~18:30", "09:00~18:30", "09:00~14:00", "09:00~14:00"]}, {"name": "\ub300\uac00\uc57d\uad6d", "lat": "35.52362736975431", "lng": "129.33225467003345", "url": "/info/%EB%8C%80%EA%B0%80%EC%95%BD%EA%B5%AD-%EC%9A%B8%EC%82%B0%EA%B4%91%EC%97%AD%EC%8B%9C-%EB%82%A8%EA%B5%AC-%EC%95%BC%EC%9D%8C%EB%8F%99/", "workingTime": ["4\uc9f8\uc8fc10:00~18:00", "08:30~20:00", "08:30~20:00", "08:30~20:00", "08:30~20:00", "08:30~20:00", "08:30~20:00", "10:00~18:00"]}, {"name": "\ubcf4\uc6d0\ud55c\uc57d\uad6d", "lat": "35.5294929957", "lng": "129.3262075929", "url": "/info/%EB%B3%B4%EC%9B%90%ED%95%9C%EC%95%BD%EA%B5%AD-%EC%9A%B8%EC%82%B0%EA%B4%91%EC%97%AD%EC%8B%9C-%EB%82%A8%EA%B5%AC-%EC%95%BC%EC%9D%8C%EB%8F%99/", "workingTime": ["-", "10:00~18:00", "10:00~18:00", "10:00~18:00", "10:00~18:00", "10:00~18:00", "10:00~14:00", "-"]}, {"name": "\ub300\ud604\uc57d\uad6d", "lat": "35.521340599312644", "lng": "129.33587854572644", "url": "/info/%EB%8C%80%ED%98%84%EC%95%BD%EA%B5%AD-%EC%9A%B8%EC%82%B0%EA%B4%91%EC%97%AD%EC%8B%9C-%EB%82%A8%EA%B5%AC-%EC%95%BC%EC%9D%8C%EB%8F%99/", "workingTime": ["-", "09:00~19:30", "09:00~19:30", "09:00~19:30", "09:00~19:30", "09:00~19:30", "09:00~15:00", "-"]}, {"name": "\ub9e4\uc77c\uc57d\uad6d", "lat": "35.52094392844936", "lng": "129.33588908970537", "url": "/info/%EB%A7%A4%EC%9D%BC%EC%95%BD%EA%B5%AD-%EC%9A%B8%EC%82%B0%EA%B4%91%EC%97%AD%EC%8B%9C-%EB%82%A8%EA%B5%AC-%EC%95%BC%EC%9D%8C%EB%8F%99/", "workingTime": ["2\uc9f8\uc8fc09:00~18:00", "09:00~20:00", "09:00~20:00", "09:00~20:00", "09:00~20:00", "09:00~20:00", "09:00~18:00", "-"]}, {"name": "\ucc38\uc870\uc740\uc57d\uad6d", "lat": "35.52728810320716", "lng": "129.32169687533775", "url": "/info/%EC%B0%B8%EC%A1%B0%EC%9D%80%EC%95%BD%EA%B5%AD-%EC%9A%B8%EC%82%B0%EA%B4%91%EC%97%AD%EC%8B%9C-%EB%82%A8%EA%B5%AC-%EC%95%BC%EC%9D%8C%EB%8F%99/", "workingTime": ["-", "09:00~19:30", "09:00~19:30", "09:00~19:30", "09:00~19:30", "09:00~19:30", "09:00~14:00", "-"]}, {"name": "\ud589\uc6b4\uc57d\uad6d", "lat": "35.522732244534055", "lng": "129.3190553605587", "url": "/info/%ED%96%89%EC%9A%B4%EC%95%BD%EA%B5%AD-%EC%9A%B8%EC%82%B0%EA%B4%91%EC%97%AD%EC%8B%9C-%EB%82%A8%EA%B5%AC-%EC%95%BC%EC%9D%8C%EB%8F%99/", "workingTime": ["-", "09:00~20:00", "09:00~20:00", "09:00~20:00", "09:00~20:00", "09:00~20:00", "09:00~14:00", "-"]}, {"name": "\ud587\uc0b4\uc57d\uad6d", "lat": "35.52643184503434", "lng": "129.32271547203675", "url": "/info/%ED%96%87%EC%82%B4%EC%95%BD%EA%B5%AD-%EC%9A%B8%EC%82%B0%EA%B4%91%EC%97%AD%EC%8B%9C-%EB%82%A8%EA%B5%AC-%EC%95%BC%EC%9D%8C%EB%8F%99/", "workingTime": ["1,2,3,5\uc9f8\uc8fc10:00~22:30", "10:00~22:30", "10:00~22:30", "10:00~22:30", "10:00~22:30", "10:00~22:30", "10:00~22:30", "10:00~22:30"]}]