[{"name": "\uc120\ub9b0\uc57d\uad6d", "lat": "35.541664190737166", "lng": "129.4265573591885", "url": "/info/%EC%84%A0%EB%A6%B0%EC%95%BD%EA%B5%AD-%EC%9A%B8%EC%82%B0%EA%B4%91%EC%97%AD%EC%8B%9C-%EB%8F%99%EA%B5%AC-%EB%8F%99%EB%B6%80%EB%8F%99/", "workingTime": ["-", "09:00~19:00", "09:00~19:00", "09:00~19:00", "09:00~19:00", "09:00~19:00", "09:00~17:00", "-"]}, {"name": "\uc2e0\ub300\ud765\uc57d\uad6d", "lat": "35.54291243883009", "lng": "129.43150741035902", "url": "/info/%EC%8B%A0%EB%8C%80%ED%9D%A5%EC%95%BD%EA%B5%AD-%EC%9A%B8%EC%82%B0%EA%B4%91%EC%97%AD%EC%8B%9C-%EB%8F%99%EA%B5%AC-%EB%8F%99%EB%B6%80%EB%8F%99/", "workingTime": ["-", "09:00~19:00", "09:00~19:00", "09:00~19:00", "09:00~19:00", "09:00~19:00", "09:00~15:00", "09:00~13:00"]}, {"name": "\uc2e0\ud604\ub300\uc628\ub204\ub9ac\uc57d\uad6d", "lat": "35.542366666666666", "lng": "129.427969444444443", "url": "/info/%EC%8B%A0%ED%98%84%EB%8C%80%EC%98%A8%EB%88%84%EB%A6%AC%EC%95%BD%EA%B5%AD-%EC%9A%B8%EC%82%B0%EA%B4%91%EC%97%AD%EC%8B%9C-%EB%8F%99%EA%B5%AC-%EB%8F%99%EB%B6%80%EB%8F%99/", "workingTime": ["-", "09:00~18:40", "09:00~18:40", "09:00~18:40", "09:00~18:40", "09:00~18:40", "09:00~13:00", "-"]}, {"name": "\uccad\uc194\uc57d\uad6d", "lat": "35.542394444444447", "lng": "129.428594444444457", "url": "/info/%EC%B2%AD%EC%86%94%EC%95%BD%EA%B5%AD-%EC%9A%B8%EC%82%B0%EA%B4%91%EC%97%AD%EC%8B%9C-%EB%8F%99%EA%B5%AC-%EB%8F%99%EB%B6%80%EB%8F%99/", "workingTime": ["-", "09:00~18:30", "09:00~18:30", "09:00~18:30", "09:00~18:30", "09:00~18:30", "09:00~13:00", "-"]}, {"name": "\ub0a8\ubaa9\uacf5\ub8e1\uc57d\uad6d", "lat": "35.5424282274454", "lng": "129.4274773661503", "url": "/info/%EB%82%A8%EB%AA%A9%EA%B3%B5%EB%A3%A1%EC%95%BD%EA%B5%AD-%EC%9A%B8%EC%82%B0%EA%B4%91%EC%97%AD%EC%8B%9C-%EB%8F%99%EA%B5%AC-%EB%8F%99%EB%B6%80%EB%8F%99/", "workingTime": ["-", "09:00~19:00", "09:00~19:00", "09:00~19:00", "09:00~19:00", "09:00~19:00", "09:00~17:00", "-"]}]