[{"name": "\uc9c4\uc8fc\uc57d\uad6d", "lat": "35.564459553730046", "lng": "129.12219208974866", "url": "/info/%EC%A7%84%EC%A3%BC%EC%95%BD%EA%B5%AD-%EC%9A%B8%EC%82%B0%EA%B4%91%EC%97%AD%EC%8B%9C-%EC%9A%B8%EC%A3%BC%EA%B5%B0-%EC%96%B8%EC%96%91%EC%9D%8D/", "workingTime": ["-", "08:30~19:00", "08:30~19:00", "08:30~13:00", "08:30~19:00", "08:30~19:00", "08:30~13:00", "-"]}, {"name": "\uae40\uc57d\uad6d", "lat": "35.565047222222219", "lng": "129.122622222222219", "url": "/info/%EA%B9%80%EC%95%BD%EA%B5%AD-%EC%9A%B8%EC%82%B0%EA%B4%91%EC%97%AD%EC%8B%9C-%EC%9A%B8%EC%A3%BC%EA%B5%B0-%EC%96%B8%EC%96%91%EC%9D%8D/", "workingTime": ["-", "08:30~19:30", "08:30~19:30", "08:30~19:30", "08:30~19:30", "08:30~19:30", "08:30~19:00", "-"]}, {"name": "\ub098\uc740\uc57d\uad6d", "lat": "35.56437750626377", "lng": "129.12669379483893", "url": "/info/%EB%82%98%EC%9D%80%EC%95%BD%EA%B5%AD-%EC%9A%B8%EC%82%B0%EA%B4%91%EC%97%AD%EC%8B%9C-%EC%9A%B8%EC%A3%BC%EA%B5%B0-%EC%96%B8%EC%96%91%EC%9D%8D/", "workingTime": ["-", "09:00~19:20", "09:00~19:20", "09:00~19:20", "09:00~19:20", "09:00~19:20", "09:00~15:00", "-"]}, {"name": "\ub3d9\uc2e0\uc57d\uad6d", "lat": "35.56428233172569", "lng": "129.12631126187077", "url": "/info/%EB%8F%99%EC%8B%A0%EC%95%BD%EA%B5%AD-%EC%9A%B8%EC%82%B0%EA%B4%91%EC%97%AD%EC%8B%9C-%EC%9A%B8%EC%A3%BC%EA%B5%B0-%EC%96%B8%EC%96%91%EC%9D%8D/", "workingTime": ["1,2,3,4,5\uc9f8\uc8fc12:00~20:00", "08:30~20:00", "08:30~20:00", "08:30~20:00", "08:30~20:00", "08:30~20:00", "08:30~20:00", "10:00~20:00"]}, {"name": "\ubc31\uc57d\uad6d", "lat": "35.56425216516943", "lng": "129.12249917275608", "url": "/info/%EB%B0%B1%EC%95%BD%EA%B5%AD-%EC%9A%B8%EC%82%B0%EA%B4%91%EC%97%AD%EC%8B%9C-%EC%9A%B8%EC%A3%BC%EA%B5%B0-%EC%96%B8%EC%96%91%EC%9D%8D/", "workingTime": ["-", "08:45~19:10", "08:45~19:10", "08:45~19:10", "08:45~19:10", "08:45~19:10", "08:45~13:30", "-"]}, {"name": "\uc0c8\uc2f9\uc57d\uad6d", "lat": "35.5776269088833", "lng": "129.122756355636", "url": "/info/%EC%83%88%EC%8B%B9%EC%95%BD%EA%B5%AD-%EC%9A%B8%EC%82%B0%EA%B4%91%EC%97%AD%EC%8B%9C-%EC%9A%B8%EC%A3%BC%EA%B5%B0-%EC%96%B8%EC%96%91%EC%9D%8D/", "workingTime": ["1,2,3,4,5\uc9f8\uc8fc09:00~13:00", "09:00~19:00", "09:00~19:00", "09:00~19:00", "09:00~19:00", "09:00~19:00", "09:00~16:00", "09:00~13:00"]}, {"name": "\uc0c8\uc5f4\ub9b0\uc57d\uad6d", "lat": "35.56556819112921", "lng": "129.1247262771836", "url": "/info/%EC%83%88%EC%97%B4%EB%A6%B0%EC%95%BD%EA%B5%AD-%EC%9A%B8%EC%82%B0%EA%B4%91%EC%97%AD%EC%8B%9C-%EC%9A%B8%EC%A3%BC%EA%B5%B0-%EC%96%B8%EC%96%91%EC%9D%8D/", "workingTime": ["-", "08:30~19:30", "08:30~19:30", "08:30~19:30", "08:30~19:30", "08:30~19:30", "08:30~16:00", "-"]}, {"name": "\uc138\ud654\uc57d\uad6d", "lat": "35.56286603490197", "lng": "129.12681376366453", "url": "/info/%EC%84%B8%ED%99%94%EC%95%BD%EA%B5%AD-%EC%9A%B8%EC%82%B0%EA%B4%91%EC%97%AD%EC%8B%9C-%EC%9A%B8%EC%A3%BC%EA%B5%B0-%EC%96%B8%EC%96%91%EC%9D%8D/", "workingTime": ["-", "09:00~18:30", "09:00~18:30", "09:00~18:30", "09:00~18:30", "09:00~18:30", "09:00~13:00", "-"]}, {"name": "\uc2e0\ud3c9\ud654\uc57d\uad6d", "lat": "35.56591253790029", "lng": "129.11730293725742", "url": "/info/%EC%8B%A0%ED%8F%89%ED%99%94%EC%95%BD%EA%B5%AD-%EC%9A%B8%EC%82%B0%EA%B4%91%EC%97%AD%EC%8B%9C-%EC%9A%B8%EC%A3%BC%EA%B5%B0-%EC%96%B8%EC%96%91%EC%9D%8D/", "workingTime": ["-", "08:30~20:00", "08:30~20:00", "08:30~20:00", "08:30~20:00", "08:30~20:00", "08:30~14:30", "-"]}, {"name": "\uc5b8\uc591\uba54\ub514\uce7c\uc57d\uad6d", "lat": "35.56335663581001", "lng": "129.12753713841468", "url": "/info/%EC%96%B8%EC%96%91%EB%A9%94%EB%94%94%EC%B9%BC%EC%95%BD%EA%B5%AD-%EC%9A%B8%EC%82%B0%EA%B4%91%EC%97%AD%EC%8B%9C-%EC%9A%B8%EC%A3%BC%EA%B5%B0-%EC%96%B8%EC%96%91%EC%9D%8D/", "workingTime": ["-", "09:00~19:00", "09:00~19:00", "09:00~19:00", "09:00~19:00", "09:00~19:00", "09:00~13:00", "-"]}, {"name": "\uc5b8\uc591\uc628\ub204\ub9ac\uc57d\uad6d", "lat": "35.5669396229", "lng": "129.1181328427", "url": "/info/%EC%96%B8%EC%96%91%EC%98%A8%EB%88%84%EB%A6%AC%EC%95%BD%EA%B5%AD-%EC%9A%B8%EC%82%B0%EA%B4%91%EC%97%AD%EC%8B%9C-%EC%9A%B8%EC%A3%BC%EA%B5%B0-%EC%96%B8%EC%96%91%EC%9D%8D/", "workingTime": ["-", "08:30~20:00", "08:30~20:00", "08:30~20:00", "08:30~20:00", "08:30~20:00", "08:30~17:00", "-"]}, {"name": "\uc720\ub2c8\uc2a4\ud2b8\uc57d\uad6d", "lat": "35.5773071411833", "lng": "129.187618949573", "url": "/info/%EC%9C%A0%EB%8B%88%EC%8A%A4%ED%8A%B8%EC%95%BD%EA%B5%AD-%EC%9A%B8%EC%82%B0%EA%B4%91%EC%97%AD%EC%8B%9C-%EC%9A%B8%EC%A3%BC%EA%B5%B0-%EC%96%B8%EC%96%91%EC%9D%8D/", "workingTime": ["-", "09:00~18:30", "09:00~18:30", "09:00~18:30", "09:00~18:30", "09:00~18:30", "-", "-"]}, {"name": "\uc784\uc57d\uad6d", "lat": "35.5651918309486", "lng": "129.1250163114866", "url": "/info/%EC%9E%84%EC%95%BD%EA%B5%AD-%EC%9A%B8%EC%82%B0%EA%B4%91%EC%97%AD%EC%8B%9C-%EC%9A%B8%EC%A3%BC%EA%B5%B0-%EC%96%B8%EC%96%91%EC%9D%8D/", "workingTime": ["1,2,3,4,5\uc9f8\uc8fc09:00~20:30", "08:30~21:00", "08:30~21:00", "08:30~21:00", "08:30~21:00", "08:30~21:00", "08:30~20:30", "09:00~20:30"]}, {"name": "\uc81c\uc77c\uc57d\uad6d", "lat": "35.564952647681494", "lng": "129.12392106921357", "url": "/info/%EC%A0%9C%EC%9D%BC%EC%95%BD%EA%B5%AD-%EC%9A%B8%EC%82%B0%EA%B4%91%EC%97%AD%EC%8B%9C-%EC%9A%B8%EC%A3%BC%EA%B5%B0-%EC%96%B8%EC%96%91%EC%9D%8D/", "workingTime": ["-", "08:30~19:00", "08:30~19:00", "08:30~19:00", "08:30~19:00", "08:30~19:00", "08:30~15:00", "-"]}, {"name": "\ud558\ub098\uc57d\uad6d", "lat": "35.5653979342843", "lng": "129.11719172195558", "url": "/info/%ED%95%98%EB%82%98%EC%95%BD%EA%B5%AD-%EC%9A%B8%EC%82%B0%EA%B4%91%EC%97%AD%EC%8B%9C-%EC%9A%B8%EC%A3%BC%EA%B5%B0-%EC%96%B8%EC%96%91%EC%9D%8D/", "workingTime": ["-", "08:30~19:30", "08:30~19:30", "08:30~19:30", "08:30~19:30", "08:30~19:30", "08:30~15:00", "-"]}, {"name": "\ud55c\uacb0\uc57d\uad6d", "lat": "35.562957343590334", "lng": "129.12766137169825", "url": "/info/%ED%95%9C%EA%B2%B0%EC%95%BD%EA%B5%AD-%EC%9A%B8%EC%82%B0%EA%B4%91%EC%97%AD%EC%8B%9C-%EC%9A%B8%EC%A3%BC%EA%B5%B0-%EC%96%B8%EC%96%91%EC%9D%8D/", "workingTime": ["-", "08:30~20:00", "08:30~20:00", "08:30~20:00", "08:30~20:00", "08:30~20:00", "08:30~17:00", "-"]}, {"name": "\ud6a8\uc131\uc57d\uad6d", "lat": "35.56544072751483", "lng": "129.12500523555366", "url": "/info/%ED%9A%A8%EC%84%B1%EC%95%BD%EA%B5%AD-%EC%9A%B8%EC%82%B0%EA%B4%91%EC%97%AD%EC%8B%9C-%EC%9A%B8%EC%A3%BC%EA%B5%B0-%EC%96%B8%EC%96%91%EC%9D%8D/", "workingTime": ["-", "08:00~20:00", "08:00~20:00", "08:00~20:00", "08:00~20:00", "08:00~20:00", "08:00~13:00", "-"]}]