[{"name": "\ud0dc\ud654\uc57d\uad6d", "lat": "35.50928529848184", "lng": "129.42599841054562", "url": "/info/%ED%83%9C%ED%99%94%EC%95%BD%EA%B5%AD-%EC%9A%B8%EC%82%B0%EA%B4%91%EC%97%AD%EC%8B%9C-%EB%8F%99%EA%B5%AC-%EC%A0%84%ED%95%98%EB%8F%99/", "workingTime": ["1,2,3,4,5\uc9f8\uc8fc09:00~14:00", "09:00~20:00", "09:00~20:00", "09:00~20:00", "09:00~20:00", "09:00~20:00", "09:00~16:00", "09:00~14:00"]}, {"name": "\ud3b8\ub9ac\ud55c\uc8fc\ucc28\uc57d\uad6d", "lat": "35.517134370152746", "lng": "129.42854466151562", "url": "/info/%ED%8E%B8%EB%A6%AC%ED%95%9C%EC%A3%BC%EC%B0%A8%EC%95%BD%EA%B5%AD-%EC%9A%B8%EC%82%B0%EA%B4%91%EC%97%AD%EC%8B%9C-%EB%8F%99%EA%B5%AC-%EC%A0%84%ED%95%98%EB%8F%99/", "workingTime": ["-", "08:30~18:30", "08:30~18:30", "08:30~18:30", "08:30~18:30", "08:30~18:30", "-", "-"]}, {"name": "\ud558\ub098\uc57d\uad6d", "lat": "35.5177435958737", "lng": "129.427742290223", "url": "/info/%ED%95%98%EB%82%98%EC%95%BD%EA%B5%AD-%EC%9A%B8%EC%82%B0%EA%B4%91%EC%97%AD%EC%8B%9C-%EB%8F%99%EA%B5%AC-%EC%A0%84%ED%95%98%EB%8F%99/", "workingTime": ["-", "08:30~18:30", "08:30~18:30", "08:30~18:30", "08:30~18:30", "08:30~18:30", "-", "-"]}, {"name": "\ud55c\uac00\uc871\uc57d\uad6d", "lat": "35.505287168970774", "lng": "129.42944284561239", "url": "/info/%ED%95%9C%EA%B0%80%EC%A1%B1%EC%95%BD%EA%B5%AD-%EC%9A%B8%EC%82%B0%EA%B4%91%EC%97%AD%EC%8B%9C-%EB%8F%99%EA%B5%AC-%EC%A0%84%ED%95%98%EB%8F%99/", "workingTime": ["-", "09:00~19:30", "09:00~19:30", "09:00~19:30", "09:00~19:30", "09:00~19:30", "09:00~13:00", "-"]}, {"name": "\ud55c\ub9c8\uc74c\uc628\ub204\ub9ac\uc57d\uad6d", "lat": "35.51816012624338", "lng": "129.42663013884214", "url": "/info/%ED%95%9C%EB%A7%88%EC%9D%8C%EC%98%A8%EB%88%84%EB%A6%AC%EC%95%BD%EA%B5%AD-%EC%9A%B8%EC%82%B0%EA%B4%91%EC%97%AD%EC%8B%9C-%EB%8F%99%EA%B5%AC-%EC%A0%84%ED%95%98%EB%8F%99/", "workingTime": ["-", "09:00~18:00", "09:00~18:00", "09:00~18:00", "09:00~18:00", "09:00~18:00", "-", "-"]}, {"name": "\ud604\uc57d\uad6d", "lat": "35.50654017463769", "lng": "129.42968333649787", "url": "/info/%ED%98%84%EC%95%BD%EA%B5%AD-%EC%9A%B8%EC%82%B0%EA%B4%91%EC%97%AD%EC%8B%9C-%EB%8F%99%EA%B5%AC-%EC%A0%84%ED%95%98%EB%8F%99/", "workingTime": ["-", "09:30~19:30", "09:30~19:30", "09:30~19:30", "09:30~19:30", "09:30~19:30", "09:30~13:00", "-"]}, {"name": "\ubd80\ubbfc\uc57d\uad6d", "lat": "35.512091666666670", "lng": "129.430491666666654", "url": "/info/%EB%B6%80%EB%AF%BC%EC%95%BD%EA%B5%AD-%EC%9A%B8%EC%82%B0%EA%B4%91%EC%97%AD%EC%8B%9C-%EB%8F%99%EA%B5%AC-%EC%A0%84%ED%95%98%EB%8F%99/", "workingTime": ["-", "09:00~21:00", "09:00~21:00", "09:00~21:00", "09:00~21:00", "09:00~21:00", "09:00~19:00", "-"]}, {"name": "\uc0c8\uc815\ubb38\uc57d\uad6d", "lat": "35.517086984508616", "lng": "129.42909295898426", "url": "/info/%EC%83%88%EC%A0%95%EB%AC%B8%EC%95%BD%EA%B5%AD-%EC%9A%B8%EC%82%B0%EA%B4%91%EC%97%AD%EC%8B%9C-%EB%8F%99%EA%B5%AC-%EC%A0%84%ED%95%98%EB%8F%99/", "workingTime": ["-", "09:00~18:00", "09:00~18:00", "09:00~18:00", "09:00~18:00", "09:00~18:00", "-", "-"]}, {"name": "\uc0c8\ud604\ub300\uc57d\uad6d", "lat": "35.517977777777780", "lng": "129.431466666666665", "url": "/info/%EC%83%88%ED%98%84%EB%8C%80%EC%95%BD%EA%B5%AD-%EC%9A%B8%EC%82%B0%EA%B4%91%EC%97%AD%EC%8B%9C-%EB%8F%99%EA%B5%AC-%EC%A0%84%ED%95%98%EB%8F%99/", "workingTime": ["-", "09:00~19:00", "09:00~19:00", "09:00~19:00", "09:00~19:00", "09:00~19:00", "-", "-"]}, {"name": "\uc2a4\ud0c0\uc628\ub204\ub9ac\uc57d\uad6d", "lat": "35.511810587391714", "lng": "129.43035464533952", "url": "/info/%EC%8A%A4%ED%83%80%EC%98%A8%EB%88%84%EB%A6%AC%EC%95%BD%EA%B5%AD-%EC%9A%B8%EC%82%B0%EA%B4%91%EC%97%AD%EC%8B%9C-%EB%8F%99%EA%B5%AC-%EC%A0%84%ED%95%98%EB%8F%99/", "workingTime": ["-", "09:00~18:30", "09:00~18:30", "09:00~18:30", "09:00~18:30", "09:00~18:30", "09:00~12:30", "-"]}, {"name": "\uc6b0\ub9ac\uc9d1\uc57d\uad6d", "lat": "35.509799131106384", "lng": "129.42606120728163", "url": "/info/%EC%9A%B0%EB%A6%AC%EC%A7%91%EC%95%BD%EA%B5%AD-%EC%9A%B8%EC%82%B0%EA%B4%91%EC%97%AD%EC%8B%9C-%EB%8F%99%EA%B5%AC-%EC%A0%84%ED%95%98%EB%8F%99/", "workingTime": ["-", "09:00~20:00", "09:00~20:00", "09:00~20:00", "09:00~20:00", "09:00~20:00", "09:00~19:00", "-"]}, {"name": "\uc77c\ub4f1\uc57d\uad6d", "lat": "35.5178023584309", "lng": "129.429982200139", "url": "/info/%EC%9D%BC%EB%93%B1%EC%95%BD%EA%B5%AD-%EC%9A%B8%EC%82%B0%EA%B4%91%EC%97%AD%EC%8B%9C-%EB%8F%99%EA%B5%AC-%EC%A0%84%ED%95%98%EB%8F%99/", "workingTime": ["-", "09:00~18:30", "09:00~18:30", "09:00~18:30", "09:00~18:30", "09:00~18:30", "-", "-"]}, {"name": "\uce5c\uc808\ud55c\uc57d\uad6d", "lat": "35.5178505731695", "lng": "129.4309203269252", "url": "/info/%EC%B9%9C%EC%A0%88%ED%95%9C%EC%95%BD%EA%B5%AD-%EC%9A%B8%EC%82%B0%EA%B4%91%EC%97%AD%EC%8B%9C-%EB%8F%99%EA%B5%AC-%EC%A0%84%ED%95%98%EB%8F%99/", "workingTime": ["-", "09:00~19:00", "09:00~19:00", "09:00~19:00", "09:00~19:00", "09:00~19:00", "-", "-"]}, {"name": "\ub3d9\uc6b8\uc0b0\ub300\ud559\uc57d\uad6d", "lat": "35.51783351840147", "lng": "129.43103749532008", "url": "/info/%EB%8F%99%EC%9A%B8%EC%82%B0%EB%8C%80%ED%95%99%EC%95%BD%EA%B5%AD-%EC%9A%B8%EC%82%B0%EA%B4%91%EC%97%AD%EC%8B%9C-%EB%8F%99%EA%B5%AC-%EC%A0%84%ED%95%98%EB%8F%99/", "workingTime": ["-", "08:30~20:30", "08:30~20:30", "08:30~20:30", "08:30~20:30", "08:30~20:30", "09:00~14:30", "-"]}, {"name": "\ud2bc\ud2bc\uc57d\uad6d", "lat": "35.5105486024", "lng": "129.430201986", "url": "/info/%ED%8A%BC%ED%8A%BC%EC%95%BD%EA%B5%AD-%EC%9A%B8%EC%82%B0%EA%B4%91%EC%97%AD%EC%8B%9C-%EB%8F%99%EA%B5%AC-%EC%A0%84%ED%95%98%EB%8F%99/", "workingTime": ["-", "09:00~19:00", "09:00~19:00", "09:00~19:00", "09:00~19:00", "09:00~19:00", "09:00~13:00", "-"]}, {"name": "\ud0dc\ud654\ub2f9\uc57d\uad6d", "lat": "35.506533333333330", "lng": "129.427333333333337", "url": "/info/%ED%83%9C%ED%99%94%EB%8B%B9%EC%95%BD%EA%B5%AD-%EC%9A%B8%EC%82%B0%EA%B4%91%EC%97%AD%EC%8B%9C-%EB%8F%99%EA%B5%AC-%EC%A0%84%ED%95%98%EB%8F%99/", "workingTime": ["-", "09:00~18:30", "09:00~18:30", "09:00~18:30", "09:00~18:30", "09:00~18:30", "09:00~13:00", "-"]}, {"name": "\uc6d4\ub4dc\uc57d\uad6d", "lat": "35.50842876259421", "lng": "129.42987360404732", "url": "/info/%EC%9B%94%EB%93%9C%EC%95%BD%EA%B5%AD-%EC%9A%B8%EC%82%B0%EA%B4%91%EC%97%AD%EC%8B%9C-%EB%8F%99%EA%B5%AC-%EC%A0%84%ED%95%98%EB%8F%99/", "workingTime": ["-", "09:00~18:30", "09:00~18:30", "09:00~18:30", "09:00~18:30", "09:00~18:30", "09:00~13:00", "-"]}, {"name": "\uc6b0\ub9ac\uc57d\uad6d", "lat": "35.51233340538233", "lng": "129.43051023911153", "url": "/info/%EC%9A%B0%EB%A6%AC%EC%95%BD%EA%B5%AD-%EC%9A%B8%EC%82%B0%EA%B4%91%EC%97%AD%EC%8B%9C-%EB%8F%99%EA%B5%AC-%EC%A0%84%ED%95%98%EB%8F%99/", "workingTime": ["-", "09:00~19:00", "09:00~19:00", "09:00~19:00", "09:00~19:00", "09:00~19:00", "09:00~13:00", "-"]}, {"name": "\uc120\uba85\uc57d\uad6d", "lat": "35.512552777777778", "lng": "129.430522222222208", "url": "/info/%EC%84%A0%EB%AA%85%EC%95%BD%EA%B5%AD-%EC%9A%B8%EC%82%B0%EA%B4%91%EC%97%AD%EC%8B%9C-%EB%8F%99%EA%B5%AC-%EC%A0%84%ED%95%98%EB%8F%99/", "workingTime": ["-", "09:00~18:30", "09:00~18:30", "09:00~18:30", "09:00~18:30", "09:00~18:30", "09:00~12:30", "-"]}, {"name": "\uc0c8\ubd04\uc57d\uad6d", "lat": "35.51276351037005", "lng": "129.4306289947297", "url": "/info/%EC%83%88%EB%B4%84%EC%95%BD%EA%B5%AD-%EC%9A%B8%EC%82%B0%EA%B4%91%EC%97%AD%EC%8B%9C-%EB%8F%99%EA%B5%AC-%EC%A0%84%ED%95%98%EB%8F%99/", "workingTime": ["-", "09:30~18:30", "09:30~18:30", "09:30~18:30", "09:30~18:30", "09:30~18:30", "09:30~13:00", "-"]}, {"name": "\ube44\ud0c0\ubbfc\uc57d\uad6d", "lat": "35.510902913339365", "lng": "129.4262101930869", "url": "/info/%EB%B9%84%ED%83%80%EB%AF%BC%EC%95%BD%EA%B5%AD-%EC%9A%B8%EC%82%B0%EA%B4%91%EC%97%AD%EC%8B%9C-%EB%8F%99%EA%B5%AC-%EC%A0%84%ED%95%98%EB%8F%99/", "workingTime": ["-", "09:00~19:00", "09:00~19:00", "09:00~19:00", "09:00~19:00", "09:00~19:00", "09:00~15:00", "-"]}, {"name": "\ubcf4\ub78c\uc57d\uad6d", "lat": "35.504977777777775", "lng": "129.429361111111120", "url": "/info/%EB%B3%B4%EB%9E%8C%EC%95%BD%EA%B5%AD-%EC%9A%B8%EC%82%B0%EA%B4%91%EC%97%AD%EC%8B%9C-%EB%8F%99%EA%B5%AC-%EC%A0%84%ED%95%98%EB%8F%99/", "workingTime": ["-", "09:00~19:00", "09:00~19:00", "09:00~19:00", "09:00~19:00", "09:00~19:00", "09:00~13:00", "-"]}, {"name": "\ub9cc\uc138\ub300\uc57d\uad6d", "lat": "35.51113921167016", "lng": "129.42627342670505", "url": "/info/%EB%A7%8C%EC%84%B8%EB%8C%80%EC%95%BD%EA%B5%AD-%EC%9A%B8%EC%82%B0%EA%B4%91%EC%97%AD%EC%8B%9C-%EB%8F%99%EA%B5%AC-%EC%A0%84%ED%95%98%EB%8F%99/", "workingTime": ["-", "09:00~18:30", "09:00~18:30", "09:00~18:30", "09:00~18:30", "09:00~18:30", "09:00~12:30", "-"]}, {"name": "\ub179\uc2ed\uc790\uc57d\uad6d", "lat": "35.51322722366965", "lng": "129.43051072651627", "url": "/info/%EB%85%B9%EC%8B%AD%EC%9E%90%EC%95%BD%EA%B5%AD-%EC%9A%B8%EC%82%B0%EA%B4%91%EC%97%AD%EC%8B%9C-%EB%8F%99%EA%B5%AC-%EC%A0%84%ED%95%98%EB%8F%99/", "workingTime": ["-", "09:00~18:30", "09:00~18:30", "09:00~18:30", "09:00~18:30", "09:00~18:30", "09:00~13:00", "-"]}, {"name": "\ub0a8\uc0b0\uc57d\uad6d", "lat": "35.508977777777780", "lng": "129.425822222222223", "url": "/info/%EB%82%A8%EC%82%B0%EC%95%BD%EA%B5%AD-%EC%9A%B8%EC%82%B0%EA%B4%91%EC%97%AD%EC%8B%9C-%EB%8F%99%EA%B5%AC-%EC%A0%84%ED%95%98%EB%8F%99/", "workingTime": ["-", "09:00~19:30", "09:00~19:30", "09:00~19:30", "09:00~19:30", "09:00~19:30", "09:00~17:00", "-"]}, {"name": "\uac74\uac15\ubc31\uc138\uc57d\uad6d", "lat": "35.5178023584309", "lng": "129.429982200139", "url": "/info/%EA%B1%B4%EA%B0%95%EB%B0%B1%EC%84%B8%EC%95%BD%EA%B5%AD-%EC%9A%B8%EC%82%B0%EA%B4%91%EC%97%AD%EC%8B%9C-%EB%8F%99%EA%B5%AC-%EC%A0%84%ED%95%98%EB%8F%99/", "workingTime": ["-", "08:50~18:20", "08:50~18:20", "08:50~18:20", "08:50~18:20", "08:50~18:20", "-", "-"]}, {"name": "1\ubc88\uc57d\uad6d", "lat": "35.5178023584309", "lng": "129.429982200139", "url": "/info/1%EB%B2%88%EC%95%BD%EA%B5%AD-%EC%9A%B8%EC%82%B0%EA%B4%91%EC%97%AD%EC%8B%9C-%EB%8F%99%EA%B5%AC-%EC%A0%84%ED%95%98%EB%8F%99/", "workingTime": ["-", "08:40~18:30", "08:40~18:30", "08:40~18:30", "08:40~18:30", "08:40~18:30", "-", "-"]}]