[{"name": "\uace0\ub824\uc57d\uad6d", "lat": "35.53561345389195", "lng": "129.2904945583585", "url": "/info/%EA%B3%A0%EB%A0%A4%EC%95%BD%EA%B5%AD-%EC%9A%B8%EC%82%B0%EA%B4%91%EC%97%AD%EC%8B%9C-%EB%82%A8%EA%B5%AC-%EC%98%A5%EB%8F%99/", "workingTime": ["-", "09:00~19:00", "09:00~19:00", "09:00~19:00", "09:00~19:00", "09:00~19:00", "09:00~13:00", "-"]}, {"name": "\uc11c\uc57d\uad6d", "lat": "35.53470585112488", "lng": "129.2941780736564", "url": "/info/%EC%84%9C%EC%95%BD%EA%B5%AD-%EC%9A%B8%EC%82%B0%EA%B4%91%EC%97%AD%EC%8B%9C-%EB%82%A8%EA%B5%AC-%EC%98%A5%EB%8F%99/", "workingTime": ["-", "09:00~19:00", "09:00~19:00", "09:00~19:00", "09:00~19:00", "09:00~19:00", "09:00~13:00", "-"]}, {"name": "\uc0c8\ubd80\uc0b0\uc57d\uad6d", "lat": "35.53415469221825", "lng": "129.2943519789581", "url": "/info/%EC%83%88%EB%B6%80%EC%82%B0%EC%95%BD%EA%B5%AD-%EC%9A%B8%EC%82%B0%EA%B4%91%EC%97%AD%EC%8B%9C-%EB%82%A8%EA%B5%AC-%EC%98%A5%EB%8F%99/", "workingTime": ["-", "09:00~19:00", "09:00~19:00", "09:00~19:00", "09:00~19:00", "09:00~19:00", "09:00~15:00", "-"]}, {"name": "\ub300\uc6c5\uc57d\uad6d", "lat": "35.53537565913433", "lng": "129.29022860851558", "url": "/info/%EB%8C%80%EC%9B%85%EC%95%BD%EA%B5%AD-%EC%9A%B8%EC%82%B0%EA%B4%91%EC%97%AD%EC%8B%9C-%EB%82%A8%EA%B5%AC-%EC%98%A5%EB%8F%99/", "workingTime": ["-", "09:00~19:00", "09:00~19:00", "09:00~19:00", "09:00~19:00", "09:00~19:00", "09:00~13:00", "-"]}, {"name": "\ub300\uc655\uc57d\uad6d", "lat": "35.533834237850606", "lng": "129.2961144641461", "url": "/info/%EB%8C%80%EC%99%95%EC%95%BD%EA%B5%AD-%EC%9A%B8%EC%82%B0%EA%B4%91%EC%97%AD%EC%8B%9C-%EB%82%A8%EA%B5%AC-%EC%98%A5%EB%8F%99/", "workingTime": ["1,2,3,4,5\uc9f8\uc8fc10:00~14:00", "09:00~19:00", "09:00~19:00", "09:00~19:00", "09:00~19:00", "09:00~19:00", "09:00~15:00", "-"]}, {"name": "\uc720\uc815\uc57d\uad6d", "lat": "35.53479635622248", "lng": "129.2903664661273", "url": "/info/%EC%9C%A0%EC%A0%95%EC%95%BD%EA%B5%AD-%EC%9A%B8%EC%82%B0%EA%B4%91%EC%97%AD%EC%8B%9C-%EB%82%A8%EA%B5%AC-%EC%98%A5%EB%8F%99/", "workingTime": ["-", "09:00~19:00", "09:00~19:00", "09:00~19:00", "09:00~19:00", "09:00~19:00", "09:00~14:00", "-"]}]