[{"name": "\ubd88\ub85c\uc2a4\ud0c0\uc57d\uad6d", "lat": "37.6134053924791", "lng": "126.684677107211", "url": "/info/%EB%B6%88%EB%A1%9C%EC%8A%A4%ED%83%80%EC%95%BD%EA%B5%AD-%EC%9D%B8%EC%B2%9C%EA%B4%91%EC%97%AD%EC%8B%9C-%EC%84%9C%EA%B5%AC-%EB%B6%88%EB%A1%9C%EB%8F%99/", "workingTime": ["2,3,4,5\uc9f8\uc8fc14:00~20:00", "10:00~22:00", "10:00~22:00", "10:00~22:00", "10:00~22:00", "10:00~22:00", "10:00~22:00", "14:00~20:00"]}, {"name": "\uc5f4\ub9b0\uc194\uc57d\uad6d", "lat": "37.6135455332022", "lng": "126.68563674143757", "url": "/info/%EC%97%B4%EB%A6%B0%EC%86%94%EC%95%BD%EA%B5%AD-%EC%9D%B8%EC%B2%9C%EA%B4%91%EC%97%AD%EC%8B%9C-%EC%84%9C%EA%B5%AC-%EB%B6%88%EB%A1%9C%EB%8F%99/", "workingTime": ["-", "09:00~14:00", "09:00~14:00", "09:00~14:00", "09:00~14:00", "09:00~14:00", "09:00~14:00", "-"]}, {"name": "\uc724\uc57d\uad6d", "lat": "37.6126862259", "lng": "126.6864014633", "url": "/info/%EC%9C%A4%EC%95%BD%EA%B5%AD-%EC%9D%B8%EC%B2%9C%EA%B4%91%EC%97%AD%EC%8B%9C-%EC%84%9C%EA%B5%AC-%EB%B6%88%EB%A1%9C%EB%8F%99/", "workingTime": ["-", "09:00~15:00", "09:00~15:00", "09:00~15:00", "09:00~15:00", "09:00~15:00", "09:00~15:00", "-"]}, {"name": "\uc870\uc740\ub098\ub77c\uc57d\uad6d", "lat": "37.6186265715", "lng": "126.6908981981", "url": "/info/%EC%A1%B0%EC%9D%80%EB%82%98%EB%9D%BC%EC%95%BD%EA%B5%AD-%EC%9D%B8%EC%B2%9C%EA%B4%91%EC%97%AD%EC%8B%9C-%EC%84%9C%EA%B5%AC-%EB%B6%88%EB%A1%9C%EB%8F%99/", "workingTime": ["-", "09:00~19:00", "09:00~19:00", "09:00~19:00", "09:00~19:00", "09:00~19:00", "09:00~13:00", "-"]}, {"name": "\uc131\uc2ec\uc57d\uad6d", "lat": "37.61327274872298", "lng": "126.68601588427843", "url": "/info/%EC%84%B1%EC%8B%AC%EC%95%BD%EA%B5%AD-%EC%9D%B8%EC%B2%9C%EA%B4%91%EC%97%AD%EC%8B%9C-%EC%84%9C%EA%B5%AC-%EB%B6%88%EB%A1%9C%EB%8F%99/", "workingTime": ["-", "09:00~15:00", "09:00~15:00", "09:00~15:00", "09:00~15:00", "09:00~15:00", "09:00~15:00", "-"]}, {"name": "\ucc38\uc0ac\ub791\uc57d\uad6d", "lat": "37.61870261951766", "lng": "126.69099031770968", "url": "/info/%EC%B0%B8%EC%82%AC%EB%9E%91%EC%95%BD%EA%B5%AD-%EC%9D%B8%EC%B2%9C%EA%B4%91%EC%97%AD%EC%8B%9C-%EC%84%9C%EA%B5%AC-%EB%B6%88%EB%A1%9C%EB%8F%99/", "workingTime": ["-", "09:00~13:00", "09:00~13:00", "09:00~13:00", "09:00~13:00", "09:00~13:00", "09:00~13:00", "-"]}]