[{"name": "\ub3d9\uc554\ud504\ub77c\uc790\uc57d\uad6d", "lat": "37.47259705392441", "lng": "126.70080668842172", "url": "/info/%EB%8F%99%EC%95%94%ED%94%84%EB%9D%BC%EC%9E%90%EC%95%BD%EA%B5%AD-%EC%9D%B8%EC%B2%9C%EA%B4%91%EC%97%AD%EC%8B%9C-%EB%B6%80%ED%8F%89%EA%B5%AC-%EC%8B%AD%EC%A0%95%EB%8F%99/", "workingTime": ["1,2,3,4,5\uc9f8\uc8fc00:00~22:00", "09:00~24:00", "00:00~24:00", "00:00~24:00", "00:00~24:00", "00:00~24:00", "00:00~24:00", "09:00~22:00"]}, {"name": "\ub3d9\uc554\uc870\uc740\uc57d\uad6d", "lat": "37.4746366986633", "lng": "126.696717736081", "url": "/info/%EB%8F%99%EC%95%94%EC%A1%B0%EC%9D%80%EC%95%BD%EA%B5%AD-%EC%9D%B8%EC%B2%9C%EA%B4%91%EC%97%AD%EC%8B%9C-%EB%B6%80%ED%8F%89%EA%B5%AC-%EC%8B%AD%EC%A0%95%EB%8F%99/", "workingTime": ["-", "09:00~18:30", "09:00~18:30", "09:00~18:30", "09:00~18:30", "09:00~18:30", "09:00~13:00", "-"]}, {"name": "\ub3d9\uc554\uc628\ub204\ub9ac\uc57d\uad6d", "lat": "37.474376262924714", "lng": "126.69892295620467", "url": "/info/%EB%8F%99%EC%95%94%EC%98%A8%EB%88%84%EB%A6%AC%EC%95%BD%EA%B5%AD-%EC%9D%B8%EC%B2%9C%EA%B4%91%EC%97%AD%EC%8B%9C-%EB%B6%80%ED%8F%89%EA%B5%AC-%EC%8B%AD%EC%A0%95%EB%8F%99/", "workingTime": ["-", "09:00~13:00", "09:00~13:00", "09:00~13:00", "09:00~13:00", "09:00~13:00", "09:00~24:00", "09:00~13:00"]}, {"name": "\ub3d9\uc554\uc2a4\ud0c0\uc57d\uad6d", "lat": "37.4715754718279", "lng": "126.702329518124", "url": "/info/%EB%8F%99%EC%95%94%EC%8A%A4%ED%83%80%EC%95%BD%EA%B5%AD-%EC%9D%B8%EC%B2%9C%EA%B4%91%EC%97%AD%EC%8B%9C-%EB%B6%80%ED%8F%89%EA%B5%AC-%EC%8B%AD%EC%A0%95%EB%8F%99/", "workingTime": ["-", "10:00~18:00", "10:00~18:00", "10:00~18:00", "10:00~18:00", "10:00~18:00", "-", "-"]}, {"name": "\ub3d9\uc554\uc218\uc57d\uad6d", "lat": "37.4715630681544", "lng": "126.703488292562", "url": "/info/%EB%8F%99%EC%95%94%EC%88%98%EC%95%BD%EA%B5%AD-%EC%9D%B8%EC%B2%9C%EA%B4%91%EC%97%AD%EC%8B%9C-%EB%B6%80%ED%8F%89%EA%B5%AC-%EC%8B%AD%EC%A0%95%EB%8F%99/", "workingTime": ["-", "09:00~21:00", "09:00~21:00", "09:00~21:00", "09:00~21:00", "09:00~21:00", "09:00~14:00", "-"]}, {"name": "\ub3d9\uc554\uad11\uc7a5\uc57d\uad6d", "lat": "37.4715180514058", "lng": "126.702605352703", "url": "/info/%EB%8F%99%EC%95%94%EA%B4%91%EC%9E%A5%EC%95%BD%EA%B5%AD-%EC%9D%B8%EC%B2%9C%EA%B4%91%EC%97%AD%EC%8B%9C-%EB%B6%80%ED%8F%89%EA%B5%AC-%EC%8B%AD%EC%A0%95%EB%8F%99/", "workingTime": ["-", "10:00~18:00", "10:00~18:00", "10:00~18:00", "10:00~18:00", "10:00~18:00", "-", "-"]}, {"name": "\ubc14\ub978\uc57d\uad6d", "lat": "37.470768303191335", "lng": "126.70163240418015", "url": "/info/%EB%B0%94%EB%A5%B8%EC%95%BD%EA%B5%AD-%EC%9D%B8%EC%B2%9C%EA%B4%91%EC%97%AD%EC%8B%9C-%EB%B6%80%ED%8F%89%EA%B5%AC-%EC%8B%AD%EC%A0%95%EB%8F%99/", "workingTime": ["-", "07:00~22:00", "07:00~22:00", "07:00~22:00", "07:00~22:00", "07:00~22:00", "10:00~22:00", "-"]}, {"name": "\uac74\uac15\ud55c\uc57d\uad6d", "lat": "37.470890478615296", "lng": "126.70375732066097", "url": "/info/%EA%B1%B4%EA%B0%95%ED%95%9C%EC%95%BD%EA%B5%AD-%EC%9D%B8%EC%B2%9C%EA%B4%91%EC%97%AD%EC%8B%9C-%EB%B6%80%ED%8F%89%EA%B5%AC-%EC%8B%AD%EC%A0%95%EB%8F%99/", "workingTime": ["-", "09:00~09:30", "09:00~09:30", "09:00~09:30", "09:00~09:30", "09:00~09:30", "09:00~20:00", "-"]}, {"name": "\ud669\uc57d\uad6d", "lat": "37.486034750851594", "lng": "126.70819278339914", "url": "/info/%ED%99%A9%EC%95%BD%EA%B5%AD-%EC%9D%B8%EC%B2%9C%EA%B4%91%EC%97%AD%EC%8B%9C-%EB%B6%80%ED%8F%89%EA%B5%AC-%EC%8B%AD%EC%A0%95%EB%8F%99/", "workingTime": ["-", "09:00~15:00", "09:00~15:00", "09:00~15:00", "09:00~15:00", "09:00~15:00", "-", "10:00~21:00"]}, {"name": "\ud574\ub9d1\uc740\uc57d\uad6d", "lat": "37.48073461048277", "lng": "126.700674752147", "url": "/info/%ED%95%B4%EB%A7%91%EC%9D%80%EC%95%BD%EA%B5%AD-%EC%9D%B8%EC%B2%9C%EA%B4%91%EC%97%AD%EC%8B%9C-%EB%B6%80%ED%8F%89%EA%B5%AC-%EC%8B%AD%EC%A0%95%EB%8F%99/", "workingTime": ["-", "09:00~20:00", "09:00~20:00", "09:00~20:00", "09:00~20:00", "09:00~20:00", "09:00~16:00", "-"]}, {"name": "\uc2ed\uc815\uc2dc\uc7a5\uc57d\uad6d", "lat": "37.47351974757799", "lng": "126.69605055708448", "url": "/info/%EC%8B%AD%EC%A0%95%EC%8B%9C%EC%9E%A5%EC%95%BD%EA%B5%AD-%EC%9D%B8%EC%B2%9C%EA%B4%91%EC%97%AD%EC%8B%9C-%EB%B6%80%ED%8F%89%EA%B5%AC-%EC%8B%AD%EC%A0%95%EB%8F%99/", "workingTime": ["-", "10:00~19:00", "10:00~19:00", "10:00~19:00", "10:00~19:00", "10:00~19:00", "09:00~20:00", "10:00~21:00"]}, {"name": "\uc2ed\uc815\uc57d\uad6d", "lat": "37.47335092096766", "lng": "126.69610875650446", "url": "/info/%EC%8B%AD%EC%A0%95%EC%95%BD%EA%B5%AD-%EC%9D%B8%EC%B2%9C%EA%B4%91%EC%97%AD%EC%8B%9C-%EB%B6%80%ED%8F%89%EA%B5%AC-%EC%8B%AD%EC%A0%95%EB%8F%99/", "workingTime": ["-", "09:00~20:30", "09:00~20:30", "09:00~20:30", "09:00~20:30", "09:00~20:30", "09:00~21:00", "-"]}, {"name": "\uc5f4\ub9b0\uc57d\uad6d", "lat": "37.47285940074073", "lng": "126.70051171707344", "url": "/info/%EC%97%B4%EB%A6%B0%EC%95%BD%EA%B5%AD-%EC%9D%B8%EC%B2%9C%EA%B4%91%EC%97%AD%EC%8B%9C-%EB%B6%80%ED%8F%89%EA%B5%AC-%EC%8B%AD%EC%A0%95%EB%8F%99/", "workingTime": ["-", "09:00~20:00", "09:00~20:00", "09:00~20:00", "09:00~20:00", "09:00~20:00", "09:00~18:00", "-"]}, {"name": "\ud478\ub978\uc57d\uad6d", "lat": "37.475783256162025", "lng": "126.6961272646023", "url": "/info/%ED%91%B8%EB%A5%B8%EC%95%BD%EA%B5%AD-%EC%9D%B8%EC%B2%9C%EA%B4%91%EC%97%AD%EC%8B%9C-%EB%B6%80%ED%8F%89%EA%B5%AC-%EC%8B%AD%EC%A0%95%EB%8F%99/", "workingTime": ["-", "09:00~20:00", "09:00~20:00", "09:00~20:00", "09:00~20:00", "09:00~20:00", "09:00~15:00", "-"]}, {"name": "\uc6a9\ud55c\uc57d\uad6d", "lat": "37.47318459620363", "lng": "126.70084052202661", "url": "/info/%EC%9A%A9%ED%95%9C%EC%95%BD%EA%B5%AD-%EC%9D%B8%EC%B2%9C%EA%B4%91%EC%97%AD%EC%8B%9C-%EB%B6%80%ED%8F%89%EA%B5%AC-%EC%8B%AD%EC%A0%95%EB%8F%99/", "workingTime": ["-", "09:00~22:30", "09:00~22:30", "09:00~22:30", "09:00~22:30", "09:00~22:30", "09:00~23:00", "09:00~23:00"]}, {"name": "\uc18c\ub9dd\uc57d\uad6d", "lat": "37.472098760168286", "lng": "126.7004333376211", "url": "/info/%EC%86%8C%EB%A7%9D%EC%95%BD%EA%B5%AD-%EC%9D%B8%EC%B2%9C%EA%B4%91%EC%97%AD%EC%8B%9C-%EB%B6%80%ED%8F%89%EA%B5%AC-%EC%8B%AD%EC%A0%95%EB%8F%99/", "workingTime": ["-", "09:00~20:30", "09:00~20:30", "09:00~20:30", "09:00~20:30", "09:00~20:30", "09:00~17:00", "-"]}, {"name": "\ubca7\uc5d8\uc57d\uad6d", "lat": "37.472339747438724", "lng": "126.7053749215005", "url": "/info/%EB%B2%A7%EC%97%98%EC%95%BD%EA%B5%AD-%EC%9D%B8%EC%B2%9C%EA%B4%91%EC%97%AD%EC%8B%9C-%EB%B6%80%ED%8F%89%EA%B5%AC-%EC%8B%AD%EC%A0%95%EB%8F%99/", "workingTime": ["-", "09:00~21:00", "09:00~21:00", "09:00~21:00", "09:00~21:00", "09:00~21:00", "09:00~21:00", "09:00~22:00"]}, {"name": "\ub3d9\uc554\uba54\ub514\uce7c\uc57d\uad6d", "lat": "37.47240769739763", "lng": "126.70003871931183", "url": "/info/%EB%8F%99%EC%95%94%EB%A9%94%EB%94%94%EC%B9%BC%EC%95%BD%EA%B5%AD-%EC%9D%B8%EC%B2%9C%EA%B4%91%EC%97%AD%EC%8B%9C-%EB%B6%80%ED%8F%89%EA%B5%AC-%EC%8B%AD%EC%A0%95%EB%8F%99/", "workingTime": ["-", "09:00~15:00", "09:00~15:00", "09:00~15:00", "09:00~15:00", "09:00~15:00", "-", "-"]}]