[{"name": "\ud604\ub300\uc628\ub204\ub9ac\uc57d\uad6d", "lat": "37.424527777777776", "lng": "126.646563888888892", "url": "/info/%ED%98%84%EB%8C%80%EC%98%A8%EB%88%84%EB%A6%AC%EC%95%BD%EA%B5%AD-%EC%9D%B8%EC%B2%9C%EA%B4%91%EC%97%AD%EC%8B%9C-%EC%97%B0%EC%88%98%EA%B5%AC-%EC%98%A5%EB%A0%A8%EB%8F%99/", "workingTime": ["-", "14:00~20:00", "14:00~20:00", "14:00~20:00", "14:00~20:00", "14:00~20:00", "09:00~18:00", "09:00~13:00"]}, {"name": "\ubcf4\ub8e1\uc57d\uad6d", "lat": "37.424608333333332", "lng": "126.647397222222224", "url": "/info/%EB%B3%B4%EB%A3%A1%EC%95%BD%EA%B5%AD-%EC%9D%B8%EC%B2%9C%EA%B4%91%EC%97%AD%EC%8B%9C-%EC%97%B0%EC%88%98%EA%B5%AC-%EC%98%A5%EB%A0%A8%EB%8F%99/", "workingTime": ["-", "09:30~19:00", "09:30~19:00", "09:30~19:00", "09:30~19:00", "09:30~19:00", "09:00~19:00", "09:00~21:00"]}, {"name": "\ub3d9\uc758\ub2f9\uc57d\uad6d", "lat": "37.424679312950346", "lng": "126.64776328830345", "url": "/info/%EB%8F%99%EC%9D%98%EB%8B%B9%EC%95%BD%EA%B5%AD-%EC%9D%B8%EC%B2%9C%EA%B4%91%EC%97%AD%EC%8B%9C-%EC%97%B0%EC%88%98%EA%B5%AC-%EC%98%A5%EB%A0%A8%EB%8F%99/", "workingTime": ["3\uc9f8\uc8fc14:00~20:00", "09:00~21:30", "09:00~21:30", "09:00~21:30", "09:00~21:30", "09:00~21:30", "09:00~20:30", "14:00~20:00"]}, {"name": "\ubc31\ud654\uc810\uc628\ub204\ub9ac\uc57d\uad6d", "lat": "37.42744191380552", "lng": "126.65778884231334", "url": "/info/%EB%B0%B1%ED%99%94%EC%A0%90%EC%98%A8%EB%88%84%EB%A6%AC%EC%95%BD%EA%B5%AD-%EC%9D%B8%EC%B2%9C%EA%B4%91%EC%97%AD%EC%8B%9C-%EC%97%B0%EC%88%98%EA%B5%AC-%EC%98%A5%EB%A0%A8%EB%8F%99/", "workingTime": ["-", "09:00~20:00", "09:00~20:00", "09:00~20:00", "09:00~20:00", "09:00~20:00", "09:00~22:30", "-"]}, {"name": "\ud55c\uc194\ud504\ub77c\uc790\uc57d\uad6d", "lat": "37.424427561624526", "lng": "126.64433001879047", "url": "/info/%ED%95%9C%EC%86%94%ED%94%84%EB%9D%BC%EC%9E%90%EC%95%BD%EA%B5%AD-%EC%9D%B8%EC%B2%9C%EA%B4%91%EC%97%AD%EC%8B%9C-%EC%97%B0%EC%88%98%EA%B5%AC-%EC%98%A5%EB%A0%A8%EB%8F%99/", "workingTime": ["-", "09:00~18:00", "09:00~18:00", "09:00~18:00", "09:00~18:00", "09:00~18:00", "09:00~21:00", "-"]}, {"name": "\uc1a1\ub3c4\uc57d\uad6d", "lat": "37.426609926745854", "lng": "126.65717665821341", "url": "/info/%EC%86%A1%EB%8F%84%EC%95%BD%EA%B5%AD-%EC%9D%B8%EC%B2%9C%EA%B4%91%EC%97%AD%EC%8B%9C-%EC%97%B0%EC%88%98%EA%B5%AC-%EC%98%A5%EB%A0%A8%EB%8F%99/", "workingTime": ["-", "08:30~21:00", "08:30~21:00", "08:30~21:00", "08:30~21:00", "08:30~21:00", "08:30~20:00", "08:30~21:00"]}, {"name": "\uc1a1\ub3c4\ud504\ub77c\uc790\uc57d\uad6d", "lat": "37.42643710487127", "lng": "126.65723619497117", "url": "/info/%EC%86%A1%EB%8F%84%ED%94%84%EB%9D%BC%EC%9E%90%EC%95%BD%EA%B5%AD-%EC%9D%B8%EC%B2%9C%EA%B4%91%EC%97%AD%EC%8B%9C-%EC%97%B0%EC%88%98%EA%B5%AC-%EC%98%A5%EB%A0%A8%EB%8F%99/", "workingTime": ["-", "08:30~21:00", "08:30~21:00", "08:30~21:00", "08:30~21:00", "08:30~21:00", "08:30~19:00", "-"]}, {"name": "\ubbf8\ub798\ud31c\uc57d\uad6d", "lat": "37.424525000000003", "lng": "126.644811111111110", "url": "/info/%EB%AF%B8%EB%9E%98%ED%8C%9C%EC%95%BD%EA%B5%AD-%EC%9D%B8%EC%B2%9C%EA%B4%91%EC%97%AD%EC%8B%9C-%EC%97%B0%EC%88%98%EA%B5%AC-%EC%98%A5%EB%A0%A8%EB%8F%99/", "workingTime": ["09:00~15:00(\uc5f0\ub77d\ud6c4\ubc29\ubb38\uc694\ub9dd)", "08:00~17:00", "08:00~17:00", "08:00~17:00", "08:00~17:00", "08:00~17:00", "08:00~17:00", "-"]}, {"name": "\uac74\uac15\ub098\ub77c\uc57d\uad6d", "lat": "37.42452634376416", "lng": "126.64563707140573", "url": "/info/%EA%B1%B4%EA%B0%95%EB%82%98%EB%9D%BC%EC%95%BD%EA%B5%AD-%EC%9D%B8%EC%B2%9C%EA%B4%91%EC%97%AD%EC%8B%9C-%EC%97%B0%EC%88%98%EA%B5%AC-%EC%98%A5%EB%A0%A8%EB%8F%99/", "workingTime": ["09:00~13:00(\uc5f0\ub77d\ud6c4\ubc29\ubb38\uc694\ub9dd)", "09:00~21:00", "09:00~21:00", "09:00~21:00", "09:00~21:00", "09:00~21:00", "08:30~19:00", "-"]}, {"name": "\uc1a1\ub3c4\uba54\ub514\uce7c\uc57d\uad6d", "lat": "37.42454205512689", "lng": "126.64726834952734", "url": "/info/%EC%86%A1%EB%8F%84%EB%A9%94%EB%94%94%EC%B9%BC%EC%95%BD%EA%B5%AD-%EC%9D%B8%EC%B2%9C%EA%B4%91%EC%97%AD%EC%8B%9C-%EC%97%B0%EC%88%98%EA%B5%AC-%EC%98%A5%EB%A0%A8%EB%8F%99/", "workingTime": ["09:00~16:00(\uc5f0\ub77d\ud6c4\ubc29\ubb38\uc694\ub9dd)", "08:00~13:00", "08:00~13:00", "08:00~13:00", "08:00~13:00", "08:00~13:00", "08:00~16:00", "09:00~16:00"]}]