[{"name": "\uccad\ub77c\ube44\uc83c\uc57d\uad6d", "lat": "37.5325659232", "lng": "126.6502795605", "url": "/info/%EC%B2%AD%EB%9D%BC%EB%B9%84%EC%A0%BC%EC%95%BD%EA%B5%AD-%EC%9D%B8%EC%B2%9C%EA%B4%91%EC%97%AD%EC%8B%9C-%EC%84%9C%EA%B5%AC-%EC%97%B0%ED%9D%AC%EB%8F%99/", "workingTime": ["-", "09:00~21:30", "09:00~20:00", "09:00~21:30", "09:00~19:30", "09:00~21:30", "09:00~16:30", "-"]}, {"name": "\uc0ac\ub791\uc57d\uad6d", "lat": "37.53565568990344", "lng": "126.65300245996347", "url": "/info/%EC%82%AC%EB%9E%91%EC%95%BD%EA%B5%AD-%EC%9D%B8%EC%B2%9C%EA%B4%91%EC%97%AD%EC%8B%9C-%EC%84%9C%EA%B5%AC-%EC%97%B0%ED%9D%AC%EB%8F%99/", "workingTime": ["-", "09:00~20:00", "09:00~20:00", "09:00~20:00", "09:00~20:00", "09:00~20:00", "09:00~15:00", "-"]}, {"name": "\ud55c\ub9c8\uc74c\uc628\ub204\ub9ac\uc57d\uad6d", "lat": "37.5492993845298", "lng": "126.67671667935213", "url": "/info/%ED%95%9C%EB%A7%88%EC%9D%8C%EC%98%A8%EB%88%84%EB%A6%AC%EC%95%BD%EA%B5%AD-%EC%9D%B8%EC%B2%9C%EA%B4%91%EC%97%AD%EC%8B%9C-%EC%84%9C%EA%B5%AC-%EC%97%B0%ED%9D%AC%EB%8F%99/", "workingTime": ["-", "09:00~20:30", "09:00~20:30", "09:00~20:30", "09:00~20:30", "09:00~20:30", "09:00~17:00", "09:00~12:30"]}, {"name": "\uccad\ub77c\ubbf8\ub798\uc57d\uad6d", "lat": "37.5334092043", "lng": "126.650262046", "url": "/info/%EC%B2%AD%EB%9D%BC%EB%AF%B8%EB%9E%98%EC%95%BD%EA%B5%AD-%EC%9D%B8%EC%B2%9C%EA%B4%91%EC%97%AD%EC%8B%9C-%EC%84%9C%EA%B5%AC-%EC%97%B0%ED%9D%AC%EB%8F%99/", "workingTime": ["1,2,3,4,5\uc9f8\uc8fc10:00~13:00", "10:00~13:00", "10:00~13:00", "10:00~13:00", "10:00~13:00", "10:00~13:00", "09:00~17:30", "-"]}, {"name": "\ubc31\uc81c\ub2f9\uc57d\uad6d", "lat": "37.5493647412", "lng": "126.6757670203", "url": "/info/%EB%B0%B1%EC%A0%9C%EB%8B%B9%EC%95%BD%EA%B5%AD-%EC%9D%B8%EC%B2%9C%EA%B4%91%EC%97%AD%EC%8B%9C-%EC%84%9C%EA%B5%AC-%EC%97%B0%ED%9D%AC%EB%8F%99/", "workingTime": ["-", "08:30~20:00", "08:30~20:00", "08:30~20:00", "08:30~20:00", "08:30~20:00", "08:30~16:00", "-"]}, {"name": "\uc5f0\uc138\uc628\ub204\ub9ac\uc57d\uad6d", "lat": "37.550328513948045", "lng": "126.6736987131353", "url": "/info/%EC%97%B0%EC%84%B8%EC%98%A8%EB%88%84%EB%A6%AC%EC%95%BD%EA%B5%AD-%EC%9D%B8%EC%B2%9C%EA%B4%91%EC%97%AD%EC%8B%9C-%EC%84%9C%EA%B5%AC-%EC%97%B0%ED%9D%AC%EB%8F%99/", "workingTime": ["2,4\uc9f8\uc8fc09:00~22:00", "08:00~22:00", "08:00~22:00", "08:00~22:00", "08:00~22:00", "08:00~22:00", "08:00~22:00", "-"]}, {"name": "\ub300\uba85\uc57d\uad6d", "lat": "37.53394678047575", "lng": "126.65290249344922", "url": "/info/%EB%8C%80%EB%AA%85%EC%95%BD%EA%B5%AD-%EC%9D%B8%EC%B2%9C%EA%B4%91%EC%97%AD%EC%8B%9C-%EC%84%9C%EA%B5%AC-%EC%97%B0%ED%9D%AC%EB%8F%99/", "workingTime": ["09:00~20:00(\uc5f0\ub77d\ud6c4\ubc29\ubb38\uc694\ub9dd)", "09:00~20:00", "09:00~20:00", "09:00~20:00", "09:00~20:00", "09:00~20:00", "09:00~21:00", "-"]}, {"name": "\uc5f0\ud76c\uc5f0\uc138\uc57d\uad6d", "lat": "37.5505643253627", "lng": "126.67409029905943", "url": "/info/%EC%97%B0%ED%9D%AC%EC%97%B0%EC%84%B8%EC%95%BD%EA%B5%AD-%EC%9D%B8%EC%B2%9C%EA%B4%91%EC%97%AD%EC%8B%9C-%EC%84%9C%EA%B5%AC-%EC%97%B0%ED%9D%AC%EB%8F%99/", "workingTime": ["2,4\uc9f8\uc8fc09:00~21:00", "09:00~21:00", "09:00~21:00", "09:00~21:00", "09:00~21:00", "09:00~21:00", "09:00~21:00", "09:00~21:00"]}, {"name": "\uc0c8\uc5f0\ud76c\uc57d\uad6d", "lat": "37.549461032256225", "lng": "126.67671267343235", "url": "/info/%EC%83%88%EC%97%B0%ED%9D%AC%EC%95%BD%EA%B5%AD-%EC%9D%B8%EC%B2%9C%EA%B4%91%EC%97%AD%EC%8B%9C-%EC%84%9C%EA%B5%AC-%EC%97%B0%ED%9D%AC%EB%8F%99/", "workingTime": ["10:00~20:00(\uc5f0\ub77d\ud6c4\ubc29\ubb38\uc694\ub9dd)", "08:00~20:00", "08:00~20:00", "08:00~20:00", "08:00~20:00", "08:00~20:00", "08:00~15:00", "09:00~18:00"]}]