[{"name": "\ub3d9\uc778\ucc9c\uc57d\uad6d", "lat": "37.42578628493147", "lng": "126.6995118601098", "url": "/info/%EB%8F%99%EC%9D%B8%EC%B2%9C%EC%95%BD%EA%B5%AD-%EC%9D%B8%EC%B2%9C%EA%B4%91%EC%97%AD%EC%8B%9C-%EC%97%B0%EC%88%98%EA%B5%AC-%EC%84%A0%ED%95%99%EB%8F%99/", "workingTime": ["-", "09:00~17:00", "09:00~17:00", "09:00~17:00", "09:00~17:00", "09:00~17:00", "09:00~21:00", "-"]}, {"name": "\uac74\uac15\ubc31\uc138\uc57d\uad6d", "lat": "37.42358275766274", "lng": "126.69683533732052", "url": "/info/%EA%B1%B4%EA%B0%95%EB%B0%B1%EC%84%B8%EC%95%BD%EA%B5%AD-%EC%9D%B8%EC%B2%9C%EA%B4%91%EC%97%AD%EC%8B%9C-%EC%97%B0%EC%88%98%EA%B5%AC-%EC%84%A0%ED%95%99%EB%8F%99/", "workingTime": ["1,2,3,4,5\uc9f8\uc8fc09:00~15:00", "09:00~22:00", "09:00~22:00", "09:00~22:00", "09:00~22:00", "09:00~22:00", "09:00~21:00", "09:00~21:00"]}, {"name": "\uc5f0\uc218\ubc14\ub978\uc57d\uad6d", "lat": "37.42394276363091", "lng": "126.69667570094376", "url": "/info/%EC%97%B0%EC%88%98%EB%B0%94%EB%A5%B8%EC%95%BD%EA%B5%AD-%EC%9D%B8%EC%B2%9C%EA%B4%91%EC%97%AD%EC%8B%9C-%EC%97%B0%EC%88%98%EA%B5%AC-%EC%84%A0%ED%95%99%EB%8F%99/", "workingTime": ["-", "09:00~21:00", "09:00~21:00", "09:00~21:00", "09:00~21:00", "09:00~21:00", "09:00~16:00", "-"]}, {"name": "\ub300\ub3d9\uc57d\uad6d", "lat": "37.42355624165659", "lng": "126.70126060408367", "url": "/info/%EB%8C%80%EB%8F%99%EC%95%BD%EA%B5%AD-%EC%9D%B8%EC%B2%9C%EA%B4%91%EC%97%AD%EC%8B%9C-%EC%97%B0%EC%88%98%EA%B5%AC-%EC%84%A0%ED%95%99%EB%8F%99/", "workingTime": ["-", "09:00~13:00", "09:00~13:00", "09:00~13:00", "09:00~13:00", "09:00~13:00", "09:00~15:00", "-"]}, {"name": "\uc724\uc57d\uad6d", "lat": "37.42803245677512", "lng": "126.69844082655237", "url": "/info/%EC%9C%A4%EC%95%BD%EA%B5%AD-%EC%9D%B8%EC%B2%9C%EA%B4%91%EC%97%AD%EC%8B%9C-%EC%97%B0%EC%88%98%EA%B5%AC-%EC%84%A0%ED%95%99%EB%8F%99/", "workingTime": ["-", "09:00~21:00", "09:00~21:00", "09:00~21:00", "09:00~21:00", "09:00~21:00", "09:00~21:30", "09:00~19:30"]}, {"name": "\uc778\ud654\uc57d\uad6d", "lat": "37.42353236718055", "lng": "126.69371519601425", "url": "/info/%EC%9D%B8%ED%99%94%EC%95%BD%EA%B5%AD-%EC%9D%B8%EC%B2%9C%EA%B4%91%EC%97%AD%EC%8B%9C-%EC%97%B0%EC%88%98%EA%B5%AC-%EC%84%A0%ED%95%99%EB%8F%99/", "workingTime": ["-", "09:30~22:00", "09:30~22:00", "09:30~22:00", "09:30~22:00", "09:30~22:00", "09:30~14:00", "-"]}]