[{"name": "\ud6a8\uc131\ud604\ub300\uc57d\uad6d", "lat": "37.5265458489692", "lng": "126.716838627857", "url": "/info/%ED%9A%A8%EC%84%B1%ED%98%84%EB%8C%80%EC%95%BD%EA%B5%AD-%EC%9D%B8%EC%B2%9C%EA%B4%91%EC%97%AD%EC%8B%9C-%EA%B3%84%EC%96%91%EA%B5%AC-%ED%9A%A8%EC%84%B1%EB%8F%99/", "workingTime": ["-", "10:00~17:30", "10:00~17:30", "10:00~17:30", "10:00~17:30", "10:00~17:30", "-", "-"]}, {"name": "\uadf8\ub9b0\ud504\ub77c\uc790\uc57d\uad6d", "lat": "37.5287497746013", "lng": "126.71138336060096", "url": "/info/%EA%B7%B8%EB%A6%B0%ED%94%84%EB%9D%BC%EC%9E%90%EC%95%BD%EA%B5%AD-%EC%9D%B8%EC%B2%9C%EA%B4%91%EC%97%AD%EC%8B%9C-%EA%B3%84%EC%96%91%EA%B5%AC-%ED%9A%A8%EC%84%B1%EB%8F%99/", "workingTime": ["-", "09:00~14:00", "09:00~14:00", "09:00~14:00", "09:00~14:00", "09:00~14:00", "09:00~14:00", "-"]}, {"name": "\uba85\ubb38\uc57d\uad6d", "lat": "37.525474937621055", "lng": "126.71333277326474", "url": "/info/%EB%AA%85%EB%AC%B8%EC%95%BD%EA%B5%AD-%EC%9D%B8%EC%B2%9C%EA%B4%91%EC%97%AD%EC%8B%9C-%EA%B3%84%EC%96%91%EA%B5%AC-%ED%9A%A8%EC%84%B1%EB%8F%99/", "workingTime": ["-", "09:00~15:00", "09:00~15:00", "09:00~15:00", "09:00~15:00", "09:00~15:00", "09:00~15:00", "-"]}, {"name": "\ubaa8\ubc94\uc57d\uad6d", "lat": "37.52773391041257", "lng": "126.71156830321691", "url": "/info/%EB%AA%A8%EB%B2%94%EC%95%BD%EA%B5%AD-%EC%9D%B8%EC%B2%9C%EA%B4%91%EC%97%AD%EC%8B%9C-%EA%B3%84%EC%96%91%EA%B5%AC-%ED%9A%A8%EC%84%B1%EB%8F%99/", "workingTime": ["-", "09:00~22:00", "09:00~22:00", "09:00~22:00", "09:00~22:00", "09:00~22:00", "09:00~22:00", "09:00~22:00"]}, {"name": "\ubd04\uc57d\uad6d", "lat": "37.53188458751355", "lng": "126.71010068747259", "url": "/info/%EB%B4%84%EC%95%BD%EA%B5%AD-%EC%9D%B8%EC%B2%9C%EA%B4%91%EC%97%AD%EC%8B%9C-%EA%B3%84%EC%96%91%EA%B5%AC-%ED%9A%A8%EC%84%B1%EB%8F%99/", "workingTime": ["-", "09:00~15:00", "09:00~15:00", "09:00~15:00", "09:00~15:00", "09:00~15:00", "09:00~15:00", "-"]}, {"name": "\ud6a8\uc131\ud504\ub77c\uc790\uc57d\uad6d", "lat": "37.5319230004", "lng": "126.7110689952", "url": "/info/%ED%9A%A8%EC%84%B1%ED%94%84%EB%9D%BC%EC%9E%90%EC%95%BD%EA%B5%AD-%EC%9D%B8%EC%B2%9C%EA%B4%91%EC%97%AD%EC%8B%9C-%EA%B3%84%EC%96%91%EA%B5%AC-%ED%9A%A8%EC%84%B1%EB%8F%99/", "workingTime": ["1,2,3,4,5\uc9f8\uc8fc08:30~22:00", "09:30~22:00", "09:30~22:00", "09:30~22:00", "09:30~22:00", "09:30~22:00", "09:30~22:00", "10:00~21:30"]}, {"name": "\uc0c8\uc720\uc9c4\uc57d\uad6d", "lat": "37.53411462026549", "lng": "126.70976170516115", "url": "/info/%EC%83%88%EC%9C%A0%EC%A7%84%EC%95%BD%EA%B5%AD-%EC%9D%B8%EC%B2%9C%EA%B4%91%EC%97%AD%EC%8B%9C-%EA%B3%84%EC%96%91%EA%B5%AC-%ED%9A%A8%EC%84%B1%EB%8F%99/", "workingTime": ["-", "09:00~20:00", "09:00~20:00", "09:00~20:00", "09:00~20:00", "09:00~20:00", "09:00~13:00", "10:00~22:00"]}, {"name": "\uc544\ub984\ub2e4\uc6b4\uc57d\uad6d", "lat": "37.5281712479", "lng": "126.7170251473", "url": "/info/%EC%95%84%EB%A6%84%EB%8B%A4%EC%9A%B4%EC%95%BD%EA%B5%AD-%EC%9D%B8%EC%B2%9C%EA%B4%91%EC%97%AD%EC%8B%9C-%EA%B3%84%EC%96%91%EA%B5%AC-%ED%9A%A8%EC%84%B1%EB%8F%99/", "workingTime": ["-", "09:00~19:30", "09:00~19:30", "09:00~19:30", "09:00~19:30", "09:00~19:30", "09:00~13:30", "-"]}, {"name": "\uc73c\ub738\uc57d\uad6d", "lat": "37.527810568523556", "lng": "126.71640998338262", "url": "/info/%EC%9C%BC%EB%9C%B8%EC%95%BD%EA%B5%AD-%EC%9D%B8%EC%B2%9C%EA%B4%91%EC%97%AD%EC%8B%9C-%EA%B3%84%EC%96%91%EA%B5%AC-%ED%9A%A8%EC%84%B1%EB%8F%99/", "workingTime": ["-", "09:30~19:00", "09:30~19:00", "09:30~19:00", "09:30~19:00", "09:30~19:00", "09:30~19:00", "-"]}, {"name": "\uc774\uc870\uc57d\uad6d", "lat": "37.533718429584745", "lng": "126.70986280385877", "url": "/info/%EC%9D%B4%EC%A1%B0%EC%95%BD%EA%B5%AD-%EC%9D%B8%EC%B2%9C%EA%B4%91%EC%97%AD%EC%8B%9C-%EA%B3%84%EC%96%91%EA%B5%AC-%ED%9A%A8%EC%84%B1%EB%8F%99/", "workingTime": ["-", "09:00~18:00", "09:00~18:00", "09:00~18:00", "09:00~18:00", "09:00~18:00", "09:00~18:00", "09:00~21:00"]}, {"name": "\ube44\ud0c0\ubbfc\uc628\ub204\ub9ac\uc57d\uad6d", "lat": "37.5297548925", "lng": "126.7284049889", "url": "/info/%EB%B9%84%ED%83%80%EB%AF%BC%EC%98%A8%EB%88%84%EB%A6%AC%EC%95%BD%EA%B5%AD-%EC%9D%B8%EC%B2%9C%EA%B4%91%EC%97%AD%EC%8B%9C-%EA%B3%84%EC%96%91%EA%B5%AC-%ED%9A%A8%EC%84%B1%EB%8F%99/", "workingTime": ["-", "10:00~18:00", "10:00~18:00", "10:00~18:00", "10:00~18:00", "10:00~18:00", "-", "-"]}, {"name": "\uae30\uc57d\uad6d", "lat": "37.529686135416156", "lng": "126.70102579155662", "url": "/info/%EA%B8%B0%EC%95%BD%EA%B5%AD-%EC%9D%B8%EC%B2%9C%EA%B4%91%EC%97%AD%EC%8B%9C-%EA%B3%84%EC%96%91%EA%B5%AC-%ED%9A%A8%EC%84%B1%EB%8F%99/", "workingTime": ["-", "09:00~13:00", "09:00~13:00", "09:00~13:00", "09:00~13:00", "09:00~13:00", "09:00~16:00", "-"]}, {"name": "\ubca0\ub4dc\ub85c\uc57d\uad6d", "lat": "37.53243504800758", "lng": "126.71074004301062", "url": "/info/%EB%B2%A0%EB%93%9C%EB%A1%9C%EC%95%BD%EA%B5%AD-%EC%9D%B8%EC%B2%9C%EA%B4%91%EC%97%AD%EC%8B%9C-%EA%B3%84%EC%96%91%EA%B5%AC-%ED%9A%A8%EC%84%B1%EB%8F%99/", "workingTime": ["1,2,3,4,5\uc9f8\uc8fc09:00~20:00", "09:00~21:30", "09:00~21:30", "09:00~21:30", "09:00~21:30", "09:00~21:30", "09:00~20:00", "-"]}, {"name": "\ub204\ub9ac\uc57d\uad6d", "lat": "37.527722660608006", "lng": "126.70169533832613", "url": "/info/%EB%88%84%EB%A6%AC%EC%95%BD%EA%B5%AD-%EC%9D%B8%EC%B2%9C%EA%B4%91%EC%97%AD%EC%8B%9C-%EA%B3%84%EC%96%91%EA%B5%AC-%ED%9A%A8%EC%84%B1%EB%8F%99/", "workingTime": ["-", "09:00~21:00", "09:00~21:00", "09:00~21:00", "09:00~21:00", "09:00~21:00", "09:00~20:00", "-"]}, {"name": "\ub300\uc0b0\uc57d\uad6d", "lat": "37.52760191922424", "lng": "126.71706802504352", "url": "/info/%EB%8C%80%EC%82%B0%EC%95%BD%EA%B5%AD-%EC%9D%B8%EC%B2%9C%EA%B4%91%EC%97%AD%EC%8B%9C-%EA%B3%84%EC%96%91%EA%B5%AC-%ED%9A%A8%EC%84%B1%EB%8F%99/", "workingTime": ["-", "09:00~18:30", "09:00~18:30", "09:00~18:30", "09:00~18:30", "09:00~18:30", "09:00~14:00", "-"]}, {"name": "\ud6a8\uc131\uc77c\uce35\uc57d\uad6d", "lat": "37.531899209272225", "lng": "126.71120824540746", "url": "/info/%ED%9A%A8%EC%84%B1%EC%9D%BC%EC%B8%B5%EC%95%BD%EA%B5%AD-%EC%9D%B8%EC%B2%9C%EA%B4%91%EC%97%AD%EC%8B%9C-%EA%B3%84%EC%96%91%EA%B5%AC-%ED%9A%A8%EC%84%B1%EB%8F%99/", "workingTime": ["-", "09:00~13:00", "09:00~13:00", "09:00~13:00", "09:00~13:00", "09:00~13:00", "09:00~13:00", "-"]}]