[{"name": "\ud558\ub3d9\uc57d\uad6d", "lat": "37.5647813708088", "lng": "126.671852875111", "url": "/info/%ED%95%98%EB%8F%99%EC%95%BD%EA%B5%AD-%EC%9D%B8%EC%B2%9C%EA%B4%91%EC%97%AD%EC%8B%9C-%EC%84%9C%EA%B5%AC-%EA%B2%80%EC%95%94%EB%8F%99/", "workingTime": ["-", "09:00~18:00", "09:00~18:00", "09:00~18:00", "09:00~18:00", "09:00~18:00", "09:00~13:00", "-"]}, {"name": "\ub3d9\uc548\uc57d\uad6d", "lat": "37.5666968885", "lng": "126.682632716", "url": "/info/%EB%8F%99%EC%95%88%EC%95%BD%EA%B5%AD-%EC%9D%B8%EC%B2%9C%EA%B4%91%EC%97%AD%EC%8B%9C-%EC%84%9C%EA%B5%AC-%EA%B2%80%EC%95%94%EB%8F%99/", "workingTime": ["-", "09:00~16:00", "09:00~16:00", "09:00~16:00", "09:00~16:00", "09:00~16:00", "09:00~16:00", "-"]}, {"name": "\uc5f0\uc138\uc57d\uad6d", "lat": "37.56735515841666", "lng": "126.6833391472131", "url": "/info/%EC%97%B0%EC%84%B8%EC%95%BD%EA%B5%AD-%EC%9D%B8%EC%B2%9C%EA%B4%91%EC%97%AD%EC%8B%9C-%EC%84%9C%EA%B5%AC-%EA%B2%80%EC%95%94%EB%8F%99/", "workingTime": ["-", "09:00~20:00", "09:00~20:00", "09:00~20:00", "09:00~20:00", "09:00~20:00", "09:00~16:00", "-"]}, {"name": "\ud589\ubcf5\ud55c\uc57d\uad6d", "lat": "37.56556273838761", "lng": "126.67495733020309", "url": "/info/%ED%96%89%EB%B3%B5%ED%95%9C%EC%95%BD%EA%B5%AD-%EC%9D%B8%EC%B2%9C%EA%B4%91%EC%97%AD%EC%8B%9C-%EC%84%9C%EA%B5%AC-%EA%B2%80%EC%95%94%EB%8F%99/", "workingTime": ["-", "09:00~20:00", "09:00~20:00", "09:00~20:00", "09:00~20:00", "09:00~20:00", "09:00~16:00", "-"]}, {"name": "\ub298\uac74\uac15\uc628\ub204\ub9ac\uc57d\uad6d", "lat": "37.56545957247164", "lng": "126.67414283341111", "url": "/info/%EB%8A%98%EA%B1%B4%EA%B0%95%EC%98%A8%EB%88%84%EB%A6%AC%EC%95%BD%EA%B5%AD-%EC%9D%B8%EC%B2%9C%EA%B4%91%EC%97%AD%EC%8B%9C-%EC%84%9C%EA%B5%AC-%EA%B2%80%EC%95%94%EB%8F%99/", "workingTime": ["1,2,3,4,5\uc9f8\uc8fc09:00~21:00", "08:00~22:00", "08:00~22:00", "08:00~22:00", "08:00~22:00", "08:00~22:00", "08:00~21:00", "09:00~21:30"]}, {"name": "\ub4dc\ub9bc\uc57d\uad6d", "lat": "37.5651803675", "lng": "126.6749605016", "url": "/info/%EB%93%9C%EB%A6%BC%EC%95%BD%EA%B5%AD-%EC%9D%B8%EC%B2%9C%EA%B4%91%EC%97%AD%EC%8B%9C-%EC%84%9C%EA%B5%AC-%EA%B2%80%EC%95%94%EB%8F%99/", "workingTime": ["09:00~14:30(\uc5f0\ub77d\ud6c4\ubc29\ubb38\uc694\ub9dd)", "09:00~14:30", "09:00~14:30", "09:00~14:30", "09:00~14:30", "09:00~14:30", "09:00~15:30", "-"]}]