[{"name": "\uacbd\ubbfc\uc57d\uad6d", "lat": "37.505597067950724", "lng": "126.70097760055019", "url": "/info/%EA%B2%BD%EB%AF%BC%EC%95%BD%EA%B5%AD-%EC%9D%B8%EC%B2%9C%EA%B4%91%EC%97%AD%EC%8B%9C-%EB%B6%80%ED%8F%89%EA%B5%AC-%EC%82%B0%EA%B3%A1%EB%8F%99/", "workingTime": ["-", "09:30~19:30", "09:30~19:30", "09:30~19:30", "09:30~19:30", "09:30~19:30", "09:30~16:00", "-"]}, {"name": "\ucc38\ud3b8\ud55c\uc57d\uad6d", "lat": "37.49078788088612", "lng": "126.7100063034337", "url": "/info/%EC%B0%B8%ED%8E%B8%ED%95%9C%EC%95%BD%EA%B5%AD-%EC%9D%B8%EC%B2%9C%EA%B4%91%EC%97%AD%EC%8B%9C-%EB%B6%80%ED%8F%89%EA%B5%AC-%EC%82%B0%EA%B3%A1%EB%8F%99/", "workingTime": ["1,2,3,4,5\uc9f8\uc8fc10:30~21:00", "10:30~21:00", "10:30~21:00", "10:30~21:00", "10:30~21:00", "10:30~22:00", "10:30~22:00", "10:30~21:00"]}, {"name": "\ub300\uba85\uc57d\uad6d", "lat": "37.5081423388981", "lng": "126.702886284041", "url": "/info/%EB%8C%80%EB%AA%85%EC%95%BD%EA%B5%AD-%EC%9D%B8%EC%B2%9C%EA%B4%91%EC%97%AD%EC%8B%9C-%EB%B6%80%ED%8F%89%EA%B5%AC-%EC%82%B0%EA%B3%A1%EB%8F%99/", "workingTime": ["-", "08:30~19:00", "08:30~19:00", "08:30~19:00", "08:30~19:00", "08:30~19:00", "08:30~14:00", "-"]}, {"name": "\uace0\ub798\uc57d\uad6d", "lat": "37.505913372427386", "lng": "126.70397169920937", "url": "/info/%EA%B3%A0%EB%9E%98%EC%95%BD%EA%B5%AD-%EC%9D%B8%EC%B2%9C%EA%B4%91%EC%97%AD%EC%8B%9C-%EB%B6%80%ED%8F%89%EA%B5%AC-%EC%82%B0%EA%B3%A1%EB%8F%99/", "workingTime": ["-", "09:00~14:00", "09:00~14:00", "09:00~14:00", "09:00~14:00", "09:00~14:00", "-", "-"]}, {"name": "\uc804\ubc29\uba54\ub514\uce7c\uc57d\uad6d", "lat": "37.506238888888888", "lng": "126.708552777777783", "url": "/info/%EC%A0%84%EB%B0%A9%EB%A9%94%EB%94%94%EC%B9%BC%EC%95%BD%EA%B5%AD-%EC%9D%B8%EC%B2%9C%EA%B4%91%EC%97%AD%EC%8B%9C-%EB%B6%80%ED%8F%89%EA%B5%AC-%EC%82%B0%EA%B3%A1%EB%8F%99/", "workingTime": ["-", "09:00~21:00", "09:00~21:00", "09:00~21:00", "09:00~21:00", "09:00~21:00", "-", "09:00~22:00"]}, {"name": "\ud558\ub098\uc57d\uad6d", "lat": "37.5083194912292", "lng": "126.704040916536", "url": "/info/%ED%95%98%EB%82%98%EC%95%BD%EA%B5%AD-%EC%9D%B8%EC%B2%9C%EA%B4%91%EC%97%AD%EC%8B%9C-%EB%B6%80%ED%8F%89%EA%B5%AC-%EC%82%B0%EA%B3%A1%EB%8F%99/", "workingTime": ["-", "09:00~20:00", "09:00~20:00", "09:00~20:00", "09:00~20:00", "09:00~20:00", "09:00~14:30", "-"]}, {"name": "\ud55c\uc194\uc57d\uad6d", "lat": "37.513054678873374", "lng": "126.70181254410235", "url": "/info/%ED%95%9C%EC%86%94%EC%95%BD%EA%B5%AD-%EC%9D%B8%EC%B2%9C%EA%B4%91%EC%97%AD%EC%8B%9C-%EB%B6%80%ED%8F%89%EA%B5%AC-%EC%82%B0%EA%B3%A1%EB%8F%99/", "workingTime": ["-", "09:00~20:30", "09:00~20:30", "09:00~20:30", "09:00~20:30", "09:00~20:30", "09:00~18:00", "-"]}, {"name": "\ub2e4\uc815\uc57d\uad6d", "lat": "37.50218844589537", "lng": "126.71284042121242", "url": "/info/%EB%8B%A4%EC%A0%95%EC%95%BD%EA%B5%AD-%EC%9D%B8%EC%B2%9C%EA%B4%91%EC%97%AD%EC%8B%9C-%EB%B6%80%ED%8F%89%EA%B5%AC-%EC%82%B0%EA%B3%A1%EB%8F%99/", "workingTime": ["-", "09:00~19:00", "09:00~19:00", "09:00~19:00", "09:00~19:00", "09:00~19:00", "09:00~14:00", "09:00~13:00"]}, {"name": "\ud638\uc0b0\ub098\uc57d\uad6d", "lat": "37.50369000535576", "lng": "126.70917607361735", "url": "/info/%ED%98%B8%EC%82%B0%EB%82%98%EC%95%BD%EA%B5%AD-%EC%9D%B8%EC%B2%9C%EA%B4%91%EC%97%AD%EC%8B%9C-%EB%B6%80%ED%8F%89%EA%B5%AC-%EC%82%B0%EA%B3%A1%EB%8F%99/", "workingTime": ["-", "09:00~19:00", "09:00~19:00", "09:00~19:00", "09:00~19:00", "09:00~19:00", "09:00~16:30", "-"]}, {"name": "\ud604\ub300\uc57d\uad6d", "lat": "37.50777647177064", "lng": "126.70390555012534", "url": "/info/%ED%98%84%EB%8C%80%EC%95%BD%EA%B5%AD-%EC%9D%B8%EC%B2%9C%EA%B4%91%EC%97%AD%EC%8B%9C-%EB%B6%80%ED%8F%89%EA%B5%AC-%EC%82%B0%EA%B3%A1%EB%8F%99/", "workingTime": ["-", "09:00~20:00", "09:00~20:00", "09:00~20:00", "09:00~20:00", "09:00~20:00", "09:00~15:00", "-"]}, {"name": "\ud574\ubd04\uc57d\uad6d", "lat": "37.506246139319444", "lng": "126.70396530244932", "url": "/info/%ED%95%B4%EB%B4%84%EC%95%BD%EA%B5%AD-%EC%9D%B8%EC%B2%9C%EA%B4%91%EC%97%AD%EC%8B%9C-%EB%B6%80%ED%8F%89%EA%B5%AC-%EC%82%B0%EA%B3%A1%EB%8F%99/", "workingTime": ["-", "09:00~17:30", "09:00~17:30", "09:00~17:30", "09:00~17:30", "09:00~17:30", "09:00~13:00", "09:00~13:30"]}, {"name": "\uc5f0\uc138\uc57d\uad6d", "lat": "37.5006263001", "lng": "126.7054175095", "url": "/info/%EC%97%B0%EC%84%B8%EC%95%BD%EA%B5%AD-%EC%9D%B8%EC%B2%9C%EA%B4%91%EC%97%AD%EC%8B%9C-%EB%B6%80%ED%8F%89%EA%B5%AC-%EC%82%B0%EA%B3%A1%EB%8F%99/", "workingTime": ["-", "09:00~21:00", "09:00~21:00", "09:00~21:00", "09:00~21:00", "09:00~21:00", "09:00~20:00", "-"]}, {"name": "\uc601\uad11\uc57d\uad6d", "lat": "37.5056459796712", "lng": "126.7036968170471", "url": "/info/%EC%98%81%EA%B4%91%EC%95%BD%EA%B5%AD-%EC%9D%B8%EC%B2%9C%EA%B4%91%EC%97%AD%EC%8B%9C-%EB%B6%80%ED%8F%89%EA%B5%AC-%EC%82%B0%EA%B3%A1%EB%8F%99/", "workingTime": ["-", "09:00~20:30", "09:00~20:30", "09:00~20:30", "09:00~20:30", "09:00~20:30", "09:00~19:00", "-"]}, {"name": "\uc608\uc2a4\uc57d\uad6d", "lat": "37.486923607089565", "lng": "126.70823476340615", "url": "/info/%EC%98%88%EC%8A%A4%EC%95%BD%EA%B5%AD-%EC%9D%B8%EC%B2%9C%EA%B4%91%EC%97%AD%EC%8B%9C-%EB%B6%80%ED%8F%89%EA%B5%AC-%EC%82%B0%EA%B3%A1%EB%8F%99/", "workingTime": ["-", "09:00~20:00", "09:00~20:00", "09:00~20:00", "09:00~20:00", "09:00~20:00", "09:00~17:00", "-"]}, {"name": "\ud478\ub978\uac74\uac15\uc57d\uad6d", "lat": "37.49221501385123", "lng": "126.70489196502865", "url": "/info/%ED%91%B8%EB%A5%B8%EA%B1%B4%EA%B0%95%EC%95%BD%EA%B5%AD-%EC%9D%B8%EC%B2%9C%EA%B4%91%EC%97%AD%EC%8B%9C-%EB%B6%80%ED%8F%89%EA%B5%AC-%EC%82%B0%EA%B3%A1%EB%8F%99/", "workingTime": ["-", "09:00~20:00", "09:00~20:00", "09:00~20:00", "09:00~20:00", "09:00~20:00", "09:00~18:00", "-"]}, {"name": "\uc6b0\ub9ac\uc628\ub204\ub9ac\uc57d\uad6d", "lat": "37.503319434108214", "lng": "126.71460827662274", "url": "/info/%EC%9A%B0%EB%A6%AC%EC%98%A8%EB%88%84%EB%A6%AC%EC%95%BD%EA%B5%AD-%EC%9D%B8%EC%B2%9C%EA%B4%91%EC%97%AD%EC%8B%9C-%EB%B6%80%ED%8F%89%EA%B5%AC-%EC%82%B0%EA%B3%A1%EB%8F%99/", "workingTime": ["-", "08:30~19:30", "08:30~13:30", "08:30~13:30", "08:30~13:30", "08:30~13:30", "08:30~16:00", "-"]}, {"name": "\ucc38\uc88b\uc740\uc57d\uad6d", "lat": "37.5123851780189", "lng": "126.70357969102795", "url": "/info/%EC%B0%B8%EC%A2%8B%EC%9D%80%EC%95%BD%EA%B5%AD-%EC%9D%B8%EC%B2%9C%EA%B4%91%EC%97%AD%EC%8B%9C-%EB%B6%80%ED%8F%89%EA%B5%AC-%EC%82%B0%EA%B3%A1%EB%8F%99/", "workingTime": ["-", "09:00~15:00", "09:00~15:00", "09:00~15:00", "09:00~15:00", "09:00~15:00", "09:00~18:00", "09:00~19:00"]}, {"name": "\uc704\ubbfc\uc57d\uad6d", "lat": "37.513552322131666", "lng": "126.70014785213402", "url": "/info/%EC%9C%84%EB%AF%BC%EC%95%BD%EA%B5%AD-%EC%9D%B8%EC%B2%9C%EA%B4%91%EC%97%AD%EC%8B%9C-%EB%B6%80%ED%8F%89%EA%B5%AC-%EC%82%B0%EA%B3%A1%EB%8F%99/", "workingTime": ["-", "10:00~20:00", "10:00~20:00", "10:00~20:00", "10:00~20:00", "10:00~20:00", "10:00~13:00", "-"]}, {"name": "\uc6f0\ube59\uc57d\uad6d", "lat": "37.5080869407335", "lng": "126.703824453719", "url": "/info/%EC%9B%B0%EB%B9%99%EC%95%BD%EA%B5%AD-%EC%9D%B8%EC%B2%9C%EA%B4%91%EC%97%AD%EC%8B%9C-%EB%B6%80%ED%8F%89%EA%B5%AC-%EC%82%B0%EA%B3%A1%EB%8F%99/", "workingTime": ["1,2,3,4,5\uc9f8\uc8fc09:00~14:00", "08:30~20:00", "08:30~20:00", "08:30~20:00", "08:30~20:00", "08:30~20:00", "09:00~14:00", "09:00~14:00"]}, {"name": "\ub9d1\uc740\uc0d8\uc57d\uad6d", "lat": "37.504026608677556", "lng": "126.70274364394845", "url": "/info/%EB%A7%91%EC%9D%80%EC%83%98%EC%95%BD%EA%B5%AD-%EC%9D%B8%EC%B2%9C%EA%B4%91%EC%97%AD%EC%8B%9C-%EB%B6%80%ED%8F%89%EA%B5%AC-%EC%82%B0%EA%B3%A1%EB%8F%99/", "workingTime": ["-", "09:00~20:00", "09:00~20:00", "09:00~20:00", "09:00~20:00", "09:00~20:00", "09:00~18:00", "09:00~13:30"]}, {"name": "\ud734\uc57d\uad6d", "lat": "37.49971908794686", "lng": "126.70386906766669", "url": "/info/%ED%9C%B4%EC%95%BD%EA%B5%AD-%EC%9D%B8%EC%B2%9C%EA%B4%91%EC%97%AD%EC%8B%9C-%EB%B6%80%ED%8F%89%EA%B5%AC-%EC%82%B0%EA%B3%A1%EB%8F%99/", "workingTime": ["-", "09:00~18:00", "09:00~18:00", "09:00~18:00", "09:00~18:00", "09:00~18:00", "09:00~13:00", "-"]}, {"name": "\uba54\ub514\ud31c\ud070\uc0ac\ub791\uc57d\uad6d", "lat": "37.48711493099991", "lng": "126.70836065751072", "url": "/info/%EB%A9%94%EB%94%94%ED%8C%9C%ED%81%B0%EC%82%AC%EB%9E%91%EC%95%BD%EA%B5%AD-%EC%9D%B8%EC%B2%9C%EA%B4%91%EC%97%AD%EC%8B%9C-%EB%B6%80%ED%8F%89%EA%B5%AC-%EC%82%B0%EA%B3%A1%EB%8F%99/", "workingTime": ["-", "09:00~20:00", "09:00~20:00", "09:00~20:00", "09:00~20:00", "09:00~20:00", "09:00~16:00", "-"]}, {"name": "\uc218\uc815\uc57d\uad6d", "lat": "37.50448525374109", "lng": "126.69826488048215", "url": "/info/%EC%88%98%EC%A0%95%EC%95%BD%EA%B5%AD-%EC%9D%B8%EC%B2%9C%EA%B4%91%EC%97%AD%EC%8B%9C-%EB%B6%80%ED%8F%89%EA%B5%AC-%EC%82%B0%EA%B3%A1%EB%8F%99/", "workingTime": ["-", "09:00~19:00", "09:00~19:00", "09:00~19:00", "09:00~20:00", "09:00~19:00", "09:00~14:00", "-"]}, {"name": "\ucd5c\ubcd1\uc6d0\uc57d\uad6d", "lat": "37.50372917564195", "lng": "126.71008294250777", "url": "/info/%EC%B5%9C%EB%B3%91%EC%9B%90%EC%95%BD%EA%B5%AD-%EC%9D%B8%EC%B2%9C%EA%B4%91%EC%97%AD%EC%8B%9C-%EB%B6%80%ED%8F%89%EA%B5%AC-%EC%82%B0%EA%B3%A1%EB%8F%99/", "workingTime": ["-", "08:30~21:00", "08:30~21:00", "08:30~21:00", "08:30~21:00", "08:30~21:00", "08:30~16:00", "-"]}, {"name": "\uadf8\ub9b0\ud31c\uc57d\uad6d", "lat": "37.50438107724606", "lng": "126.69945846066045", "url": "/info/%EA%B7%B8%EB%A6%B0%ED%8C%9C%EC%95%BD%EA%B5%AD-%EC%9D%B8%EC%B2%9C%EA%B4%91%EC%97%AD%EC%8B%9C-%EB%B6%80%ED%8F%89%EA%B5%AC-%EC%82%B0%EA%B3%A1%EB%8F%99/", "workingTime": ["-", "09:00~21:30", "09:00~21:30", "09:00~21:30", "09:00~21:30", "09:00~21:30", "09:00~16:00", "-"]}, {"name": "\ud61c\uc131\ud504\ub77c\uc790\uc57d\uad6d", "lat": "37.503319434100014", "lng": "126.7146082766", "url": "/info/%ED%98%9C%EC%84%B1%ED%94%84%EB%9D%BC%EC%9E%90%EC%95%BD%EA%B5%AD-%EC%9D%B8%EC%B2%9C%EA%B4%91%EC%97%AD%EC%8B%9C-%EB%B6%80%ED%8F%89%EA%B5%AC-%EC%82%B0%EA%B3%A1%EB%8F%99/", "workingTime": ["-", "09:00~16:00", "09:00~16:00", "09:00~16:00", "09:00~16:00", "09:00~16:00", "-", "-"]}, {"name": "\uc628\ub204\ub9ac\ud478\ub978\uc57d\uad6d", "lat": "37.502118803", "lng": "126.7129164599", "url": "/info/%EC%98%A8%EB%88%84%EB%A6%AC%ED%91%B8%EB%A5%B8%EC%95%BD%EA%B5%AD-%EC%9D%B8%EC%B2%9C%EA%B4%91%EC%97%AD%EC%8B%9C-%EB%B6%80%ED%8F%89%EA%B5%AC-%EC%82%B0%EA%B3%A1%EB%8F%99/", "workingTime": ["-", "09:00~13:00", "09:00~13:00", "09:00~13:00", "09:00~13:00", "09:00~13:00", "-", "-"]}, {"name": "\uac74\uac15\uc57d\uad6d", "lat": "37.501968005748296", "lng": "126.71407002226975", "url": "/info/%EA%B1%B4%EA%B0%95%EC%95%BD%EA%B5%AD-%EC%9D%B8%EC%B2%9C%EA%B4%91%EC%97%AD%EC%8B%9C-%EB%B6%80%ED%8F%89%EA%B5%AC-%EC%82%B0%EA%B3%A1%EB%8F%99/", "workingTime": ["-", "09:00~21:30", "09:00~21:30", "09:00~21:30", "09:00~21:30", "09:00~21:30", "09:00~20:00", "09:00~13:00"]}, {"name": "\uc194\ub85c\ubaac\uc57d\uad6d", "lat": "37.4872557060812", "lng": "126.70844602301942", "url": "/info/%EC%86%94%EB%A1%9C%EB%AA%AC%EC%95%BD%EA%B5%AD-%EC%9D%B8%EC%B2%9C%EA%B4%91%EC%97%AD%EC%8B%9C-%EB%B6%80%ED%8F%89%EA%B5%AC-%EC%82%B0%EA%B3%A1%EB%8F%99/", "workingTime": ["-", "09:00~16:00", "09:00~16:00", "09:00~16:00", "09:00~16:00", "09:00~16:00", "-", "-"]}]