[{"name": "\ud2bc\ud2bc\uc57d\uad6d", "lat": "37.5473734573917", "lng": "126.73997548319", "url": "/info/%ED%8A%BC%ED%8A%BC%EC%95%BD%EA%B5%AD-%EC%9D%B8%EC%B2%9C%EA%B4%91%EC%97%AD%EC%8B%9C-%EA%B3%84%EC%96%91%EA%B5%AC-%EC%9E%84%ED%95%99%EB%8F%99/", "workingTime": ["-", "10:00~17:30", "10:00~17:30", "10:00~17:30", "10:00~17:30", "10:00~17:30", "-", "-"]}, {"name": "\ub098\ub77c\uc57d\uad6d", "lat": "37.547682902004006", "lng": "126.73714845142032", "url": "/info/%EB%82%98%EB%9D%BC%EC%95%BD%EA%B5%AD-%EC%9D%B8%EC%B2%9C%EA%B4%91%EC%97%AD%EC%8B%9C-%EA%B3%84%EC%96%91%EA%B5%AC-%EC%9E%84%ED%95%99%EB%8F%99/", "workingTime": ["-", "09:00~20:30", "09:00~20:30", "09:00~20:30", "09:00~20:30", "09:00~20:30", "09:00~19:30", "09:00~19:00"]}, {"name": "\ub298\ud478\ub978\uc57d\uad6d", "lat": "37.54412718119572", "lng": "126.73455834953682", "url": "/info/%EB%8A%98%ED%91%B8%EB%A5%B8%EC%95%BD%EA%B5%AD-%EC%9D%B8%EC%B2%9C%EA%B4%91%EC%97%AD%EC%8B%9C-%EA%B3%84%EC%96%91%EA%B5%AC-%EC%9E%84%ED%95%99%EB%8F%99/", "workingTime": ["-", "09:30~22:00", "09:30~22:00", "09:30~22:00", "09:30~22:00", "09:30~22:00", "09:30~21:30", "10:00~19:00"]}, {"name": "\ub300\ud55c\uc57d\uad6d", "lat": "37.545252843890964", "lng": "126.73833382330389", "url": "/info/%EB%8C%80%ED%95%9C%EC%95%BD%EA%B5%AD-%EC%9D%B8%EC%B2%9C%EA%B4%91%EC%97%AD%EC%8B%9C-%EA%B3%84%EC%96%91%EA%B5%AC-%EC%9E%84%ED%95%99%EB%8F%99/", "workingTime": ["-", "09:00~19:00", "09:00~19:00", "09:00~19:00", "09:00~19:00", "09:00~19:00", "09:00~19:00", "-"]}, {"name": "\uc0c8\uc0dd\uba85\uc57d\uad6d", "lat": "37.54609841122013", "lng": "126.73712520726716", "url": "/info/%EC%83%88%EC%83%9D%EB%AA%85%EC%95%BD%EA%B5%AD-%EC%9D%B8%EC%B2%9C%EA%B4%91%EC%97%AD%EC%8B%9C-%EA%B3%84%EC%96%91%EA%B5%AC-%EC%9E%84%ED%95%99%EB%8F%99/", "workingTime": ["-", "09:00~18:00", "09:00~18:00", "09:00~18:00", "09:00~18:00", "09:00~18:00", "09:00~20:00", "-"]}, {"name": "\ubcf4\ud604\uc57d\uad6d", "lat": "37.544054400409095", "lng": "126.7374689753291", "url": "/info/%EB%B3%B4%ED%98%84%EC%95%BD%EA%B5%AD-%EC%9D%B8%EC%B2%9C%EA%B4%91%EC%97%AD%EC%8B%9C-%EA%B3%84%EC%96%91%EA%B5%AC-%EC%9E%84%ED%95%99%EB%8F%99/", "workingTime": ["-", "09:00~15:00", "09:00~15:00", "09:00~15:00", "09:00~15:00", "09:00~15:00", "09:00~15:00", "-"]}, {"name": "365\uac74\uac15\uc57d\uad6d", "lat": "37.54474048491267", "lng": "126.73806401705177", "url": "/info/365%EA%B1%B4%EA%B0%95%EC%95%BD%EA%B5%AD-%EC%9D%B8%EC%B2%9C%EA%B4%91%EC%97%AD%EC%8B%9C-%EA%B3%84%EC%96%91%EA%B5%AC-%EC%9E%84%ED%95%99%EB%8F%99/", "workingTime": ["09:00~13:00(\uc5f0\ub77d\ud6c4\ubc29\ubb38\uc694\ub9dd)", "09:00~13:00", "09:00~13:00", "09:00~13:00", "09:00~13:00", "09:00~13:00", "09:00~16:00", "09:00~18:00"]}]