[{"name": "\uc194\uc57d\uad6d", "lat": "37.4258947068", "lng": "126.7482489317", "url": "/info/%EC%86%94%EC%95%BD%EA%B5%AD-%EC%9D%B8%EC%B2%9C%EA%B4%91%EC%97%AD%EC%8B%9C-%EB%82%A8%EB%8F%99%EA%B5%AC-%EC%84%9C%EC%B0%BD%EB%8F%99/", "workingTime": ["-", "08:30~19:00", "08:30~19:00", "08:30~19:00", "08:30~19:00", "08:30~19:00", "-", "-"]}, {"name": "\ucc9c\uc0ac\uc57d\uad6d", "lat": "37.42447192684073", "lng": "126.75033696627409", "url": "/info/%EC%B2%9C%EC%82%AC%EC%95%BD%EA%B5%AD-%EC%9D%B8%EC%B2%9C%EA%B4%91%EC%97%AD%EC%8B%9C-%EB%82%A8%EB%8F%99%EA%B5%AC-%EC%84%9C%EC%B0%BD%EB%8F%99/", "workingTime": ["-", "11:00~22:00", "11:00~22:00", "11:00~22:00", "11:00~22:00", "11:00~22:00", "11:00~21:00", "-"]}, {"name": "\ub298\uc628\ub204\ub9ac\uc57d\uad6d", "lat": "37.4247291868", "lng": "126.7475885351", "url": "/info/%EB%8A%98%EC%98%A8%EB%88%84%EB%A6%AC%EC%95%BD%EA%B5%AD-%EC%9D%B8%EC%B2%9C%EA%B4%91%EC%97%AD%EC%8B%9C-%EB%82%A8%EB%8F%99%EA%B5%AC-%EC%84%9C%EC%B0%BD%EB%8F%99/", "workingTime": ["1,2,3,4,5\uc9f8\uc8fc09:00~22:00", "09:00~22:00", "09:00~22:00", "09:00~22:00", "09:00~22:00", "09:00~22:00", "09:00~22:00", "09:00~22:00"]}, {"name": "\uc11c\ucc3d\uc57d\uad6d", "lat": "37.43853953683641", "lng": "126.74909927445503", "url": "/info/%EC%84%9C%EC%B0%BD%EC%95%BD%EA%B5%AD-%EC%9D%B8%EC%B2%9C%EA%B4%91%EC%97%AD%EC%8B%9C-%EB%82%A8%EB%8F%99%EA%B5%AC-%EC%84%9C%EC%B0%BD%EB%8F%99/", "workingTime": ["-", "09:00~19:00", "09:00~19:00", "09:00~19:00", "09:00~19:00", "09:00~19:00", "09:00~13:00", "-"]}, {"name": "\ub2e4\ub098\uc57d\uad6d", "lat": "37.4349044080583", "lng": "126.75148827452", "url": "/info/%EB%8B%A4%EB%82%98%EC%95%BD%EA%B5%AD-%EC%9D%B8%EC%B2%9C%EA%B4%91%EC%97%AD%EC%8B%9C-%EB%82%A8%EB%8F%99%EA%B5%AC-%EC%84%9C%EC%B0%BD%EB%8F%99/", "workingTime": ["-", "-", "-", "-", "-", "-", "-", "-"]}, {"name": "\uba54\ub514\ud31c\uc11c\ucc3d\uc57d\uad6d", "lat": "37.4254885081", "lng": "126.7470572529", "url": "/info/%EB%A9%94%EB%94%94%ED%8C%9C%EC%84%9C%EC%B0%BD%EC%95%BD%EA%B5%AD-%EC%9D%B8%EC%B2%9C%EA%B4%91%EC%97%AD%EC%8B%9C-%EB%82%A8%EB%8F%99%EA%B5%AC-%EC%84%9C%EC%B0%BD%EB%8F%99/", "workingTime": ["-", "09:00~20:00", "09:00~20:00", "09:00~20:00", "09:00~20:00", "09:00~20:00", "09:00~18:00", "-"]}, {"name": "\ubca0\uc2a4\ud2b8\uc57d\uad6d", "lat": "37.4241916102798", "lng": "126.74955229952937", "url": "/info/%EB%B2%A0%EC%8A%A4%ED%8A%B8%EC%95%BD%EA%B5%AD-%EC%9D%B8%EC%B2%9C%EA%B4%91%EC%97%AD%EC%8B%9C-%EB%82%A8%EB%8F%99%EA%B5%AC-%EC%84%9C%EC%B0%BD%EB%8F%99/", "workingTime": ["1,2,3,4,5\uc9f8\uc8fc08:30~13:00", "09:00~13:00", "09:00~13:00", "09:00~13:00", "09:00~13:00", "09:00~13:00", "08:30~15:00", "-"]}, {"name": "\ud589\ubcf5\uc57d\uad6d", "lat": "37.4228434459", "lng": "126.7505999521", "url": "/info/%ED%96%89%EB%B3%B5%EC%95%BD%EA%B5%AD-%EC%9D%B8%EC%B2%9C%EA%B4%91%EC%97%AD%EC%8B%9C-%EB%82%A8%EB%8F%99%EA%B5%AC-%EC%84%9C%EC%B0%BD%EB%8F%99/", "workingTime": ["-", "09:00~19:00", "09:00~19:00", "09:00~19:00", "09:00~19:00", "09:00~19:00", "09:00~14:00", "-"]}, {"name": "\uc2a4\ud0c0\uc57d\uad6d", "lat": "37.4235203204757", "lng": "126.74857320920731", "url": "/info/%EC%8A%A4%ED%83%80%EC%95%BD%EA%B5%AD-%EC%9D%B8%EC%B2%9C%EA%B4%91%EC%97%AD%EC%8B%9C-%EB%82%A8%EB%8F%99%EA%B5%AC-%EC%84%9C%EC%B0%BD%EB%8F%99/", "workingTime": ["-", "08:30~19:00", "09:00~19:00", "09:00~19:00", "08:30~19:00", "09:00~19:00", "08:30~14:30", "-"]}, {"name": "\ud50c\ub7ec\uc2a4\uc57d\uad6d", "lat": "37.4248365428", "lng": "126.7489212937", "url": "/info/%ED%94%8C%EB%9F%AC%EC%8A%A4%EC%95%BD%EA%B5%AD-%EC%9D%B8%EC%B2%9C%EA%B4%91%EC%97%AD%EC%8B%9C-%EB%82%A8%EB%8F%99%EA%B5%AC-%EC%84%9C%EC%B0%BD%EB%8F%99/", "workingTime": ["1,2,3,4,5\uc9f8\uc8fc09:00~13:00", "09:00~21:00", "09:00~21:00", "09:00~21:00", "09:00~21:00", "09:00~21:00", "09:00~16:00", "-"]}, {"name": "\ud0dc\ud3c9\uc591\uba54\ub514\uceec\uc628\ub204\ub9ac\uc57d\uad6d", "lat": "37.4262866736327", "lng": "126.748049342217", "url": "/info/%ED%83%9C%ED%8F%89%EC%96%91%EB%A9%94%EB%94%94%EC%BB%AC%EC%98%A8%EB%88%84%EB%A6%AC%EC%95%BD%EA%B5%AD-%EC%9D%B8%EC%B2%9C%EA%B4%91%EC%97%AD%EC%8B%9C-%EB%82%A8%EB%8F%99%EA%B5%AC-%EC%84%9C%EC%B0%BD%EB%8F%99/", "workingTime": ["-", "09:30~19:00", "09:30~19:00", "09:30~19:00", "09:30~19:00", "09:30~19:00", "-", "-"]}, {"name": "\uc6b0\ub9ac\uc57d\uad6d", "lat": "37.43796172083751", "lng": "126.74685708428954", "url": "/info/%EC%9A%B0%EB%A6%AC%EC%95%BD%EA%B5%AD-%EC%9D%B8%EC%B2%9C%EA%B4%91%EC%97%AD%EC%8B%9C-%EB%82%A8%EB%8F%99%EA%B5%AC-%EC%84%9C%EC%B0%BD%EB%8F%99/", "workingTime": ["-", "09:00~19:30", "09:00~19:30", "09:00~19:30", "09:00~19:30", "09:00~19:30", "09:00~15:30", "-"]}, {"name": "\uc11c\ucc3d\uc6b0\ub9ac\ub4e4\uc57d\uad6d", "lat": "37.42203148202784", "lng": "126.75181370470311", "url": "/info/%EC%84%9C%EC%B0%BD%EC%9A%B0%EB%A6%AC%EB%93%A4%EC%95%BD%EA%B5%AD-%EC%9D%B8%EC%B2%9C%EA%B4%91%EC%97%AD%EC%8B%9C-%EB%82%A8%EB%8F%99%EA%B5%AC-%EC%84%9C%EC%B0%BD%EB%8F%99/", "workingTime": ["-", "09:00~20:00", "09:00~20:00", "09:00~20:00", "09:00~20:00", "09:00~20:00", "-", "-"]}, {"name": "\uc624\uc57d\uad6d", "lat": "37.4276775122", "lng": "126.7443293192", "url": "/info/%EC%98%A4%EC%95%BD%EA%B5%AD-%EC%9D%B8%EC%B2%9C%EA%B4%91%EC%97%AD%EC%8B%9C-%EB%82%A8%EB%8F%99%EA%B5%AC-%EC%84%9C%EC%B0%BD%EB%8F%99/", "workingTime": ["-", "09:00~20:00", "09:00~20:00", "09:00~20:00", "09:00~20:00", "09:00~20:00", "09:00~17:00", "-"]}, {"name": "\ubbf8\uc18c\uc57d\uad6d", "lat": "37.4261816612", "lng": "126.7476062546", "url": "/info/%EB%AF%B8%EC%86%8C%EC%95%BD%EA%B5%AD-%EC%9D%B8%EC%B2%9C%EA%B4%91%EC%97%AD%EC%8B%9C-%EB%82%A8%EB%8F%99%EA%B5%AC-%EC%84%9C%EC%B0%BD%EB%8F%99/", "workingTime": ["-", "09:00~20:00", "09:00~20:00", "09:00~20:00", "09:00~20:00", "09:00~20:00", "09:00~17:00", "-"]}]