[{"name": "\uac15\ud654\uac74\uac15\uc57d\uad6d", "lat": "37.742028282766", "lng": "126.496173881347", "url": "/info/%EA%B0%95%ED%99%94%EA%B1%B4%EA%B0%95%EC%95%BD%EA%B5%AD-%EC%9D%B8%EC%B2%9C%EA%B4%91%EC%97%AD%EC%8B%9C-%EA%B0%95%ED%99%94%EA%B5%B0-%EA%B0%95%ED%99%94%EC%9D%8D/", "workingTime": ["-", "10:00~17:30", "10:00~17:30", "10:00~17:30", "10:00~17:30", "10:00~17:30", "-", "-"]}, {"name": "\ub0a8\uc0b0\uc57d\uad6d", "lat": "37.73719168122054", "lng": "126.48563670109206", "url": "/info/%EB%82%A8%EC%82%B0%EC%95%BD%EA%B5%AD-%EC%9D%B8%EC%B2%9C%EA%B4%91%EC%97%AD%EC%8B%9C-%EA%B0%95%ED%99%94%EA%B5%B0-%EA%B0%95%ED%99%94%EC%9D%8D/", "workingTime": ["-", "09:00~18:00", "09:00~18:00", "09:00~18:00", "09:00~18:00", "09:00~18:00", "-", "-"]}, {"name": "\ubaa8\ub358\ud55c\ubc29\uc57d\uad6d", "lat": "37.7415467973", "lng": "126.4910330963", "url": "/info/%EB%AA%A8%EB%8D%98%ED%95%9C%EB%B0%A9%EC%95%BD%EA%B5%AD-%EC%9D%B8%EC%B2%9C%EA%B4%91%EC%97%AD%EC%8B%9C-%EA%B0%95%ED%99%94%EA%B5%B0-%EA%B0%95%ED%99%94%EC%9D%8D/", "workingTime": ["-", "10:30~17:30", "10:30~17:30", "10:30~17:30", "10:30~17:30", "10:30~17:30", "-", "-"]}, {"name": "\uac15\ud654\uc885\ub85c\uc57d\uad6d", "lat": "37.744965697", "lng": "126.4874424961", "url": "/info/%EA%B0%95%ED%99%94%EC%A2%85%EB%A1%9C%EC%95%BD%EA%B5%AD-%EC%9D%B8%EC%B2%9C%EA%B4%91%EC%97%AD%EC%8B%9C-%EA%B0%95%ED%99%94%EA%B5%B0-%EA%B0%95%ED%99%94%EC%9D%8D/", "workingTime": ["1,2,3,4,5\uc9f8\uc8fc14:00~20:00", "08:00~21:00", "08:00~21:00", "08:00~21:00", "08:00~21:00", "08:00~21:00", "08:00~21:00", "09:00~20:00"]}, {"name": "\uac10\ucd08\uc57d\uad6d", "lat": "37.74715519731376", "lng": "126.4837612248509", "url": "/info/%EA%B0%90%EC%B4%88%EC%95%BD%EA%B5%AD-%EC%9D%B8%EC%B2%9C%EA%B4%91%EC%97%AD%EC%8B%9C-%EA%B0%95%ED%99%94%EA%B5%B0-%EA%B0%95%ED%99%94%EC%9D%8D/", "workingTime": ["-", "08:30~20:30", "08:30~20:30", "08:30~20:30", "08:30~20:30", "08:30~20:30", "08:30~20:00", "09:00~20:00"]}, {"name": "\uac15\ud654\uc815\ubb38\uc57d\uad6d", "lat": "37.7367065305", "lng": "126.4859792462", "url": "/info/%EA%B0%95%ED%99%94%EC%A0%95%EB%AC%B8%EC%95%BD%EA%B5%AD-%EC%9D%B8%EC%B2%9C%EA%B4%91%EC%97%AD%EC%8B%9C-%EA%B0%95%ED%99%94%EA%B5%B0-%EA%B0%95%ED%99%94%EC%9D%8D/", "workingTime": ["-", "08:30~14:00", "08:30~14:00", "08:30~14:00", "08:30~14:00", "08:30~14:00", "09:00~15:00", "-"]}, {"name": "\ub2e4\ub098\uc57d\uad6d", "lat": "37.747374256662994", "lng": "126.48605164880493", "url": "/info/%EB%8B%A4%EB%82%98%EC%95%BD%EA%B5%AD-%EC%9D%B8%EC%B2%9C%EA%B4%91%EC%97%AD%EC%8B%9C-%EA%B0%95%ED%99%94%EA%B5%B0-%EA%B0%95%ED%99%94%EC%9D%8D/", "workingTime": ["-", "09:00~19:00", "09:00~19:00", "09:00~19:00", "09:00~19:00", "09:00~19:00", "09:00~16:00", "-"]}, {"name": "\uba54\ub514\ud31c\uc870\uc740\uc57d\uad6d", "lat": "37.7393640197", "lng": "126.4896321653", "url": "/info/%EB%A9%94%EB%94%94%ED%8C%9C%EC%A1%B0%EC%9D%80%EC%95%BD%EA%B5%AD-%EC%9D%B8%EC%B2%9C%EA%B4%91%EC%97%AD%EC%8B%9C-%EA%B0%95%ED%99%94%EA%B5%B0-%EA%B0%95%ED%99%94%EC%9D%8D/", "workingTime": ["-", "08:00~18:00", "08:00~18:00", "08:00~18:00", "08:00~18:00", "08:00~18:00", "08:00~15:00", "-"]}, {"name": "\ud558\ud558\uc57d\uad6d", "lat": "37.7453918552", "lng": "126.4868223303", "url": "/info/%ED%95%98%ED%95%98%EC%95%BD%EA%B5%AD-%EC%9D%B8%EC%B2%9C%EA%B4%91%EC%97%AD%EC%8B%9C-%EA%B0%95%ED%99%94%EA%B5%B0-%EA%B0%95%ED%99%94%EC%9D%8D/", "workingTime": ["-", "08:30~13:30", "08:30~13:30", "08:30~13:30", "08:30~13:30", "08:30~13:30", "08:30~13:30", "-"]}, {"name": "\ud070\uc0d8\uc628\ub204\ub9ac\uc57d\uad6d", "lat": "37.7419251491", "lng": "126.4918564619", "url": "/info/%ED%81%B0%EC%83%98%EC%98%A8%EB%88%84%EB%A6%AC%EC%95%BD%EA%B5%AD-%EC%9D%B8%EC%B2%9C%EA%B4%91%EC%97%AD%EC%8B%9C-%EA%B0%95%ED%99%94%EA%B5%B0-%EA%B0%95%ED%99%94%EC%9D%8D/", "workingTime": ["-", "08:00~13:00", "08:00~13:00", "08:00~13:00", "08:00~13:00", "08:00~13:00", "08:00~13:30", "-"]}, {"name": "\uc774\ud654\uc57d\uad6d", "lat": "37.7406409271", "lng": "126.4907307052", "url": "/info/%EC%9D%B4%ED%99%94%EC%95%BD%EA%B5%AD-%EC%9D%B8%EC%B2%9C%EA%B4%91%EC%97%AD%EC%8B%9C-%EA%B0%95%ED%99%94%EA%B5%B0-%EA%B0%95%ED%99%94%EC%9D%8D/", "workingTime": ["-", "09:00~19:00", "09:00~19:00", "09:00~19:00", "09:00~19:00", "09:00~19:00", "09:00~15:00", "-"]}, {"name": "\uc740\ud654\uc57d\uad6d", "lat": "37.746474719384295", "lng": "126.48638823410297", "url": "/info/%EC%9D%80%ED%99%94%EC%95%BD%EA%B5%AD-%EC%9D%B8%EC%B2%9C%EA%B4%91%EC%97%AD%EC%8B%9C-%EA%B0%95%ED%99%94%EA%B5%B0-%EA%B0%95%ED%99%94%EC%9D%8D/", "workingTime": ["-", "08:30~19:00", "08:30~19:00", "08:30~19:00", "08:30~19:00", "08:30~19:00", "08:00~19:00", "-"]}, {"name": "\uc7ac\uacbd\uc57d\uad6d", "lat": "37.746683509245614", "lng": "126.48592048019034", "url": "/info/%EC%9E%AC%EA%B2%BD%EC%95%BD%EA%B5%AD-%EC%9D%B8%EC%B2%9C%EA%B4%91%EC%97%AD%EC%8B%9C-%EA%B0%95%ED%99%94%EA%B5%B0-%EA%B0%95%ED%99%94%EC%9D%8D/", "workingTime": ["-", "09:00~13:00", "09:00~13:00", "09:00~13:00", "09:00~13:00", "09:00~13:00", "09:00~15:00", "-"]}, {"name": "\uc9c4\uc57d\uad6d", "lat": "37.74711206985211", "lng": "126.48543169290082", "url": "/info/%EC%A7%84%EC%95%BD%EA%B5%AD-%EC%9D%B8%EC%B2%9C%EA%B4%91%EC%97%AD%EC%8B%9C-%EA%B0%95%ED%99%94%EA%B5%B0-%EA%B0%95%ED%99%94%EC%9D%8D/", "workingTime": ["-", "09:00~18:30", "09:00~18:30", "09:00~18:30", "09:00~18:30", "09:00~18:30", "09:00~16:00", "-"]}, {"name": "e-\ubbff\uc74c\uc57d\uad6d", "lat": "37.7430414333588", "lng": "126.49579355552945", "url": "/info/e-%EB%AF%BF%EC%9D%8C%EC%95%BD%EA%B5%AD-%EC%9D%B8%EC%B2%9C%EA%B4%91%EC%97%AD%EC%8B%9C-%EA%B0%95%ED%99%94%EA%B5%B0-%EA%B0%95%ED%99%94%EC%9D%8D/", "workingTime": ["-", "09:00~18:00", "09:00~18:00", "09:00~18:00", "09:00~18:00", "09:00~18:00", "09:00~13:00", "-"]}, {"name": "\uc2e0\uc138\uacc4\uc57d\uad6d", "lat": "37.74108623574702", "lng": "126.49116434782192", "url": "/info/%EC%8B%A0%EC%84%B8%EA%B3%84%EC%95%BD%EA%B5%AD-%EC%9D%B8%EC%B2%9C%EA%B4%91%EC%97%AD%EC%8B%9C-%EA%B0%95%ED%99%94%EA%B5%B0-%EA%B0%95%ED%99%94%EC%9D%8D/", "workingTime": ["09:00~15:00(\uc5f0\ub77d\ud6c4\ubc29\ubb38\uc694\ub9dd)", "09:00~15:00", "09:00~15:00", "09:00~15:00", "09:00~15:00", "09:00~15:00", "08:00~18:00", "09:00~18:00"]}, {"name": "\uac15\ud654\uc57d\uad6d", "lat": "37.7397782028", "lng": "126.4904053351", "url": "/info/%EA%B0%95%ED%99%94%EC%95%BD%EA%B5%AD-%EC%9D%B8%EC%B2%9C%EA%B4%91%EC%97%AD%EC%8B%9C-%EA%B0%95%ED%99%94%EA%B5%B0-%EA%B0%95%ED%99%94%EC%9D%8D/", "workingTime": ["08:00~15:00(\uc5f0\ub77d\ud6c4\ubc29\ubb38\uc694\ub9dd)", "08:00~19:00", "08:00~19:00", "08:00~19:00", "08:00~19:00", "08:00~19:00", "08:00~18:00", "-"]}]