[{"name": "\uad50\ub3d9\ud070\uc57d\uad6d", "lat": "34.7400448705772", "lng": "127.731019654261", "url": "/info/%EA%B5%90%EB%8F%99%ED%81%B0%EC%95%BD%EA%B5%AD-%EC%A0%84%EB%9D%BC%EB%82%A8%EB%8F%84-%EC%97%AC%EC%88%98%EC%8B%9C-%EA%B5%90%EB%8F%99/", "workingTime": ["-", "08:00~19:00", "08:00~19:00", "08:00~19:00", "08:00~19:00", "08:00~19:00", "08:00~13:00", "-"]}, {"name": "\uc2dc\uc7a5\uc57d\uad6d", "lat": "34.74206278971968", "lng": "127.73467559816258", "url": "/info/%EC%8B%9C%EC%9E%A5%EC%95%BD%EA%B5%AD-%EC%A0%84%EB%9D%BC%EB%82%A8%EB%8F%84-%EC%97%AC%EC%88%98%EC%8B%9C-%EA%B5%90%EB%8F%99/", "workingTime": ["-", "06:00~14:30", "06:00~14:30", "06:00~14:30", "06:00~14:30", "06:00~14:30", "06:00~15:00", "06:00~15:00"]}, {"name": "\uc5ec\uc218\ubc14\ub2e4\uc57d\uad6d", "lat": "34.739680555555559", "lng": "127.731544444444438", "url": "/info/%EC%97%AC%EC%88%98%EB%B0%94%EB%8B%A4%EC%95%BD%EA%B5%AD-%EC%A0%84%EB%9D%BC%EB%82%A8%EB%8F%84-%EC%97%AC%EC%88%98%EC%8B%9C-%EA%B5%90%EB%8F%99/", "workingTime": ["-", "08:30~19:00", "08:30~19:00", "08:30~19:00", "08:30~19:00", "08:30~19:00", "08:30~13:00", "-"]}, {"name": "\uc5ec\uc218\uc911\uc559\uc57d\uad6d", "lat": "34.740283333333331", "lng": "127.734458333333336", "url": "/info/%EC%97%AC%EC%88%98%EC%A4%91%EC%95%99%EC%95%BD%EA%B5%AD-%EC%A0%84%EB%9D%BC%EB%82%A8%EB%8F%84-%EC%97%AC%EC%88%98%EC%8B%9C-%EA%B5%90%EB%8F%99/", "workingTime": ["-", "08:30~20:30", "08:30~20:30", "08:30~20:30", "08:30~20:30", "08:30~20:30", "08:30~14:30", "-"]}, {"name": "\ubd80\ubd80\uc57d\uad6d", "lat": "34.74027616717256", "lng": "127.73445099641563", "url": "/info/%EB%B6%80%EB%B6%80%EC%95%BD%EA%B5%AD-%EC%A0%84%EB%9D%BC%EB%82%A8%EB%8F%84-%EC%97%AC%EC%88%98%EC%8B%9C-%EA%B5%90%EB%8F%99/", "workingTime": ["-", "08:00~18:00", "08:00~18:00", "08:00~18:00", "08:00~18:00", "08:00~18:00", "08:00~13:00", "-"]}, {"name": "\uc218\uc815\uc57d\uad6d", "lat": "34.74008352631828", "lng": "127.73163749756995", "url": "/info/%EC%88%98%EC%A0%95%EC%95%BD%EA%B5%AD-%EC%A0%84%EB%9D%BC%EB%82%A8%EB%8F%84-%EC%97%AC%EC%88%98%EC%8B%9C-%EA%B5%90%EB%8F%99/", "workingTime": ["-", "08:00~18:00", "08:00~18:00", "08:00~18:00", "08:00~18:00", "08:00~18:00", "08:00~17:00", "-"]}, {"name": "\uc138\uc77c\uc57d\uad6d", "lat": "34.7408938488", "lng": "127.7329921317", "url": "/info/%EC%84%B8%EC%9D%BC%EC%95%BD%EA%B5%AD-%EC%A0%84%EB%9D%BC%EB%82%A8%EB%8F%84-%EC%97%AC%EC%88%98%EC%8B%9C-%EA%B5%90%EB%8F%99/", "workingTime": ["-", "08:30~19:00", "08:30~19:00", "08:30~19:00", "08:30~19:00", "08:30~19:00", "08:30~15:30", "-"]}, {"name": "\uc138\uba85\uc57d\uad6d", "lat": "34.74031236617777", "lng": "127.73436312169085", "url": "/info/%EC%84%B8%EB%AA%85%EC%95%BD%EA%B5%AD-%EC%A0%84%EB%9D%BC%EB%82%A8%EB%8F%84-%EC%97%AC%EC%88%98%EC%8B%9C-%EA%B5%90%EB%8F%99/", "workingTime": ["-", "09:00~13:00", "09:00~13:00", "09:00~13:00", "09:00~13:00", "09:00~13:00", "08:30~13:00", "-"]}]