[{"name": "\ucd08\ub2f9\uc57d\uad6d", "lat": "34.803338036931294", "lng": "126.39363739996233", "url": "/info/%EC%B4%88%EB%8B%B9%EC%95%BD%EA%B5%AD-%EC%A0%84%EB%9D%BC%EB%82%A8%EB%8F%84-%EB%AA%A9%ED%8F%AC%EC%8B%9C-%EC%9A%A9%EB%8B%B9%EB%8F%99/", "workingTime": ["1,2,3,4,5\uc9f8\uc8fc09:00~18:00", "07:00~20:00", "07:00~20:00", "07:00~20:00", "07:00~20:00", "07:00~20:00", "07:00~18:30", "09:00~17:00"]}, {"name": "\uac00\ub098\uc57d\uad6d", "lat": "34.806248149109706", "lng": "126.40288563972804", "url": "/info/%EA%B0%80%EB%82%98%EC%95%BD%EA%B5%AD-%EC%A0%84%EB%9D%BC%EB%82%A8%EB%8F%84-%EB%AA%A9%ED%8F%AC%EC%8B%9C-%EC%9A%A9%EB%8B%B9%EB%8F%99/", "workingTime": ["-", "07:30~18:00", "07:30~18:00", "07:30~18:00", "07:30~18:00", "07:30~18:00", "07:30~12:30", "-"]}, {"name": "\ubc31\uc138\uc57d\uad6d", "lat": "34.80330183249999", "lng": "126.3925733497", "url": "/info/%EB%B0%B1%EC%84%B8%EC%95%BD%EA%B5%AD-%EC%A0%84%EB%9D%BC%EB%82%A8%EB%8F%84-%EB%AA%A9%ED%8F%AC%EC%8B%9C-%EC%9A%A9%EB%8B%B9%EB%8F%99/", "workingTime": ["-", "08:00~19:00", "08:00~19:00", "08:00~19:00", "08:00~19:00", "08:00~19:00", "08:00~14:00", "-"]}, {"name": "\uc131\ub0a8\uc57d\uad6d", "lat": "34.804640517565225", "lng": "126.39840685023266", "url": "/info/%EC%84%B1%EB%82%A8%EC%95%BD%EA%B5%AD-%EC%A0%84%EB%9D%BC%EB%82%A8%EB%8F%84-%EB%AA%A9%ED%8F%AC%EC%8B%9C-%EC%9A%A9%EB%8B%B9%EB%8F%99/", "workingTime": ["-", "08:00~21:00", "08:00~21:00", "08:00~21:00", "08:00~21:00", "08:00~21:00", "08:00~21:00", "09:00~20:00"]}, {"name": "\uc138\uc2e0\uc57d\uad6d", "lat": "34.801573673653245", "lng": "126.40035570282175", "url": "/info/%EC%84%B8%EC%8B%A0%EC%95%BD%EA%B5%AD-%EC%A0%84%EB%9D%BC%EB%82%A8%EB%8F%84-%EB%AA%A9%ED%8F%AC%EC%8B%9C-%EC%9A%A9%EB%8B%B9%EB%8F%99/", "workingTime": ["-", "08:00~20:00", "08:00~20:00", "08:00~20:00", "08:00~20:00", "08:00~20:00", "08:00~18:00", "08:00~18:00"]}, {"name": "\uc11c\uc6b8\uc57d\uad6d", "lat": "34.80756655184225", "lng": "126.39879322425403", "url": "/info/%EC%84%9C%EC%9A%B8%EC%95%BD%EA%B5%AD-%EC%A0%84%EB%9D%BC%EB%82%A8%EB%8F%84-%EB%AA%A9%ED%8F%AC%EC%8B%9C-%EC%9A%A9%EB%8B%B9%EB%8F%99/", "workingTime": ["1,2,3,4,5\uc9f8\uc8fc10:00~18:00", "08:00~20:30", "08:00~20:30", "08:00~20:30", "08:00~20:30", "08:00~20:30", "08:00~19:00", "10:00~18:00"]}, {"name": "\uc0d8\ud130\uc57d\uad6d", "lat": "34.80528790897643", "lng": "126.39894692122185", "url": "/info/%EC%83%98%ED%84%B0%EC%95%BD%EA%B5%AD-%EC%A0%84%EB%9D%BC%EB%82%A8%EB%8F%84-%EB%AA%A9%ED%8F%AC%EC%8B%9C-%EC%9A%A9%EB%8B%B9%EB%8F%99/", "workingTime": ["-", "08:30~19:00", "08:30~19:00", "08:30~19:00", "08:30~19:00", "08:30~19:00", "08:30~14:00", "-"]}, {"name": "\ud61c\ubbfc\uc57d\uad6d", "lat": "34.80325080810919", "lng": "126.39349816245142", "url": "/info/%ED%98%9C%EB%AF%BC%EC%95%BD%EA%B5%AD-%EC%A0%84%EB%9D%BC%EB%82%A8%EB%8F%84-%EB%AA%A9%ED%8F%AC%EC%8B%9C-%EC%9A%A9%EB%8B%B9%EB%8F%99/", "workingTime": ["-", "08:00~19:20", "08:00~19:20", "08:00~19:20", "08:00~19:20", "08:00~19:20", "08:00~16:00", "-"]}, {"name": "\uba54\ub514\ud31c\ud0dc\ud3c9\uc591\uc57d\uad6d", "lat": "34.80550648555523", "lng": "126.40047568141435", "url": "/info/%EB%A9%94%EB%94%94%ED%8C%9C%ED%83%9C%ED%8F%89%EC%96%91%EC%95%BD%EA%B5%AD-%EC%A0%84%EB%9D%BC%EB%82%A8%EB%8F%84-%EB%AA%A9%ED%8F%AC%EC%8B%9C-%EC%9A%A9%EB%8B%B9%EB%8F%99/", "workingTime": ["-", "08:30~19:30", "08:30~19:30", "08:30~19:30", "08:30~19:30", "08:30~19:30", "08:30~14:00", "-"]}, {"name": "\ud55c\ube5b\uc57d\uad6d", "lat": "34.8062380670027", "lng": "126.40303927083462", "url": "/info/%ED%95%9C%EB%B9%9B%EC%95%BD%EA%B5%AD-%EC%A0%84%EB%9D%BC%EB%82%A8%EB%8F%84-%EB%AA%A9%ED%8F%AC%EC%8B%9C-%EC%9A%A9%EB%8B%B9%EB%8F%99/", "workingTime": ["-", "09:00~13:00", "09:00~13:00", "09:00~13:00", "09:00~13:00", "09:00~13:00", "08:30~13:00", "-"]}]