[{"name": "\uc6b0\ub9ac\ub3d9\ub124\uc57d\uad6d", "lat": "35.953258715425", "lng": "126.984245628388", "url": "/info/%EC%9A%B0%EB%A6%AC%EB%8F%99%EB%84%A4%EC%95%BD%EA%B5%AD-%EC%A0%84%EB%9D%BC%EB%B6%81%EB%8F%84-%EC%9D%B5%EC%82%B0%EC%8B%9C-%EC%96%B4%EC%96%91%EB%8F%99/", "workingTime": ["1,2,3,4,5\uc9f8\uc8fc12:00~20:00", "10:00~22:00", "10:00~22:00", "10:00~22:00", "10:00~22:00", "10:00~22:00", "10:00~22:00", "-"]}, {"name": "\uc790\uc5f0\uc8fc\uc758\uc57d\uad6d", "lat": "35.9582710866344", "lng": "126.981329694523", "url": "/info/%EC%9E%90%EC%97%B0%EC%A3%BC%EC%9D%98%EC%95%BD%EA%B5%AD-%EC%A0%84%EB%9D%BC%EB%B6%81%EB%8F%84-%EC%9D%B5%EC%82%B0%EC%8B%9C-%EC%96%B4%EC%96%91%EB%8F%99/", "workingTime": ["-", "08:30~19:30", "08:30~19:30", "08:30~13:00", "08:30~19:30", "08:30~19:30", "08:30~13:00", "08:30~13:00"]}, {"name": "\uc81c\uc77c\uc885\ud569\uc57d\uad6d", "lat": "35.9592249607166", "lng": "126.981929513828", "url": "/info/%EC%A0%9C%EC%9D%BC%EC%A2%85%ED%95%A9%EC%95%BD%EA%B5%AD-%EC%A0%84%EB%9D%BC%EB%B6%81%EB%8F%84-%EC%9D%B5%EC%82%B0%EC%8B%9C-%EC%96%B4%EC%96%91%EB%8F%99/", "workingTime": ["-", "08:30~19:00", "08:30~19:00", "08:30~19:00", "08:30~19:00", "08:30~19:00", "08:30~15:00", "-"]}, {"name": "\uc775\uc0b0\ucd08\ub2f9\uc57d\uad6d", "lat": "35.955739859732454", "lng": "126.97995464865755", "url": "/info/%EC%9D%B5%EC%82%B0%EC%B4%88%EB%8B%B9%EC%95%BD%EA%B5%AD-%EC%A0%84%EB%9D%BC%EB%B6%81%EB%8F%84-%EC%9D%B5%EC%82%B0%EC%8B%9C-%EC%96%B4%EC%96%91%EB%8F%99/", "workingTime": ["-", "09:30~21:00", "09:30~21:00", "09:30~21:00", "09:30~21:00", "09:30~21:00", "10:00~18:30", "-"]}, {"name": "\ubbf8\ub974\uc57d\uad6d", "lat": "35.96081590271438", "lng": "126.9816559874842", "url": "/info/%EB%AF%B8%EB%A5%B4%EC%95%BD%EA%B5%AD-%EC%A0%84%EB%9D%BC%EB%B6%81%EB%8F%84-%EC%9D%B5%EC%82%B0%EC%8B%9C-%EC%96%B4%EC%96%91%EB%8F%99/", "workingTime": ["-", "09:00~18:30", "09:00~18:30", "09:00~18:30", "09:00~18:30", "09:00~18:30", "09:00~12:30", "-"]}, {"name": "\ud55c\uc0ac\ub791\uc57d\uad6d", "lat": "35.96154768234629", "lng": "126.98152277892163", "url": "/info/%ED%95%9C%EC%82%AC%EB%9E%91%EC%95%BD%EA%B5%AD-%EC%A0%84%EB%9D%BC%EB%B6%81%EB%8F%84-%EC%9D%B5%EC%82%B0%EC%8B%9C-%EC%96%B4%EC%96%91%EB%8F%99/", "workingTime": ["-", "09:00~19:00", "09:00~19:00", "09:00~19:00", "09:00~19:00", "09:00~19:00", "09:00~14:00", "-"]}, {"name": "\ud558\ub098\ub85c\uc57d\uad6d", "lat": "35.958941666666668", "lng": "126.981949999999998", "url": "/info/%ED%95%98%EB%82%98%EB%A1%9C%EC%95%BD%EA%B5%AD-%EC%A0%84%EB%9D%BC%EB%B6%81%EB%8F%84-%EC%9D%B5%EC%82%B0%EC%8B%9C-%EC%96%B4%EC%96%91%EB%8F%99/", "workingTime": ["-", "08:00~18:30", "08:00~18:30", "08:00~18:30", "08:00~18:30", "08:00~18:30", "08:00~16:00", "08:00~16:00"]}, {"name": "\ud55c\ube5b\uc57d\uad6d", "lat": "35.95276326588233", "lng": "126.98724889820255", "url": "/info/%ED%95%9C%EB%B9%9B%EC%95%BD%EA%B5%AD-%EC%A0%84%EB%9D%BC%EB%B6%81%EB%8F%84-%EC%9D%B5%EC%82%B0%EC%8B%9C-%EC%96%B4%EC%96%91%EB%8F%99/", "workingTime": ["-", "08:00~21:00", "08:00~21:00", "08:00~21:00", "08:00~21:00", "08:00~21:00", "08:00~21:00", "08:00~21:00"]}, {"name": "\uc870\uc544\uc57d\uad6d", "lat": "35.9643257344", "lng": "126.984036234", "url": "/info/%EC%A1%B0%EC%95%84%EC%95%BD%EA%B5%AD-%EC%A0%84%EB%9D%BC%EB%B6%81%EB%8F%84-%EC%9D%B5%EC%82%B0%EC%8B%9C-%EC%96%B4%EC%96%91%EB%8F%99/", "workingTime": ["1,2,3,4,5\uc9f8\uc8fc09:00~21:00", "09:00~21:00", "09:00~21:00", "09:00~21:00", "09:00~21:00", "09:00~21:00", "09:00~21:00", "09:00~21:00"]}, {"name": "\uc775\uc0b0\uace0\ub824\uc885\ud569\uc57d\uad6d", "lat": "35.95924058323237", "lng": "126.98188251816353", "url": "/info/%EC%9D%B5%EC%82%B0%EA%B3%A0%EB%A0%A4%EC%A2%85%ED%95%A9%EC%95%BD%EA%B5%AD-%EC%A0%84%EB%9D%BC%EB%B6%81%EB%8F%84-%EC%9D%B5%EC%82%B0%EC%8B%9C-%EC%96%B4%EC%96%91%EB%8F%99/", "workingTime": ["-", "09:00~19:00", "09:00~19:00", "09:00~19:00", "09:00~19:00", "09:00~19:00", "09:00~13:00", "-"]}, {"name": "\uc5b4\uc591\uc6b0\ub9ac\uc57d\uad6d", "lat": "35.95840044474122", "lng": "126.98051348356235", "url": "/info/%EC%96%B4%EC%96%91%EC%9A%B0%EB%A6%AC%EC%95%BD%EA%B5%AD-%EC%A0%84%EB%9D%BC%EB%B6%81%EB%8F%84-%EC%9D%B5%EC%82%B0%EC%8B%9C-%EC%96%B4%EC%96%91%EB%8F%99/", "workingTime": ["-", "09:00~18:30", "09:00~18:30", "09:00~18:30", "09:00~18:30", "09:00~18:30", "09:00~13:00", "-"]}, {"name": "\ube44\uc6c0\ud55c\uc57d\uad6d", "lat": "35.95226363016867", "lng": "126.98474805392048", "url": "/info/%EB%B9%84%EC%9B%80%ED%95%9C%EC%95%BD%EA%B5%AD-%EC%A0%84%EB%9D%BC%EB%B6%81%EB%8F%84-%EC%9D%B5%EC%82%B0%EC%8B%9C-%EC%96%B4%EC%96%91%EB%8F%99/", "workingTime": ["-", "09:00~18:00", "09:00~18:00", "09:00~18:00", "09:00~18:00", "09:00~18:00", "10:00~18:00", "-"]}, {"name": "\ub300\uc911\uc57d\uad6d", "lat": "35.9583154465", "lng": "126.9787343276", "url": "/info/%EB%8C%80%EC%A4%91%EC%95%BD%EA%B5%AD-%EC%A0%84%EB%9D%BC%EB%B6%81%EB%8F%84-%EC%9D%B5%EC%82%B0%EC%8B%9C-%EC%96%B4%EC%96%91%EB%8F%99/", "workingTime": ["-", "09:00~12:00", "09:00~12:00", "09:00~12:00", "09:00~12:00", "09:00~12:00", "-", "-"]}, {"name": "\uac74\uac15\ud55c\uc57d\uad6d", "lat": "35.95838248469081", "lng": "126.9811378149721", "url": "/info/%EA%B1%B4%EA%B0%95%ED%95%9C%EC%95%BD%EA%B5%AD-%EC%A0%84%EB%9D%BC%EB%B6%81%EB%8F%84-%EC%9D%B5%EC%82%B0%EC%8B%9C-%EC%96%B4%EC%96%91%EB%8F%99/", "workingTime": ["-", "09:00~12:00", "09:00~12:00", "09:00~12:00", "09:00~12:00", "09:00~12:00", "-", "-"]}, {"name": "\ud0dc\uc591\uc57d\uad6d", "lat": "35.95950438892989", "lng": "126.98634757209864", "url": "/info/%ED%83%9C%EC%96%91%EC%95%BD%EA%B5%AD-%EC%A0%84%EB%9D%BC%EB%B6%81%EB%8F%84-%EC%9D%B5%EC%82%B0%EC%8B%9C-%EC%96%B4%EC%96%91%EB%8F%99/", "workingTime": ["-", "08:30~09:00", "08:30~09:00", "08:30~09:00", "08:30~09:00", "08:30~09:00", "08:30~09:00", "-"]}]