[{"name": "\ucf54\ub07c\ub9ac\uc57d\uad6d", "lat": "34.76092466877793", "lng": "127.6740136484333", "url": "/info/%EC%BD%94%EB%81%BC%EB%A6%AC%EC%95%BD%EA%B5%AD-%EC%A0%84%EB%9D%BC%EB%82%A8%EB%8F%84-%EC%97%AC%EC%88%98%EC%8B%9C-%EC%8B%A0%EA%B8%B0%EB%8F%99/", "workingTime": ["-", "08:30~20:30", "08:30~20:30", "08:30~20:30", "08:30~20:30", "08:30~20:30", "08:30~13:00", "-"]}, {"name": "\uc5ec\ucc9c\uc88c\uc218\uc601\uc57d\uad6d", "lat": "34.761299999999999", "lng": "127.672858333333338", "url": "/info/%EC%97%AC%EC%B2%9C%EC%A2%8C%EC%88%98%EC%98%81%EC%95%BD%EA%B5%AD-%EC%A0%84%EB%9D%BC%EB%82%A8%EB%8F%84-%EC%97%AC%EC%88%98%EC%8B%9C-%EC%8B%A0%EA%B8%B0%EB%8F%99/", "workingTime": ["2,4,5\uc9f8\uc8fc10:00~21:00", "09:00~22:00", "09:00~22:00", "09:00~22:00", "09:00~22:00", "09:00~22:00", "09:00~21:00", "10:00~21:00"]}, {"name": "\ub2e4\uc18c\ub2c8\uc57d\uad6d", "lat": "34.76151364171497", "lng": "127.67476225483791", "url": "/info/%EB%8B%A4%EC%86%8C%EB%8B%88%EC%95%BD%EA%B5%AD-%EC%A0%84%EB%9D%BC%EB%82%A8%EB%8F%84-%EC%97%AC%EC%88%98%EC%8B%9C-%EC%8B%A0%EA%B8%B0%EB%8F%99/", "workingTime": ["1,2,3,4,5\uc9f8\uc8fc13:00~19:00", "08:30~21:00", "08:30~21:00", "08:30~21:00", "08:30~21:00", "08:30~21:00", "08:30~19:00", "-"]}, {"name": "\ubbf8\uc548\uc57d\uad6d", "lat": "34.758791327734166", "lng": "127.66823819204305", "url": "/info/%EB%AF%B8%EC%95%88%EC%95%BD%EA%B5%AD-%EC%A0%84%EB%9D%BC%EB%82%A8%EB%8F%84-%EC%97%AC%EC%88%98%EC%8B%9C-%EC%8B%A0%EA%B8%B0%EB%8F%99/", "workingTime": ["-", "08:00~18:00", "08:00~18:00", "08:00~18:00", "08:00~18:00", "08:00~18:00", "08:00~13:30", "-"]}, {"name": "\ud604\uc57d\uad6d", "lat": "34.76399178575086", "lng": "127.67731979681112", "url": "/info/%ED%98%84%EC%95%BD%EA%B5%AD-%EC%A0%84%EB%9D%BC%EB%82%A8%EB%8F%84-%EC%97%AC%EC%88%98%EC%8B%9C-%EC%8B%A0%EA%B8%B0%EB%8F%99/", "workingTime": ["1,2,3,4,5\uc9f8\uc8fc08:30~13:00", "08:30~18:30", "08:30~18:30", "08:30~18:30", "08:30~18:30", "08:30~18:30", "08:30~16:00", "-"]}, {"name": "\uc18c\ub9dd\uc57d\uad6d", "lat": "34.75936352487886", "lng": "127.66795906900532", "url": "/info/%EC%86%8C%EB%A7%9D%EC%95%BD%EA%B5%AD-%EC%A0%84%EB%9D%BC%EB%82%A8%EB%8F%84-%EC%97%AC%EC%88%98%EC%8B%9C-%EC%8B%A0%EA%B8%B0%EB%8F%99/", "workingTime": ["-", "08:30~18:00", "08:30~18:00", "08:30~18:00", "08:30~18:00", "08:30~18:00", "08:30~13:00", "-"]}, {"name": "\uc6b0\ub9ac\uc57d\uad6d", "lat": "34.75880030506843", "lng": "127.66972148630111", "url": "/info/%EC%9A%B0%EB%A6%AC%EC%95%BD%EA%B5%AD-%EC%A0%84%EB%9D%BC%EB%82%A8%EB%8F%84-%EC%97%AC%EC%88%98%EC%8B%9C-%EC%8B%A0%EA%B8%B0%EB%8F%99/", "workingTime": ["-", "09:00~13:00", "09:00~13:00", "09:00~13:00", "09:00~13:00", "09:00~13:00", "09:00~13:00", "-"]}]