[{"name": "\uc0c8\uc7a5\ud765\uc57d\uad6d", "lat": "34.67747964286078", "lng": "126.90956969401779", "url": "/info/%EC%83%88%EC%9E%A5%ED%9D%A5%EC%95%BD%EA%B5%AD-%EC%A0%84%EB%9D%BC%EB%82%A8%EB%8F%84-%EC%9E%A5%ED%9D%A5%EA%B5%B0-%EC%9E%A5%ED%9D%A5%EC%9D%8D/", "workingTime": ["-", "08:30~18:00", "08:30~18:00", "08:30~18:00", "08:30~18:00", "08:30~18:00", "08:30~13:00", "-"]}, {"name": "\uc2e0\ud654\uc57d\uad6d", "lat": "34.6770326685176", "lng": "126.908074072208", "url": "/info/%EC%8B%A0%ED%99%94%EC%95%BD%EA%B5%AD-%EC%A0%84%EB%9D%BC%EB%82%A8%EB%8F%84-%EC%9E%A5%ED%9D%A5%EA%B5%B0-%EC%9E%A5%ED%9D%A5%EC%9D%8D/", "workingTime": ["-", "08:00~18:00", "08:00~18:00", "08:00~18:00", "08:00~18:00", "08:00~18:00", "08:00~13:30", "-"]}, {"name": "\uc911\uc559\uc57d\uad6d", "lat": "34.678082777", "lng": "126.9079964204", "url": "/info/%EC%A4%91%EC%95%99%EC%95%BD%EA%B5%AD-%EC%A0%84%EB%9D%BC%EB%82%A8%EB%8F%84-%EC%9E%A5%ED%9D%A5%EA%B5%B0-%EC%9E%A5%ED%9D%A5%EC%9D%8D/", "workingTime": ["-", "08:30~18:30", "08:30~18:30", "08:30~18:30", "08:30~18:30", "08:30~18:30", "08:30~14:00", "-"]}, {"name": "\uadf8\ub79c\ub4dc\uc57d\uad6d", "lat": "34.678086380113534", "lng": "126.9108784277582", "url": "/info/%EA%B7%B8%EB%9E%9C%EB%93%9C%EC%95%BD%EA%B5%AD-%EC%A0%84%EB%9D%BC%EB%82%A8%EB%8F%84-%EC%9E%A5%ED%9D%A5%EA%B5%B0-%EC%9E%A5%ED%9D%A5%EC%9D%8D/", "workingTime": ["-", "08:30~18:00", "08:30~18:00", "08:30~18:00", "08:30~18:00", "08:30~18:00", "08:00~13:00", "-"]}, {"name": "\uc194\uc57d\uad6d", "lat": "34.67881138132313", "lng": "126.90647363986483", "url": "/info/%EC%86%94%EC%95%BD%EA%B5%AD-%EC%A0%84%EB%9D%BC%EB%82%A8%EB%8F%84-%EC%9E%A5%ED%9D%A5%EA%B5%B0-%EC%9E%A5%ED%9D%A5%EC%9D%8D/", "workingTime": ["-", "08:30~18:30", "08:30~18:30", "08:30~18:30", "08:30~18:30", "08:30~18:30", "08:30~13:30", "-"]}, {"name": "\ud558\ub098\ub85c\uc57d\uad6d", "lat": "34.67790501623826", "lng": "126.90898305145128", "url": "/info/%ED%95%98%EB%82%98%EB%A1%9C%EC%95%BD%EA%B5%AD-%EC%A0%84%EB%9D%BC%EB%82%A8%EB%8F%84-%EC%9E%A5%ED%9D%A5%EA%B5%B0-%EC%9E%A5%ED%9D%A5%EC%9D%8D/", "workingTime": ["1,2,3\uc9f8\uc8fc08:30~22:00", "08:30~21:30", "08:30~21:30", "08:30~21:30", "08:30~21:30", "08:30~21:30", "08:30~21:30", "-"]}, {"name": "\uc628\ub204\ub9ac\uc57d\uad6d", "lat": "34.676721785291924", "lng": "126.91064725631716", "url": "/info/%EC%98%A8%EB%88%84%EB%A6%AC%EC%95%BD%EA%B5%AD-%EC%A0%84%EB%9D%BC%EB%82%A8%EB%8F%84-%EC%9E%A5%ED%9D%A5%EA%B5%B0-%EC%9E%A5%ED%9D%A5%EC%9D%8D/", "workingTime": ["-", "08:30~18:00", "08:30~18:00", "08:30~18:00", "08:30~18:00", "08:30~18:00", "08:30~13:00", "-"]}, {"name": "\ud638\ub0a8\uc57d\uad6d", "lat": "34.67753807998692", "lng": "126.91012536057695", "url": "/info/%ED%98%B8%EB%82%A8%EC%95%BD%EA%B5%AD-%EC%A0%84%EB%9D%BC%EB%82%A8%EB%8F%84-%EC%9E%A5%ED%9D%A5%EA%B5%B0-%EC%9E%A5%ED%9D%A5%EC%9D%8D/", "workingTime": ["-", "08:30~18:00", "08:30~18:00", "08:30~18:00", "08:30~18:00", "08:30~18:00", "08:30~13:00", "-"]}, {"name": "\uac10\ucd08\uc57d\uad6d", "lat": "34.677402380885425", "lng": "126.90944624210252", "url": "/info/%EA%B0%90%EC%B4%88%EC%95%BD%EA%B5%AD-%EC%A0%84%EB%9D%BC%EB%82%A8%EB%8F%84-%EC%9E%A5%ED%9D%A5%EA%B5%B0-%EC%9E%A5%ED%9D%A5%EC%9D%8D/", "workingTime": ["-", "07:00~19:00", "07:00~19:00", "07:00~19:00", "07:00~19:00", "07:00~19:00", "07:30~17:00", "-"]}, {"name": "\uc7a5\uc0dd\uc57d\uad6d", "lat": "34.67799853036087", "lng": "126.90988044007312", "url": "/info/%EC%9E%A5%EC%83%9D%EC%95%BD%EA%B5%AD-%EC%A0%84%EB%9D%BC%EB%82%A8%EB%8F%84-%EC%9E%A5%ED%9D%A5%EA%B5%B0-%EC%9E%A5%ED%9D%A5%EC%9D%8D/", "workingTime": ["-", "09:00~21:00", "09:00~21:00", "09:00~21:00", "09:00~21:00", "09:00~21:00", "09:00~17:00", "-"]}, {"name": "\ud478\ub978\uc57d\uad6d", "lat": "34.67743874587657", "lng": "126.90867476130486", "url": "/info/%ED%91%B8%EB%A5%B8%EC%95%BD%EA%B5%AD-%EC%A0%84%EB%9D%BC%EB%82%A8%EB%8F%84-%EC%9E%A5%ED%9D%A5%EA%B5%B0-%EC%9E%A5%ED%9D%A5%EC%9D%8D/", "workingTime": ["-", "09:00~15:00", "09:00~15:00", "09:00~15:00", "09:00~15:00", "09:00~15:00", "08:00~16:00", "-"]}]