[{"name": "\uc11c\uc6b8\uc57d\uad6d", "lat": "35.56848431029245", "lng": "126.85058303949773", "url": "/info/%EC%84%9C%EC%9A%B8%EC%95%BD%EA%B5%AD-%EC%A0%84%EB%9D%BC%EB%B6%81%EB%8F%84-%EC%A0%95%EC%9D%8D%EC%8B%9C-%EC%88%98%EC%84%B1%EB%8F%99/", "workingTime": ["-", "09:00~18:00", "09:00~18:00", "09:00~18:00", "09:00~18:00", "09:00~18:00", "09:00~13:00", "-"]}, {"name": "\ubd04\ube5b\uc57d\uad6d", "lat": "35.5668374694", "lng": "126.8518899356", "url": "/info/%EB%B4%84%EB%B9%9B%EC%95%BD%EA%B5%AD-%EC%A0%84%EB%9D%BC%EB%B6%81%EB%8F%84-%EC%A0%95%EC%9D%8D%EC%8B%9C-%EC%88%98%EC%84%B1%EB%8F%99/", "workingTime": ["-", "08:30~17:00", "08:30~17:00", "08:30~17:00", "08:30~17:00", "08:30~17:00", "08:30~12:00", "-"]}, {"name": "\uc131\ub9bc\uc57d\uad6d", "lat": "35.5682459649", "lng": "126.850969555", "url": "/info/%EC%84%B1%EB%A6%BC%EC%95%BD%EA%B5%AD-%EC%A0%84%EB%9D%BC%EB%B6%81%EB%8F%84-%EC%A0%95%EC%9D%8D%EC%8B%9C-%EC%88%98%EC%84%B1%EB%8F%99/", "workingTime": ["1,2,3,4,5\uc9f8\uc8fc13:50~18:00", "08:40~19:00", "08:40~19:00", "08:40~19:00", "08:40~19:00", "08:40~19:00", "08:40~15:00", "08:40~13:00"]}, {"name": "\ud070\uc0ac\ub791\uc57d\uad6d", "lat": "35.568998689039674", "lng": "126.85107779146324", "url": "/info/%ED%81%B0%EC%82%AC%EB%9E%91%EC%95%BD%EA%B5%AD-%EC%A0%84%EB%9D%BC%EB%B6%81%EB%8F%84-%EC%A0%95%EC%9D%8D%EC%8B%9C-%EC%88%98%EC%84%B1%EB%8F%99/", "workingTime": ["-", "08:00~18:30", "08:00~18:30", "08:00~18:30", "08:00~18:30", "08:00~18:30", "08:00~13:00", "08:00~13:00"]}, {"name": "\uc138\uacc4\ub85c\uc57d\uad6d", "lat": "35.5691265271", "lng": "126.8516959858", "url": "/info/%EC%84%B8%EA%B3%84%EB%A1%9C%EC%95%BD%EA%B5%AD-%EC%A0%84%EB%9D%BC%EB%B6%81%EB%8F%84-%EC%A0%95%EC%9D%8D%EC%8B%9C-%EC%88%98%EC%84%B1%EB%8F%99/", "workingTime": ["-", "08:00~18:30", "08:00~18:30", "08:00~18:30", "08:00~18:30", "08:00~18:30", "08:00~13:00", "08:00~12:30"]}, {"name": "\uac74\uac15\uc628\ub204\ub9ac\uc57d\uad6d", "lat": "35.5665603961453", "lng": "126.854992108966", "url": "/info/%EA%B1%B4%EA%B0%95%EC%98%A8%EB%88%84%EB%A6%AC%EC%95%BD%EA%B5%AD-%EC%A0%84%EB%9D%BC%EB%B6%81%EB%8F%84-%EC%A0%95%EC%9D%8D%EC%8B%9C-%EC%88%98%EC%84%B1%EB%8F%99/", "workingTime": ["-", "08:00~18:00", "08:00~18:00", "08:00~18:00", "08:00~18:00", "08:00~18:00", "08:00~13:00", "08:00~13:00"]}, {"name": "\uc6d0\uc57d\uad6d", "lat": "35.569352589134745", "lng": "126.84957951285045", "url": "/info/%EC%9B%90%EC%95%BD%EA%B5%AD-%EC%A0%84%EB%9D%BC%EB%B6%81%EB%8F%84-%EC%A0%95%EC%9D%8D%EC%8B%9C-%EC%88%98%EC%84%B1%EB%8F%99/", "workingTime": ["-", "08:30~18:30", "08:30~18:30", "08:30~18:30", "08:30~18:30", "08:30~18:30", "08:30~13:00", "-"]}, {"name": "\uac15\uc57d\uad6d", "lat": "35.58256392236083", "lng": "126.85614527451656", "url": "/info/%EA%B0%95%EC%95%BD%EA%B5%AD-%EC%A0%84%EB%9D%BC%EB%B6%81%EB%8F%84-%EC%A0%95%EC%9D%8D%EC%8B%9C-%EC%88%98%EC%84%B1%EB%8F%99/", "workingTime": ["-", "08:30~18:30", "08:30~18:30", "08:30~18:30", "08:30~18:30", "08:30~18:30", "08:30~15:30", "09:00~15:30"]}, {"name": "\uc0d8\uace8\uc57d\uad6d", "lat": "35.58214874645575", "lng": "126.85566126096324", "url": "/info/%EC%83%98%EA%B3%A8%EC%95%BD%EA%B5%AD-%EC%A0%84%EB%9D%BC%EB%B6%81%EB%8F%84-%EC%A0%95%EC%9D%8D%EC%8B%9C-%EC%88%98%EC%84%B1%EB%8F%99/", "workingTime": ["1,2,3,4,5\uc9f8\uc8fc16:00~21:30", "08:30~21:30", "08:30~21:30", "08:30~21:30", "08:30~21:30", "08:30~21:30", "08:30~21:00", "16:00~21:30"]}, {"name": "\ucc9c\uc77c\uc57d\uad6d", "lat": "35.56707623672689", "lng": "126.85350334059623", "url": "/info/%EC%B2%9C%EC%9D%BC%EC%95%BD%EA%B5%AD-%EC%A0%84%EB%9D%BC%EB%B6%81%EB%8F%84-%EC%A0%95%EC%9D%8D%EC%8B%9C-%EC%88%98%EC%84%B1%EB%8F%99/", "workingTime": ["-", "08:00~18:00", "08:00~18:00", "08:00~18:00", "08:00~18:00", "08:00~18:00", "08:00~13:00", "-"]}, {"name": "\ubbf8\uc18c\uc57d\uad6d", "lat": "35.581919435839005", "lng": "126.85496797328423", "url": "/info/%EB%AF%B8%EC%86%8C%EC%95%BD%EA%B5%AD-%EC%A0%84%EB%9D%BC%EB%B6%81%EB%8F%84-%EC%A0%95%EC%9D%8D%EC%8B%9C-%EC%88%98%EC%84%B1%EB%8F%99/", "workingTime": ["-", "09:00~20:00", "09:00~20:00", "09:00~20:00", "09:00~20:00", "09:00~20:00", "09:00~20:00", "-"]}, {"name": "\uad6d\ubbfc\uc57d\uad6d", "lat": "35.568627440200366", "lng": "126.8511446716443", "url": "/info/%EA%B5%AD%EB%AF%BC%EC%95%BD%EA%B5%AD-%EC%A0%84%EB%9D%BC%EB%B6%81%EB%8F%84-%EC%A0%95%EC%9D%8D%EC%8B%9C-%EC%88%98%EC%84%B1%EB%8F%99/", "workingTime": ["-", "08:30~18:30", "08:30~18:30", "08:30~18:30", "08:30~18:30", "08:30~18:30", "08:30~13:00", "-"]}, {"name": "\ub098\ub77c\uc57d\uad6d", "lat": "35.56874372714744", "lng": "126.851885745176", "url": "/info/%EB%82%98%EB%9D%BC%EC%95%BD%EA%B5%AD-%EC%A0%84%EB%9D%BC%EB%B6%81%EB%8F%84-%EC%A0%95%EC%9D%8D%EC%8B%9C-%EC%88%98%EC%84%B1%EB%8F%99/", "workingTime": ["1,2,3,4,5\uc9f8\uc8fc09:00~12:30", "08:00~18:30", "08:00~18:30", "08:00~18:30", "08:00~18:30", "08:00~18:30", "08:00~13:30", "09:00~12:30"]}, {"name": "\uac74\uac15\uc885\ud569\uc57d\uad6d", "lat": "35.5686183321", "lng": "126.8518072339", "url": "/info/%EA%B1%B4%EA%B0%95%EC%A2%85%ED%95%A9%EC%95%BD%EA%B5%AD-%EC%A0%84%EB%9D%BC%EB%B6%81%EB%8F%84-%EC%A0%95%EC%9D%8D%EC%8B%9C-%EC%88%98%EC%84%B1%EB%8F%99/", "workingTime": ["-", "09:00~18:00", "09:00~18:00", "09:00~18:00", "09:00~18:00", "09:00~18:00", "09:00~12:00", "-"]}, {"name": "\uac74\uac15\uc81c\uc77c\uc57d\uad6d", "lat": "35.568847222222225", "lng": "126.851425000000006", "url": "/info/%EA%B1%B4%EA%B0%95%EC%A0%9C%EC%9D%BC%EC%95%BD%EA%B5%AD-%EC%A0%84%EB%9D%BC%EB%B6%81%EB%8F%84-%EC%A0%95%EC%9D%8D%EC%8B%9C-%EC%88%98%EC%84%B1%EB%8F%99/", "workingTime": ["-", "09:00~18:00", "09:00~18:00", "09:00~18:00", "09:00~18:00", "09:00~18:00", "10:00~12:00", "-"]}, {"name": "\ud0dc\ud3c9\uc591\uc57d\uad6d", "lat": "35.56917552883876", "lng": "126.85122748498802", "url": "/info/%ED%83%9C%ED%8F%89%EC%96%91%EC%95%BD%EA%B5%AD-%EC%A0%84%EB%9D%BC%EB%B6%81%EB%8F%84-%EC%A0%95%EC%9D%8D%EC%8B%9C-%EC%88%98%EC%84%B1%EB%8F%99/", "workingTime": ["-", "08:30~18:00", "08:30~18:00", "08:30~18:00", "08:30~18:00", "08:30~18:00", "08:30~13:00", "-"]}, {"name": "\uc5f4\ub9b0\uc57d\uad6d", "lat": "35.5684677424251", "lng": "126.85248261718009", "url": "/info/%EC%97%B4%EB%A6%B0%EC%95%BD%EA%B5%AD-%EC%A0%84%EB%9D%BC%EB%B6%81%EB%8F%84-%EC%A0%95%EC%9D%8D%EC%8B%9C-%EC%88%98%EC%84%B1%EB%8F%99/", "workingTime": ["-", "08:30~18:00", "08:30~18:00", "08:30~18:00", "08:30~18:00", "08:30~18:00", "-", "-"]}, {"name": "\uc6b0\ub9ac\uc57d\uad6d", "lat": "35.565833333333330", "lng": "126.855469444444438", "url": "/info/%EC%9A%B0%EB%A6%AC%EC%95%BD%EA%B5%AD-%EC%A0%84%EB%9D%BC%EB%B6%81%EB%8F%84-%EC%A0%95%EC%9D%8D%EC%8B%9C-%EC%88%98%EC%84%B1%EB%8F%99/", "workingTime": ["1,2,3,4,5\uc9f8\uc8fc08:30~13:00", "08:30~18:00", "08:30~18:00", "08:30~18:00", "08:30~18:00", "08:30~18:00", "-", "-"]}, {"name": "\uc18c\ub2f4\ud55c\uc57d\uad6d", "lat": "35.58385424420943", "lng": "126.85889241329188", "url": "/info/%EC%86%8C%EB%8B%B4%ED%95%9C%EC%95%BD%EA%B5%AD-%EC%A0%84%EB%9D%BC%EB%B6%81%EB%8F%84-%EC%A0%95%EC%9D%8D%EC%8B%9C-%EC%88%98%EC%84%B1%EB%8F%99/", "workingTime": ["-", "09:00~17:00", "09:00~17:00", "09:00~17:00", "09:00~17:00", "09:00~17:00", "-", "-"]}]