[{"name": "\ud638\uc131\ud504\ub77c\uc790\uc57d\uad6d", "lat": "35.860392562841376", "lng": "127.15056515675572", "url": "/info/%ED%98%B8%EC%84%B1%ED%94%84%EB%9D%BC%EC%9E%90%EC%95%BD%EA%B5%AD-%EC%A0%84%EB%9D%BC%EB%B6%81%EB%8F%84-%EC%A0%84%EC%A3%BC%EC%8B%9C-%ED%98%B8%EC%84%B1%EB%8F%991%EA%B0%80/", "workingTime": ["-", "08:30~20:00", "08:30~20:00", "08:30~20:00", "08:30~20:00", "08:30~20:00", "08:30~13:30", "-"]}, {"name": "\uc774\ub808\uc57d\uad6d", "lat": "35.8607144385", "lng": "127.1511968238", "url": "/info/%EC%9D%B4%EB%A0%88%EC%95%BD%EA%B5%AD-%EC%A0%84%EB%9D%BC%EB%B6%81%EB%8F%84-%EC%A0%84%EC%A3%BC%EC%8B%9C-%ED%98%B8%EC%84%B1%EB%8F%991%EA%B0%80/", "workingTime": ["-", "08:30~19:00", "08:30~19:00", "-", "08:30~19:00", "08:30~19:00", "08:30~13:30", "-"]}, {"name": "\uc9c4\ud765\uc57d\uad6d", "lat": "35.86544177168681", "lng": "127.14736155225785", "url": "/info/%EC%A7%84%ED%9D%A5%EC%95%BD%EA%B5%AD-%EC%A0%84%EB%9D%BC%EB%B6%81%EB%8F%84-%EC%A0%84%EC%A3%BC%EC%8B%9C-%ED%98%B8%EC%84%B1%EB%8F%991%EA%B0%80/", "workingTime": ["-", "08:20~19:00", "08:20~19:00", "08:20~19:00", "08:20~19:00", "08:20~19:00", "08:20~15:00", "-"]}, {"name": "\ud638\uc131\uc774\ud654\uc57d\uad6d", "lat": "35.856744444444445", "lng": "127.152577777777779", "url": "/info/%ED%98%B8%EC%84%B1%EC%9D%B4%ED%99%94%EC%95%BD%EA%B5%AD-%EC%A0%84%EB%9D%BC%EB%B6%81%EB%8F%84-%EC%A0%84%EC%A3%BC%EC%8B%9C-%ED%98%B8%EC%84%B1%EB%8F%991%EA%B0%80/", "workingTime": ["-", "09:00~18:30", "09:00~18:30", "09:00~12:30", "09:00~18:30", "09:00~18:30", "09:00~15:00", "-"]}, {"name": "\ud638\uc131\ubc31\uc81c\uc57d\uad6d", "lat": "35.86102216367352", "lng": "127.15016111258957", "url": "/info/%ED%98%B8%EC%84%B1%EB%B0%B1%EC%A0%9C%EC%95%BD%EA%B5%AD-%EC%A0%84%EB%9D%BC%EB%B6%81%EB%8F%84-%EC%A0%84%EC%A3%BC%EC%8B%9C-%ED%98%B8%EC%84%B1%EB%8F%991%EA%B0%80/", "workingTime": ["-", "09:00~20:00", "09:00~20:00", "09:00~20:00", "09:00~20:00", "09:00~20:00", "09:00~15:00", "-"]}]