[{"name": "\ub3d9\ubc29\uc57d\uad6d", "lat": "34.95913732726083", "lng": "127.48454953253673", "url": "/info/%EB%8F%99%EB%B0%A9%EC%95%BD%EA%B5%AD-%EC%A0%84%EB%9D%BC%EB%82%A8%EB%8F%84-%EC%88%9C%EC%B2%9C%EC%8B%9C-%EB%A7%A4%EA%B3%A1%EB%8F%99/", "workingTime": ["-", "08:30~20:00", "08:30~20:00", "08:30~20:00", "08:30~20:00", "08:30~20:00", "08:30~18:00", "08:30~18:00"]}, {"name": "\ud589\ub9bc\ub2f9\uc57d\uad6d", "lat": "34.96041659963186", "lng": "127.4847256615561", "url": "/info/%ED%96%89%EB%A6%BC%EB%8B%B9%EC%95%BD%EA%B5%AD-%EC%A0%84%EB%9D%BC%EB%82%A8%EB%8F%84-%EC%88%9C%EC%B2%9C%EC%8B%9C-%EB%A7%A4%EA%B3%A1%EB%8F%99/", "workingTime": ["-", "09:00~22:00", "09:00~22:00", "09:00~22:00", "09:00~22:00", "09:00~22:00", "09:00~22:00", "-"]}, {"name": "365\uc6c3\uc7a5\ub300\ud615\uc57d\uad6d", "lat": "34.95779650062776", "lng": "127.48444310336886", "url": "/info/365%EC%9B%83%EC%9E%A5%EB%8C%80%ED%98%95%EC%95%BD%EA%B5%AD-%EC%A0%84%EB%9D%BC%EB%82%A8%EB%8F%84-%EC%88%9C%EC%B2%9C%EC%8B%9C-%EB%A7%A4%EA%B3%A1%EB%8F%99/", "workingTime": ["1,2,3,4,5\uc9f8\uc8fc09:00~22:00", "08:30~22:00", "08:30~22:00", "08:30~22:00", "08:30~22:00", "08:30~22:00", "08:30~22:00", "09:00~22:00"]}, {"name": "\uc131\uc2e0\uc57d\uad6d", "lat": "34.95729725585644", "lng": "127.4838378910867", "url": "/info/%EC%84%B1%EC%8B%A0%EC%95%BD%EA%B5%AD-%EC%A0%84%EB%9D%BC%EB%82%A8%EB%8F%84-%EC%88%9C%EC%B2%9C%EC%8B%9C-%EB%A7%A4%EA%B3%A1%EB%8F%99/", "workingTime": ["-", "08:30~19:00", "08:30~19:00", "08:30~19:00", "08:30~19:00", "08:30~19:00", "09:00~13:00", "-"]}, {"name": "\uc815\uc131\uc57d\uad6d", "lat": "34.9625520110995", "lng": "127.48435482613775", "url": "/info/%EC%A0%95%EC%84%B1%EC%95%BD%EA%B5%AD-%EC%A0%84%EB%9D%BC%EB%82%A8%EB%8F%84-%EC%88%9C%EC%B2%9C%EC%8B%9C-%EB%A7%A4%EA%B3%A1%EB%8F%99/", "workingTime": ["-", "08:30~20:00", "08:30~20:00", "08:30~20:00", "08:30~20:00", "08:30~20:00", "08:30~13:30", "-"]}, {"name": "\uc138\ud654\ub2f9\uc815\ud55c\uc57d\uad6d", "lat": "34.947905184669295", "lng": "127.52886135704794", "url": "/info/%EC%84%B8%ED%99%94%EB%8B%B9%EC%A0%95%ED%95%9C%EC%95%BD%EA%B5%AD-%EC%A0%84%EB%9D%BC%EB%82%A8%EB%8F%84-%EC%88%9C%EC%B2%9C%EC%8B%9C-%EB%A7%A4%EA%B3%A1%EB%8F%99/", "workingTime": ["-", "10:00~18:00", "10:00~18:00", "10:00~18:00", "10:00~18:00", "10:00~18:00", "10:00~18:00", "-"]}]