[{"name": "\uc804\uc8fc\ubd04\ubd04\uc57d\uad6d", "lat": "35.8341948288714", "lng": "127.120747763113", "url": "/info/%EC%A0%84%EC%A3%BC%EB%B4%84%EB%B4%84%EC%95%BD%EA%B5%AD-%EC%A0%84%EB%9D%BC%EB%B6%81%EB%8F%84-%EC%A0%84%EC%A3%BC%EC%8B%9C-%EC%84%9C%EC%8B%A0%EB%8F%99/", "workingTime": ["-", "09:00~18:00", "09:00~18:00", "09:00~18:00", "09:00~18:00", "09:00~18:00", "09:00~13:00", "-"]}, {"name": "\uc2a4\ub9c8\ud2b8\uc57d\uad6d", "lat": "35.832000297257", "lng": "127.113500977007", "url": "/info/%EC%8A%A4%EB%A7%88%ED%8A%B8%EC%95%BD%EA%B5%AD-%EC%A0%84%EB%9D%BC%EB%B6%81%EB%8F%84-%EC%A0%84%EC%A3%BC%EC%8B%9C-%EC%84%9C%EC%8B%A0%EB%8F%99/", "workingTime": ["-", "08:20~19:30", "08:20~19:30", "08:20~19:30", "08:20~19:30", "08:20~19:30", "08:20~14:00", "-"]}, {"name": "\ub2e4\uc815\uc57d\uad6d", "lat": "35.83495336590321", "lng": "127.11563042801723", "url": "/info/%EB%8B%A4%EC%A0%95%EC%95%BD%EA%B5%AD-%EC%A0%84%EB%9D%BC%EB%B6%81%EB%8F%84-%EC%A0%84%EC%A3%BC%EC%8B%9C-%EC%84%9C%EC%8B%A0%EB%8F%99/", "workingTime": ["-", "09:00~20:00", "09:00~20:00", "09:00~20:00", "09:00~20:00", "09:00~20:00", "09:00~18:00", "-"]}, {"name": "\uc644\uc0b0\uc885\ub85c\uc57d\uad6d", "lat": "35.8319644571896", "lng": "127.118785989741", "url": "/info/%EC%99%84%EC%82%B0%EC%A2%85%EB%A1%9C%EC%95%BD%EA%B5%AD-%EC%A0%84%EB%9D%BC%EB%B6%81%EB%8F%84-%EC%A0%84%EC%A3%BC%EC%8B%9C-%EC%84%9C%EC%8B%A0%EB%8F%99/", "workingTime": ["-", "08:30~18:00", "08:30~18:00", "08:30~18:00", "08:30~18:00", "08:30~18:00", "08:30~13:00", "-"]}, {"name": "\uc11c\uc2e0\uc885\ub85c\uc57d\uad6d", "lat": "35.831966676897636", "lng": "127.1192999844096", "url": "/info/%EC%84%9C%EC%8B%A0%EC%A2%85%EB%A1%9C%EC%95%BD%EA%B5%AD-%EC%A0%84%EB%9D%BC%EB%B6%81%EB%8F%84-%EC%A0%84%EC%A3%BC%EC%8B%9C-%EC%84%9C%EC%8B%A0%EB%8F%99/", "workingTime": ["-", "08:30~20:00", "08:30~20:00", "08:30~20:00", "08:30~20:00", "08:30~20:00", "08:30~13:30", "-"]}, {"name": "\uc7a5\ubbf8\uc57d\uad6d", "lat": "35.83508886055165", "lng": "127.11561128838653", "url": "/info/%EC%9E%A5%EB%AF%B8%EC%95%BD%EA%B5%AD-%EC%A0%84%EB%9D%BC%EB%B6%81%EB%8F%84-%EC%A0%84%EC%A3%BC%EC%8B%9C-%EC%84%9C%EC%8B%A0%EB%8F%99/", "workingTime": ["1,2,3,4,5\uc9f8\uc8fc08:30~12:30", "08:30~19:00", "08:30~19:00", "08:30~19:00", "08:30~19:00", "08:30~19:00", "08:30~12:30", "08:30~12:30"]}, {"name": "\ud1a0\ub9c8\ud1a0\uc885\ud569\uc57d\uad6d", "lat": "35.83418441136099", "lng": "127.12046814138509", "url": "/info/%ED%86%A0%EB%A7%88%ED%86%A0%EC%A2%85%ED%95%A9%EC%95%BD%EA%B5%AD-%EC%A0%84%EB%9D%BC%EB%B6%81%EB%8F%84-%EC%A0%84%EC%A3%BC%EC%8B%9C-%EC%84%9C%EC%8B%A0%EB%8F%99/", "workingTime": ["-", "09:00~21:00", "09:00~21:00", "09:00~21:00", "09:00~21:00", "09:00~21:00", "09:00~15:00", "-"]}, {"name": "\ud30c\ub791\uc57d\uad6d", "lat": "35.834827199177965", "lng": "127.11562139301581", "url": "/info/%ED%8C%8C%EB%9E%91%EC%95%BD%EA%B5%AD-%EC%A0%84%EB%9D%BC%EB%B6%81%EB%8F%84-%EC%A0%84%EC%A3%BC%EC%8B%9C-%EC%84%9C%EC%8B%A0%EB%8F%99/", "workingTime": ["-", "09:00~18:30", "09:00~18:30", "09:00~18:30", "09:00~18:30", "09:00~18:30", "09:00~13:30", "-"]}, {"name": "\ub9ac\ub354\uc2a4\uc885\ud569\uc57d\uad6d", "lat": "35.834232206769215", "lng": "127.11608706850173", "url": "/info/%EB%A6%AC%EB%8D%94%EC%8A%A4%EC%A2%85%ED%95%A9%EC%95%BD%EA%B5%AD-%EC%A0%84%EB%9D%BC%EB%B6%81%EB%8F%84-%EC%A0%84%EC%A3%BC%EC%8B%9C-%EC%84%9C%EC%8B%A0%EB%8F%99/", "workingTime": ["-", "09:00~19:00", "09:00~19:00", "09:00~19:00", "09:00~19:00", "09:00~19:00", "09:00~14:00", "-"]}, {"name": "\uc11c\uc2e0\uc57d\uad6d", "lat": "35.82836227350382", "lng": "127.12336171220448", "url": "/info/%EC%84%9C%EC%8B%A0%EC%95%BD%EA%B5%AD-%EC%A0%84%EB%9D%BC%EB%B6%81%EB%8F%84-%EC%A0%84%EC%A3%BC%EC%8B%9C-%EC%84%9C%EC%8B%A0%EB%8F%99/", "workingTime": ["-", "09:00~18:30", "09:00~18:30", "09:00~18:30", "09:00~18:30", "09:00~18:30", "09:00~12:00", "-"]}, {"name": "\uc62c\ub9ac\ube0c\ud55c\uc57d\uad6d", "lat": "35.83521362730967", "lng": "127.11427887129794", "url": "/info/%EC%98%AC%EB%A6%AC%EB%B8%8C%ED%95%9C%EC%95%BD%EA%B5%AD-%EC%A0%84%EB%9D%BC%EB%B6%81%EB%8F%84-%EC%A0%84%EC%A3%BC%EC%8B%9C-%EC%84%9C%EC%8B%A0%EB%8F%99/", "workingTime": ["-", "10:00~19:00", "10:00~19:00", "10:00~19:00", "10:00~19:00", "10:00~19:00", "10:00~14:00", "-"]}, {"name": "\uc815\uc131\uc57d\uad6d", "lat": "35.82550513349833", "lng": "127.11994656357129", "url": "/info/%EC%A0%95%EC%84%B1%EC%95%BD%EA%B5%AD-%EC%A0%84%EB%9D%BC%EB%B6%81%EB%8F%84-%EC%A0%84%EC%A3%BC%EC%8B%9C-%EC%84%9C%EC%8B%A0%EB%8F%99/", "workingTime": ["-", "09:30~18:30", "09:30~18:30", "09:30~18:30", "09:30~18:30", "09:30~18:30", "09:30~12:00", "-"]}, {"name": "\uc11c\uc2e0\ud0dc\ud3c9\uc591\uc57d\uad6d", "lat": "35.831967463774404", "lng": "127.11966187625745", "url": "/info/%EC%84%9C%EC%8B%A0%ED%83%9C%ED%8F%89%EC%96%91%EC%95%BD%EA%B5%AD-%EC%A0%84%EB%9D%BC%EB%B6%81%EB%8F%84-%EC%A0%84%EC%A3%BC%EC%8B%9C-%EC%84%9C%EC%8B%A0%EB%8F%99/", "workingTime": ["-", "09:00~18:30", "09:00~18:30", "09:00~18:30", "09:00~18:30", "09:00~18:30", "09:00~13:00", "-"]}, {"name": "\uc11c\uc2e0\uc774\ub9c8\ud2b8\uc57d\uad6d", "lat": "35.83201353063739", "lng": "127.12113780008076", "url": "/info/%EC%84%9C%EC%8B%A0%EC%9D%B4%EB%A7%88%ED%8A%B8%EC%95%BD%EA%B5%AD-%EC%A0%84%EB%9D%BC%EB%B6%81%EB%8F%84-%EC%A0%84%EC%A3%BC%EC%8B%9C-%EC%84%9C%EC%8B%A0%EB%8F%99/", "workingTime": ["-", "09:00~20:00", "09:00~20:00", "09:00~20:00", "09:00~20:00", "09:00~20:00", "09:00~15:30", "-"]}, {"name": "\uc885\ub85c\ud504\ub77c\uc790\uc57d\uad6d", "lat": "35.83175698508044", "lng": "127.11922330497747", "url": "/info/%EC%A2%85%EB%A1%9C%ED%94%84%EB%9D%BC%EC%9E%90%EC%95%BD%EA%B5%AD-%EC%A0%84%EB%9D%BC%EB%B6%81%EB%8F%84-%EC%A0%84%EC%A3%BC%EC%8B%9C-%EC%84%9C%EC%8B%A0%EB%8F%99/", "workingTime": ["-", "08:30~20:00", "08:30~20:00", "08:30~20:00", "08:30~20:00", "08:30~20:00", "08:30~17:00", "-"]}, {"name": "\uc804\uc8fc\uc628\ub204\ub9ac\uc57d\uad6d", "lat": "35.83417236641678", "lng": "127.12103759494624", "url": "/info/%EC%A0%84%EC%A3%BC%EC%98%A8%EB%88%84%EB%A6%AC%EC%95%BD%EA%B5%AD-%EC%A0%84%EB%9D%BC%EB%B6%81%EB%8F%84-%EC%A0%84%EC%A3%BC%EC%8B%9C-%EC%84%9C%EC%8B%A0%EB%8F%99/", "workingTime": ["-", "09:00~19:00", "09:00~19:00", "09:00~19:00", "09:00~19:00", "09:00~19:00", "09:00~15:00", "-"]}, {"name": "\uc804\uc8fc\ub300\ud615\uc628\ub204\ub9ac\uc57d\uad6d", "lat": "35.83200988659859", "lng": "127.11370490472714", "url": "/info/%EC%A0%84%EC%A3%BC%EB%8C%80%ED%98%95%EC%98%A8%EB%88%84%EB%A6%AC%EC%95%BD%EA%B5%AD-%EC%A0%84%EB%9D%BC%EB%B6%81%EB%8F%84-%EC%A0%84%EC%A3%BC%EC%8B%9C-%EC%84%9C%EC%8B%A0%EB%8F%99/", "workingTime": ["-", "09:00~21:00", "09:00~21:00", "09:00~21:00", "09:00~21:00", "09:00~21:00", "09:00~20:00", "-"]}, {"name": "\uc6b0\ub9ac\uc815\ub2e4\uc6b4\uc57d\uad6d", "lat": "35.83234340273942", "lng": "127.1130053237932", "url": "/info/%EC%9A%B0%EB%A6%AC%EC%A0%95%EB%8B%A4%EC%9A%B4%EC%95%BD%EA%B5%AD-%EC%A0%84%EB%9D%BC%EB%B6%81%EB%8F%84-%EC%A0%84%EC%A3%BC%EC%8B%9C-%EC%84%9C%EC%8B%A0%EB%8F%99/", "workingTime": ["-", "08:30~19:30", "08:30~19:30", "08:30~19:30", "08:30~19:30", "08:30~19:30", "08:30~15:00", "-"]}, {"name": "\uc6b0\ub9ac\uc57d\uad6d", "lat": "35.832067329378596", "lng": "127.11331150253775", "url": "/info/%EC%9A%B0%EB%A6%AC%EC%95%BD%EA%B5%AD-%EC%A0%84%EB%9D%BC%EB%B6%81%EB%8F%84-%EC%A0%84%EC%A3%BC%EC%8B%9C-%EC%84%9C%EC%8B%A0%EB%8F%99/", "workingTime": ["-", "08:30~19:00", "08:30~19:00", "08:30~19:00", "08:30~19:00", "08:30~19:00", "08:30~15:30", "-"]}, {"name": "\uc560\ud50c\uc57d\uad6d", "lat": "35.83203343384529", "lng": "127.12036588556347", "url": "/info/%EC%95%A0%ED%94%8C%EC%95%BD%EA%B5%AD-%EC%A0%84%EB%9D%BC%EB%B6%81%EB%8F%84-%EC%A0%84%EC%A3%BC%EC%8B%9C-%EC%84%9C%EC%8B%A0%EB%8F%99/", "workingTime": ["-", "09:00~19:30", "09:00~19:30", "09:00~19:30", "09:00~19:30", "09:00~19:30", "09:00~15:00", "-"]}, {"name": "\ub3c5\uc77c\uc57d\uad6d", "lat": "35.83209407864984", "lng": "127.11265966367318", "url": "/info/%EB%8F%85%EC%9D%BC%EC%95%BD%EA%B5%AD-%EC%A0%84%EB%9D%BC%EB%B6%81%EB%8F%84-%EC%A0%84%EC%A3%BC%EC%8B%9C-%EC%84%9C%EC%8B%A0%EB%8F%99/", "workingTime": ["-", "08:30~19:00", "08:30~19:00", "08:30~19:00", "08:30~19:00", "08:30~19:00", "09:30~13:00", "-"]}, {"name": "\uc11c\uc2e0\ud1a0\ub9c8\ud1a0\uc57d\uad6d", "lat": "35.834225234953635", "lng": "127.11554527009983", "url": "/info/%EC%84%9C%EC%8B%A0%ED%86%A0%EB%A7%88%ED%86%A0%EC%95%BD%EA%B5%AD-%EC%A0%84%EB%9D%BC%EB%B6%81%EB%8F%84-%EC%A0%84%EC%A3%BC%EC%8B%9C-%EC%84%9C%EC%8B%A0%EB%8F%99/", "workingTime": ["1,2,3,4,5\uc9f8\uc8fc09:00~23:00", "09:00~23:00", "09:00~23:00", "09:00~23:00", "09:00~23:00", "09:00~23:00", "09:00~23:00", "09:00~23:00"]}, {"name": "\ubc31\ud654\uc810\uc57d\uad6d", "lat": "35.83420951091119", "lng": "127.12015168960886", "url": "/info/%EB%B0%B1%ED%99%94%EC%A0%90%EC%95%BD%EA%B5%AD-%EC%A0%84%EB%9D%BC%EB%B6%81%EB%8F%84-%EC%A0%84%EC%A3%BC%EC%8B%9C-%EC%84%9C%EC%8B%A0%EB%8F%99/", "workingTime": ["1,2,3,4,5\uc9f8\uc8fc09:00~12:00", "09:00~19:00", "09:00~19:00", "09:00~19:00", "09:00~19:00", "09:00~19:00", "09:00~13:30", "09:00~12:00"]}, {"name": "\uba85\ud604\uc57d\uad6d", "lat": "35.83236169177233", "lng": "127.11141221721837", "url": "/info/%EB%AA%85%ED%98%84%EC%95%BD%EA%B5%AD-%EC%A0%84%EB%9D%BC%EB%B6%81%EB%8F%84-%EC%A0%84%EC%A3%BC%EC%8B%9C-%EC%84%9C%EC%8B%A0%EB%8F%99/", "workingTime": ["-", "09:00~18:30", "09:00~18:30", "09:00~18:30", "09:00~18:30", "09:00~18:30", "09:00~13:00", "-"]}, {"name": "\uac74\uac15\ub098\ub77c\uc57d\uad6d", "lat": "35.82551867173867", "lng": "127.11602859056765", "url": "/info/%EA%B1%B4%EA%B0%95%EB%82%98%EB%9D%BC%EC%95%BD%EA%B5%AD-%EC%A0%84%EB%9D%BC%EB%B6%81%EB%8F%84-%EC%A0%84%EC%A3%BC%EC%8B%9C-%EC%84%9C%EC%8B%A0%EB%8F%99/", "workingTime": ["-", "09:00~21:00", "09:00~21:00", "09:00~21:00", "09:00~21:00", "09:00~21:00", "09:00~18:00", "-"]}, {"name": "\uc608\ub2f4\ud55c\uc57d\uad6d", "lat": "35.83527041108632", "lng": "127.11198290598966", "url": "/info/%EC%98%88%EB%8B%B4%ED%95%9C%EC%95%BD%EA%B5%AD-%EC%A0%84%EB%9D%BC%EB%B6%81%EB%8F%84-%EC%A0%84%EC%A3%BC%EC%8B%9C-%EC%84%9C%EC%8B%A0%EB%8F%99/", "workingTime": ["-", "10:00~19:00", "10:00~19:00", "10:00~19:00", "10:00~19:00", "10:00~19:00", "10:00~14:00", "-"]}]