[{"name": "\uc11c\uc6b8\uc57d\uad6d", "lat": "35.436187528767995", "lng": "126.69415615595051", "url": "/info/%EC%84%9C%EC%9A%B8%EC%95%BD%EA%B5%AD-%EC%A0%84%EB%9D%BC%EB%B6%81%EB%8F%84-%EA%B3%A0%EC%B0%BD%EA%B5%B0-%EA%B3%A0%EC%B0%BD%EC%9D%8D/", "workingTime": ["-", "08:30~18:00", "08:30~18:00", "08:30~18:00", "08:30~18:00", "08:30~18:00", "08:30~13:00", "-"]}, {"name": "\ubc84\ub4e4\uc628\ub204\ub9ac\uc57d\uad6d", "lat": "35.4352908253", "lng": "126.7006637563", "url": "/info/%EB%B2%84%EB%93%A4%EC%98%A8%EB%88%84%EB%A6%AC%EC%95%BD%EA%B5%AD-%EC%A0%84%EB%9D%BC%EB%B6%81%EB%8F%84-%EA%B3%A0%EC%B0%BD%EA%B5%B0-%EA%B3%A0%EC%B0%BD%EC%9D%8D/", "workingTime": ["-", "08:30~19:00", "08:30~19:00", "08:30~19:00", "08:30~19:00", "08:30~19:00", "08:30~13:00", "-"]}, {"name": "\uc0c1\ub85d\uc218\uc57d\uad6d", "lat": "35.43322170983381", "lng": "126.69719411546147", "url": "/info/%EC%83%81%EB%A1%9D%EC%88%98%EC%95%BD%EA%B5%AD-%EC%A0%84%EB%9D%BC%EB%B6%81%EB%8F%84-%EA%B3%A0%EC%B0%BD%EA%B5%B0-%EA%B3%A0%EC%B0%BD%EC%9D%8D/", "workingTime": ["-", "08:15~18:20", "08:15~18:20", "08:15~18:20", "08:15~18:20", "08:15~18:20", "08:15~13:00", "-"]}, {"name": "\uace0\ucc3d\uc885\ub85c\uc57d\uad6d", "lat": "35.43487786218563", "lng": "126.70061065977902", "url": "/info/%EA%B3%A0%EC%B0%BD%EC%A2%85%EB%A1%9C%EC%95%BD%EA%B5%AD-%EC%A0%84%EB%9D%BC%EB%B6%81%EB%8F%84-%EA%B3%A0%EC%B0%BD%EA%B5%B0-%EA%B3%A0%EC%B0%BD%EC%9D%8D/", "workingTime": ["-", "08:30~18:00", "08:30~18:00", "08:30~18:00", "08:30~18:00", "08:30~18:00", "08:30~13:00", "-"]}, {"name": "\ud589\uc6b4\uc57d\uad6d", "lat": "35.4356466063298", "lng": "126.695378862161", "url": "/info/%ED%96%89%EC%9A%B4%EC%95%BD%EA%B5%AD-%EC%A0%84%EB%9D%BC%EB%B6%81%EB%8F%84-%EA%B3%A0%EC%B0%BD%EA%B5%B0-%EA%B3%A0%EC%B0%BD%EC%9D%8D/", "workingTime": ["-", "08:00~18:30", "08:00~18:30", "08:00~18:30", "08:00~18:30", "08:00~18:30", "08:00~13:30", "-"]}, {"name": "\uc2e0\uc138\uacc4\uc57d\uad6d", "lat": "35.4348414198", "lng": "126.7040970239", "url": "/info/%EC%8B%A0%EC%84%B8%EA%B3%84%EC%95%BD%EA%B5%AD-%EC%A0%84%EB%9D%BC%EB%B6%81%EB%8F%84-%EA%B3%A0%EC%B0%BD%EA%B5%B0-%EA%B3%A0%EC%B0%BD%EC%9D%8D/", "workingTime": ["-", "08:30~18:10", "08:30~18:10", "08:30~18:10", "08:30~18:10", "08:30~18:10", "08:30~12:10", "-"]}, {"name": "\uc0c8\ubc31\uc81c\uc57d\uad6d", "lat": "35.43497697293318", "lng": "126.69987463612927", "url": "/info/%EC%83%88%EB%B0%B1%EC%A0%9C%EC%95%BD%EA%B5%AD-%EC%A0%84%EB%9D%BC%EB%B6%81%EB%8F%84-%EA%B3%A0%EC%B0%BD%EA%B5%B0-%EA%B3%A0%EC%B0%BD%EC%9D%8D/", "workingTime": ["-", "08:20~18:10", "08:20~18:10", "08:20~18:10", "08:20~18:10", "08:20~18:10", "08:20~12:40", "-"]}, {"name": "\uace0\ucc3d\uc81c\uc77c\uc57d\uad6d", "lat": "35.434967113187206", "lng": "126.69808135136054", "url": "/info/%EA%B3%A0%EC%B0%BD%EC%A0%9C%EC%9D%BC%EC%95%BD%EA%B5%AD-%EC%A0%84%EB%9D%BC%EB%B6%81%EB%8F%84-%EA%B3%A0%EC%B0%BD%EA%B5%B0-%EA%B3%A0%EC%B0%BD%EC%9D%8D/", "workingTime": ["-", "08:30~18:00", "08:30~18:00", "08:30~18:00", "08:30~18:00", "08:30~18:00", "08:30~13:00", "-"]}, {"name": "\ubc31\uc81c\uc57d\uad6d", "lat": "35.43532568562653", "lng": "126.69910421395863", "url": "/info/%EB%B0%B1%EC%A0%9C%EC%95%BD%EA%B5%AD-%EC%A0%84%EB%9D%BC%EB%B6%81%EB%8F%84-%EA%B3%A0%EC%B0%BD%EA%B5%B0-%EA%B3%A0%EC%B0%BD%EC%9D%8D/", "workingTime": ["-", "08:20~18:10", "08:20~18:10", "08:20~18:10", "08:20~18:10", "08:20~18:10", "08:20~12:40", "-"]}, {"name": "\ud130\ubbf8\ub110\uc218\uc57d\uad6d", "lat": "35.4356589601", "lng": "126.6964906841", "url": "/info/%ED%84%B0%EB%AF%B8%EB%84%90%EC%88%98%EC%95%BD%EA%B5%AD-%EC%A0%84%EB%9D%BC%EB%B6%81%EB%8F%84-%EA%B3%A0%EC%B0%BD%EA%B5%B0-%EA%B3%A0%EC%B0%BD%EC%9D%8D/", "workingTime": ["-", "08:00~22:00", "08:00~22:00", "08:00~22:00", "08:00~22:00", "08:00~22:00", "08:00~22:00", "-"]}, {"name": "\uc720\uc57d\uad6d", "lat": "35.435988399268666", "lng": "126.69417231155455", "url": "/info/%EC%9C%A0%EC%95%BD%EA%B5%AD-%EC%A0%84%EB%9D%BC%EB%B6%81%EB%8F%84-%EA%B3%A0%EC%B0%BD%EA%B5%B0-%EA%B3%A0%EC%B0%BD%EC%9D%8D/", "workingTime": ["-", "08:30~18:30", "08:30~18:30", "08:30~18:30", "08:30~18:30", "08:30~18:30", "08:30~13:00", "-"]}, {"name": "\uc601\ud638\uc57d\uad6d", "lat": "35.43592308695435", "lng": "126.69618398029932", "url": "/info/%EC%98%81%ED%98%B8%EC%95%BD%EA%B5%AD-%EC%A0%84%EB%9D%BC%EB%B6%81%EB%8F%84-%EA%B3%A0%EC%B0%BD%EA%B5%B0-%EA%B3%A0%EC%B0%BD%EC%9D%8D/", "workingTime": ["1,5\uc9f8\uc8fc09:00~18:00", "08:00~19:00", "08:00~19:00", "08:00~19:00", "08:00~19:00", "08:00~19:00", "08:00~17:00", "09:00~18:00"]}, {"name": "\uc815\ub2e4\uc6b4\uc57d\uad6d", "lat": "35.43552005472632", "lng": "126.69573351500152", "url": "/info/%EC%A0%95%EB%8B%A4%EC%9A%B4%EC%95%BD%EA%B5%AD-%EC%A0%84%EB%9D%BC%EB%B6%81%EB%8F%84-%EA%B3%A0%EC%B0%BD%EA%B5%B0-%EA%B3%A0%EC%B0%BD%EC%9D%8D/", "workingTime": ["3\uc9f8\uc8fc09:00~18:00", "08:30~18:00", "08:30~18:00", "08:30~18:00", "08:30~18:00", "08:30~18:00", "08:30~13:00", "-"]}, {"name": "\uc11d\uc815\uc57d\uad6d", "lat": "35.43155645676198", "lng": "126.73986413385799", "url": "/info/%EC%84%9D%EC%A0%95%EC%95%BD%EA%B5%AD-%EC%A0%84%EB%9D%BC%EB%B6%81%EB%8F%84-%EA%B3%A0%EC%B0%BD%EA%B5%B0-%EA%B3%A0%EC%B0%BD%EC%9D%8D/", "workingTime": ["-", "08:30~17:30", "08:30~17:30", "08:30~17:30", "08:30~17:30", "08:30~17:30", "08:30~12:30", "-"]}, {"name": "\uc6b0\ub9ac\ub4e4\uc57d\uad6d", "lat": "35.436144155564556", "lng": "126.69521400571298", "url": "/info/%EC%9A%B0%EB%A6%AC%EB%93%A4%EC%95%BD%EA%B5%AD-%EC%A0%84%EB%9D%BC%EB%B6%81%EB%8F%84-%EA%B3%A0%EC%B0%BD%EA%B5%B0-%EA%B3%A0%EC%B0%BD%EC%9D%8D/", "workingTime": ["-", "08:30~18:00", "08:30~18:00", "08:30~18:00", "08:30~18:00", "08:30~18:00", "-", "-"]}]