[{"name": "365\uc77c\uc5f0\ud5a5\ub300\ud615\uc57d\uad6d", "lat": "34.95102333485009", "lng": "127.51727013388592", "url": "/info/365%EC%9D%BC%EC%97%B0%ED%96%A5%EB%8C%80%ED%98%95%EC%95%BD%EA%B5%AD-%EC%A0%84%EB%9D%BC%EB%82%A8%EB%8F%84-%EC%88%9C%EC%B2%9C%EC%8B%9C-%EC%97%B0%ED%96%A5%EB%8F%99/", "workingTime": ["1,2,3,4,5\uc9f8\uc8fc09:00~23:00", "09:00~23:00", "09:00~23:00", "09:00~23:00", "09:00~23:00", "09:00~23:00", "09:00~23:00", "09:00~23:00"]}, {"name": "\uc815\ub2e4\uc6b4\uc628\ub204\ub9ac\uc57d\uad6d", "lat": "34.94058664605043", "lng": "127.5274668835655", "url": "/info/%EC%A0%95%EB%8B%A4%EC%9A%B4%EC%98%A8%EB%88%84%EB%A6%AC%EC%95%BD%EA%B5%AD-%EC%A0%84%EB%9D%BC%EB%82%A8%EB%8F%84-%EC%88%9C%EC%B2%9C%EC%8B%9C-%EC%97%B0%ED%96%A5%EB%8F%99/", "workingTime": ["-", "09:00~20:00", "09:00~20:00", "09:00~20:00", "09:00~20:00", "09:00~20:00", "09:00~19:00", "-"]}, {"name": "\ud6a8\uc131\uc628\ub204\ub9ac\uc57d\uad6d", "lat": "34.947714232187124", "lng": "127.51283113781217", "url": "/info/%ED%9A%A8%EC%84%B1%EC%98%A8%EB%88%84%EB%A6%AC%EC%95%BD%EA%B5%AD-%EC%A0%84%EB%9D%BC%EB%82%A8%EB%8F%84-%EC%88%9C%EC%B2%9C%EC%8B%9C-%EC%97%B0%ED%96%A5%EB%8F%99/", "workingTime": ["-", "08:30~18:00", "08:30~18:00", "08:30~18:00", "08:30~18:00", "08:30~18:00", "08:30~13:00", "-"]}, {"name": "\ud558\ub098\ub85c\uc57d\uad6d", "lat": "34.95103816125171", "lng": "127.52014306711483", "url": "/info/%ED%95%98%EB%82%98%EB%A1%9C%EC%95%BD%EA%B5%AD-%EC%A0%84%EB%9D%BC%EB%82%A8%EB%8F%84-%EC%88%9C%EC%B2%9C%EC%8B%9C-%EC%97%B0%ED%96%A5%EB%8F%99/", "workingTime": ["1,2,3,4,5\uc9f8\uc8fc09:00~22:00", "08:30~23:00", "08:30~23:00", "08:30~23:00", "08:30~23:00", "08:30~23:00", "08:30~23:00", "09:00~22:00"]}, {"name": "\uba54\ub514\ud31c\ud504\ub77c\uc790\uc57d\uad6d", "lat": "34.95125688667149", "lng": "127.51999974348927", "url": "/info/%EB%A9%94%EB%94%94%ED%8C%9C%ED%94%84%EB%9D%BC%EC%9E%90%EC%95%BD%EA%B5%AD-%EC%A0%84%EB%9D%BC%EB%82%A8%EB%8F%84-%EC%88%9C%EC%B2%9C%EC%8B%9C-%EC%97%B0%ED%96%A5%EB%8F%99/", "workingTime": ["-", "09:00~22:00", "09:00~22:00", "09:00~22:00", "09:00~22:00", "09:00~22:00", "08:00~22:00", "-"]}, {"name": "\uc628\ub204\ub9ac\uac10\ucd08\ub2f9\uc57d\uad6d", "lat": "34.94514017070253", "lng": "127.52042099736634", "url": "/info/%EC%98%A8%EB%88%84%EB%A6%AC%EA%B0%90%EC%B4%88%EB%8B%B9%EC%95%BD%EA%B5%AD-%EC%A0%84%EB%9D%BC%EB%82%A8%EB%8F%84-%EC%88%9C%EC%B2%9C%EC%8B%9C-%EC%97%B0%ED%96%A5%EB%8F%99/", "workingTime": ["-", "08:30~20:30", "08:30~20:30", "08:30~20:30", "08:30~20:30", "08:30~20:30", "08:30~18:30", "-"]}, {"name": "\uc18c\ub9dd\uc57d\uad6d", "lat": "34.94601973393257", "lng": "127.52550153164181", "url": "/info/%EC%86%8C%EB%A7%9D%EC%95%BD%EA%B5%AD-%EC%A0%84%EB%9D%BC%EB%82%A8%EB%8F%84-%EC%88%9C%EC%B2%9C%EC%8B%9C-%EC%97%B0%ED%96%A5%EB%8F%99/", "workingTime": ["-", "08:40~19:00", "08:40~19:00", "08:40~19:00", "08:40~19:00", "08:40~19:00", "08:40~14:00", "-"]}, {"name": "\uc2e0\ub098\ub294\uc778\ub355\ud55c\uc57d\uad6d", "lat": "34.946943618427454", "lng": "127.51772416882838", "url": "/info/%EC%8B%A0%EB%82%98%EB%8A%94%EC%9D%B8%EB%8D%95%ED%95%9C%EC%95%BD%EA%B5%AD-%EC%A0%84%EB%9D%BC%EB%82%A8%EB%8F%84-%EC%88%9C%EC%B2%9C%EC%8B%9C-%EC%97%B0%ED%96%A5%EB%8F%99/", "workingTime": ["-", "09:00~19:00", "09:00~19:00", "09:00~19:00", "09:00~19:00", "09:00~19:00", "09:00~17:00", "-"]}, {"name": "\uc870\uc740\uc57d\uad6d", "lat": "34.94831269970969", "lng": "127.51286778592221", "url": "/info/%EC%A1%B0%EC%9D%80%EC%95%BD%EA%B5%AD-%EC%A0%84%EB%9D%BC%EB%82%A8%EB%8F%84-%EC%88%9C%EC%B2%9C%EC%8B%9C-%EC%97%B0%ED%96%A5%EB%8F%99/", "workingTime": ["-", "08:30~18:00", "08:30~18:00", "08:30~18:00", "08:30~18:00", "08:30~18:00", "08:30~13:00", "-"]}, {"name": "\uc7a5\uc0dd\uc57d\uad6d", "lat": "34.9519071331", "lng": "127.5171816975", "url": "/info/%EC%9E%A5%EC%83%9D%EC%95%BD%EA%B5%AD-%EC%A0%84%EB%9D%BC%EB%82%A8%EB%8F%84-%EC%88%9C%EC%B2%9C%EC%8B%9C-%EC%97%B0%ED%96%A5%EB%8F%99/", "workingTime": ["-", "09:00~13:00", "09:00~13:00", "09:00~13:00", "09:00~13:00", "09:00~13:00", "09:00~13:00", "-"]}, {"name": "\ub4dc\ub9bc\ud55c\uc57d\uad6d", "lat": "34.97479314496131", "lng": "127.48347434784323", "url": "/info/%EB%93%9C%EB%A6%BC%ED%95%9C%EC%95%BD%EA%B5%AD-%EC%A0%84%EB%9D%BC%EB%82%A8%EB%8F%84-%EC%88%9C%EC%B2%9C%EC%8B%9C-%EC%97%B0%ED%96%A5%EB%8F%99/", "workingTime": ["-", "09:00~18:00", "09:00~18:00", "09:00~18:00", "09:00~18:00", "09:00~18:00", "-", "-"]}, {"name": "\uc73c\ub738\uc57d\uad6d", "lat": "34.943286883482536", "lng": "127.52043559243143", "url": "/info/%EC%9C%BC%EB%9C%B8%EC%95%BD%EA%B5%AD-%EC%A0%84%EB%9D%BC%EB%82%A8%EB%8F%84-%EC%88%9C%EC%B2%9C%EC%8B%9C-%EC%97%B0%ED%96%A5%EB%8F%99/", "workingTime": ["-", "09:30~18:30", "09:30~18:30", "09:30~18:30", "09:30~18:30", "09:30~18:30", "-", "-"]}]