[{"name": "\ub3d9\ucc9c\uc57d\uad6d", "lat": "35.567572222222225", "lng": "126.850058333333337", "url": "/info/%EB%8F%99%EC%B2%9C%EC%95%BD%EA%B5%AD-%EC%A0%84%EB%9D%BC%EB%B6%81%EB%8F%84-%EC%A0%95%EC%9D%8D%EC%8B%9C-%EC%97%B0%EC%A7%80%EB%8F%99/", "workingTime": ["-", "08:30~21:30", "08:30~21:30", "08:30~21:30", "08:30~21:30", "08:30~21:30", "08:30~15:00", "-"]}, {"name": "\uac74\uac15\ubc31\uc138\uc57d\uad6d", "lat": "35.574227777777779", "lng": "126.848786111111110", "url": "/info/%EA%B1%B4%EA%B0%95%EB%B0%B1%EC%84%B8%EC%95%BD%EA%B5%AD-%EC%A0%84%EB%9D%BC%EB%B6%81%EB%8F%84-%EC%A0%95%EC%9D%8D%EC%8B%9C-%EC%97%B0%EC%A7%80%EB%8F%99/", "workingTime": ["-", "09:00~18:00", "09:00~18:00", "09:00~18:00", "09:00~18:00", "09:00~18:00", "09:00~12:30", "-"]}, {"name": "\uc815\uc74d\ubcf4\uc740\uc57d\uad6d", "lat": "35.57271000413", "lng": "126.846944305931", "url": "/info/%EC%A0%95%EC%9D%8D%EB%B3%B4%EC%9D%80%EC%95%BD%EA%B5%AD-%EC%A0%84%EB%9D%BC%EB%B6%81%EB%8F%84-%EC%A0%95%EC%9D%8D%EC%8B%9C-%EC%97%B0%EC%A7%80%EB%8F%99/", "workingTime": ["-", "08:30~18:00", "08:30~18:00", "08:30~18:00", "08:30~18:00", "08:30~18:00", "08:30~13:00", "-"]}, {"name": "\ud070\ud589\ubcf5\uc57d\uad6d", "lat": "35.572555127", "lng": "126.8459973082", "url": "/info/%ED%81%B0%ED%96%89%EB%B3%B5%EC%95%BD%EA%B5%AD-%EC%A0%84%EB%9D%BC%EB%B6%81%EB%8F%84-%EC%A0%95%EC%9D%8D%EC%8B%9C-%EC%97%B0%EC%A7%80%EB%8F%99/", "workingTime": ["-", "09:00~18:00", "09:00~18:00", "09:00~18:00", "09:00~18:00", "09:00~18:00", "09:00~13:00", "09:00~13:00"]}, {"name": "\uc885\ub85c\uc57d\uad6d", "lat": "35.57361030226421", "lng": "126.8451039154371", "url": "/info/%EC%A2%85%EB%A1%9C%EC%95%BD%EA%B5%AD-%EC%A0%84%EB%9D%BC%EB%B6%81%EB%8F%84-%EC%A0%95%EC%9D%8D%EC%8B%9C-%EC%97%B0%EC%A7%80%EB%8F%99/", "workingTime": ["-", "08:10~20:00", "08:10~20:00", "08:10~20:00", "08:10~20:00", "08:10~20:00", "08:10~17:00", "08:10~17:00"]}, {"name": "\uc131\ubaa8\uc57d\uad6d", "lat": "35.57483593280359", "lng": "126.84431664410395", "url": "/info/%EC%84%B1%EB%AA%A8%EC%95%BD%EA%B5%AD-%EC%A0%84%EB%9D%BC%EB%B6%81%EB%8F%84-%EC%A0%95%EC%9D%8D%EC%8B%9C-%EC%97%B0%EC%A7%80%EB%8F%99/", "workingTime": ["-", "08:30~19:00", "08:30~19:00", "08:30~19:00", "08:30~19:00", "08:30~19:00", "08:30~18:00", "-"]}, {"name": "\ub3d9\uc11c\uc57d\uad6d", "lat": "35.572003666015725", "lng": "126.84685812163303", "url": "/info/%EB%8F%99%EC%84%9C%EC%95%BD%EA%B5%AD-%EC%A0%84%EB%9D%BC%EB%B6%81%EB%8F%84-%EC%A0%95%EC%9D%8D%EC%8B%9C-%EC%97%B0%EC%A7%80%EB%8F%99/", "workingTime": ["-", "08:30~18:00", "08:30~18:00", "08:30~18:00", "08:30~18:00", "08:30~18:00", "08:30~13:00", "08:30~13:00"]}, {"name": "\ud5a5\ud1a0\uc57d\uad6d", "lat": "35.570777777777778", "lng": "126.848219444444439", "url": "/info/%ED%96%A5%ED%86%A0%EC%95%BD%EA%B5%AD-%EC%A0%84%EB%9D%BC%EB%B6%81%EB%8F%84-%EC%A0%95%EC%9D%8D%EC%8B%9C-%EC%97%B0%EC%A7%80%EB%8F%99/", "workingTime": ["-", "09:00~18:00", "09:00~18:00", "09:00~18:00", "09:00~18:00", "09:00~18:00", "09:00~12:30", "-"]}, {"name": "\uc5f0\uc9c0\uc2dc\ubbfc\uc57d\uad6d", "lat": "35.57602076283357", "lng": "126.84759617466295", "url": "/info/%EC%97%B0%EC%A7%80%EC%8B%9C%EB%AF%BC%EC%95%BD%EA%B5%AD-%EC%A0%84%EB%9D%BC%EB%B6%81%EB%8F%84-%EC%A0%95%EC%9D%8D%EC%8B%9C-%EC%97%B0%EC%A7%80%EB%8F%99/", "workingTime": ["-", "08:30~18:00", "08:30~18:00", "08:30~18:00", "08:30~18:00", "08:30~18:00", "-", "-"]}]