[{"name": "\ubc31\uc6b4\uc57d\uad6d", "lat": "34.752147325505525", "lng": "127.70357267014395", "url": "/info/%EB%B0%B1%EC%9A%B4%EC%95%BD%EA%B5%AD-%EC%A0%84%EB%9D%BC%EB%82%A8%EB%8F%84-%EC%97%AC%EC%88%98%EC%8B%9C-%EC%97%AC%EC%84%9C%EB%8F%99/", "workingTime": ["1,2,3,4,5\uc9f8\uc8fc09:00~24:00", "09:00~24:00", "09:00~24:00", "09:00~24:00", "09:00~24:00", "09:00~24:00", "09:00~24:00", "08:30~24:00"]}, {"name": "\ucc38\uc0ac\ub791\uc57d\uad6d", "lat": "34.74882496678049", "lng": "127.70065841213", "url": "/info/%EC%B0%B8%EC%82%AC%EB%9E%91%EC%95%BD%EA%B5%AD-%EC%A0%84%EB%9D%BC%EB%82%A8%EB%8F%84-%EC%97%AC%EC%88%98%EC%8B%9C-%EC%97%AC%EC%84%9C%EB%8F%99/", "workingTime": ["1,2,3,4,5\uc9f8\uc8fc09:00~13:00", "09:00~20:00", "09:00~20:00", "09:00~20:00", "09:00~20:00", "09:00~20:00", "09:00~18:00", "-"]}, {"name": "\ub9cc\uad11\uc57d\uad6d", "lat": "34.74088654973392", "lng": "127.73301415711856", "url": "/info/%EB%A7%8C%EA%B4%91%EC%95%BD%EA%B5%AD-%EC%A0%84%EB%9D%BC%EB%82%A8%EB%8F%84-%EC%97%AC%EC%88%98%EC%8B%9C-%EC%97%AC%EC%84%9C%EB%8F%99/", "workingTime": ["-", "08:30~18:30", "08:30~20:00", "08:30~18:30", "08:30~20:00", "08:30~18:30", "08:30~13:00", "-"]}, {"name": "\ub85c\ud0c0\ub9ac\uc57d\uad6d", "lat": "34.74800644606083", "lng": "127.70003996063178", "url": "/info/%EB%A1%9C%ED%83%80%EB%A6%AC%EC%95%BD%EA%B5%AD-%EC%A0%84%EB%9D%BC%EB%82%A8%EB%8F%84-%EC%97%AC%EC%88%98%EC%8B%9C-%EC%97%AC%EC%84%9C%EB%8F%99/", "workingTime": ["-", "08:30~19:00", "08:30~19:00", "08:30~19:00", "08:30~19:00", "08:30~19:00", "08:30~17:00", "-"]}, {"name": "\uc138\uacc4\ub85c\uc57d\uad6d", "lat": "34.747963400706254", "lng": "127.69912797554487", "url": "/info/%EC%84%B8%EA%B3%84%EB%A1%9C%EC%95%BD%EA%B5%AD-%EC%A0%84%EB%9D%BC%EB%82%A8%EB%8F%84-%EC%97%AC%EC%88%98%EC%8B%9C-%EC%97%AC%EC%84%9C%EB%8F%99/", "workingTime": ["1,2,3,4,5\uc9f8\uc8fc08:30~22:00", "08:20~22:30", "08:20~22:30", "08:20~22:30", "08:20~22:30", "08:20~22:30", "08:20~22:30", "08:30~22:00"]}, {"name": "\ud55c\uac00\uc871\uc57d\uad6d", "lat": "34.753345493985684", "lng": "127.70581205046867", "url": "/info/%ED%95%9C%EA%B0%80%EC%A1%B1%EC%95%BD%EA%B5%AD-%EC%A0%84%EB%9D%BC%EB%82%A8%EB%8F%84-%EC%97%AC%EC%88%98%EC%8B%9C-%EC%97%AC%EC%84%9C%EB%8F%99/", "workingTime": ["-", "08:30~18:00", "08:30~18:00", "08:30~18:00", "08:30~18:00", "08:30~18:00", "08:30~12:30", "-"]}, {"name": "\ud0dc\ud3c9\uc591\uc57d\uad6d", "lat": "34.75283298284933", "lng": "127.70402972192535", "url": "/info/%ED%83%9C%ED%8F%89%EC%96%91%EC%95%BD%EA%B5%AD-%EC%A0%84%EB%9D%BC%EB%82%A8%EB%8F%84-%EC%97%AC%EC%88%98%EC%8B%9C-%EC%97%AC%EC%84%9C%EB%8F%99/", "workingTime": ["-", "09:00~18:00", "09:00~18:00", "09:00~18:00", "09:00~18:00", "09:00~18:00", "09:00~13:00", "-"]}, {"name": "\uc18c\ud654\uc628\ub204\ub9ac\uc57d\uad6d", "lat": "34.746028194310206", "lng": "127.69942563112337", "url": "/info/%EC%86%8C%ED%99%94%EC%98%A8%EB%88%84%EB%A6%AC%EC%95%BD%EA%B5%AD-%EC%A0%84%EB%9D%BC%EB%82%A8%EB%8F%84-%EC%97%AC%EC%88%98%EC%8B%9C-%EC%97%AC%EC%84%9C%EB%8F%99/", "workingTime": ["1,2,3,4,5\uc9f8\uc8fc09:00~17:00", "08:30~21:00", "08:30~21:00", "08:30~21:00", "08:30~21:00", "08:30~21:00", "09:00~17:00", "-"]}, {"name": "\uc88c\uc218\uc601\uc57d\uad6d", "lat": "34.753422222222220", "lng": "127.705119444444449", "url": "/info/%EC%A2%8C%EC%88%98%EC%98%81%EC%95%BD%EA%B5%AD-%EC%A0%84%EB%9D%BC%EB%82%A8%EB%8F%84-%EC%97%AC%EC%88%98%EC%8B%9C-%EC%97%AC%EC%84%9C%EB%8F%99/", "workingTime": ["1,2,3,4,5\uc9f8\uc8fc10:00~21:00", "08:30~21:30", "08:30~21:30", "08:30~21:30", "08:30~21:30", "08:30~21:30", "08:30~21:00", "09:00~21:00"]}, {"name": "\uc5ec\uc11c\uc57d\uad6d", "lat": "34.754215936811164", "lng": "127.70716482731787", "url": "/info/%EC%97%AC%EC%84%9C%EC%95%BD%EA%B5%AD-%EC%A0%84%EB%9D%BC%EB%82%A8%EB%8F%84-%EC%97%AC%EC%88%98%EC%8B%9C-%EC%97%AC%EC%84%9C%EB%8F%99/", "workingTime": ["-", "08:00~18:00", "08:00~18:00", "08:00~18:00", "08:00~18:00", "08:00~18:00", "08:00~13:00", "-"]}, {"name": "\ub9d1\uc740\uc218\ud55c\uc57d\uad6d", "lat": "34.7496149164", "lng": "127.7006691761", "url": "/info/%EB%A7%91%EC%9D%80%EC%88%98%ED%95%9C%EC%95%BD%EA%B5%AD-%EC%A0%84%EB%9D%BC%EB%82%A8%EB%8F%84-%EC%97%AC%EC%88%98%EC%8B%9C-%EC%97%AC%EC%84%9C%EB%8F%99/", "workingTime": ["-", "10:00~17:00", "10:00~17:00", "10:00~17:00", "10:00~17:00", "10:00~17:00", "10:00~12:00", "-"]}, {"name": "\uc0c8\ubd04\uc57d\uad6d", "lat": "34.754927691648106", "lng": "127.7072276734068", "url": "/info/%EC%83%88%EB%B4%84%EC%95%BD%EA%B5%AD-%EC%A0%84%EB%9D%BC%EB%82%A8%EB%8F%84-%EC%97%AC%EC%88%98%EC%8B%9C-%EC%97%AC%EC%84%9C%EB%8F%99/", "workingTime": ["-", "08:30~13:00", "08:30~13:00", "08:30~13:00", "08:30~13:00", "08:30~13:00", "08:30~13:00", "-"]}]