[{"name": "\ud50c\ub7ec\uc2a4\uc57d\uad6d", "lat": "34.63774329973186", "lng": "126.76795249009905", "url": "/info/%ED%94%8C%EB%9F%AC%EC%8A%A4%EC%95%BD%EA%B5%AD-%EC%A0%84%EB%9D%BC%EB%82%A8%EB%8F%84-%EA%B0%95%EC%A7%84%EA%B5%B0-%EA%B0%95%EC%A7%84%EC%9D%8D/", "workingTime": ["-", "08:30~18:30", "08:30~18:30", "08:30~18:30", "08:30~18:30", "08:30~18:30", "08:30~15:00", "08:30~15:00"]}, {"name": "\uac15\uc9c4\uc57d\uad6d", "lat": "34.63857888865429", "lng": "126.76935054238771", "url": "/info/%EA%B0%95%EC%A7%84%EC%95%BD%EA%B5%AD-%EC%A0%84%EB%9D%BC%EB%82%A8%EB%8F%84-%EA%B0%95%EC%A7%84%EA%B5%B0-%EA%B0%95%EC%A7%84%EC%9D%8D/", "workingTime": ["-", "08:00~18:00", "08:00~18:00", "08:00~18:00", "08:00~18:00", "08:00~18:00", "08:00~13:00", "-"]}, {"name": "\ud55c\uc0ac\ub791\uc57d\uad6d", "lat": "34.63883161918366", "lng": "126.76763533273483", "url": "/info/%ED%95%9C%EC%82%AC%EB%9E%91%EC%95%BD%EA%B5%AD-%EC%A0%84%EB%9D%BC%EB%82%A8%EB%8F%84-%EA%B0%95%EC%A7%84%EA%B5%B0-%EA%B0%95%EC%A7%84%EC%9D%8D/", "workingTime": ["-", "07:00~18:30", "07:00~18:30", "07:00~18:30", "07:00~18:30", "07:00~18:30", "07:00~16:00", "-"]}, {"name": "\uac74\uac15\uc57d\uad6d", "lat": "34.63968934204086", "lng": "126.77112007650899", "url": "/info/%EA%B1%B4%EA%B0%95%EC%95%BD%EA%B5%AD-%EC%A0%84%EB%9D%BC%EB%82%A8%EB%8F%84-%EA%B0%95%EC%A7%84%EA%B5%B0-%EA%B0%95%EC%A7%84%EC%9D%8D/", "workingTime": ["1,2,3,4,5\uc9f8\uc8fc07:00~21:00", "07:00~21:00", "07:00~21:00", "07:00~21:00", "07:00~21:00", "07:00~21:00", "07:00~21:00", "08:30~21:00"]}, {"name": "\uac15\uc9c4\ubc31\uc81c\uc57d\uad6d", "lat": "34.638939970071604", "lng": "126.7682272511813", "url": "/info/%EA%B0%95%EC%A7%84%EB%B0%B1%EC%A0%9C%EC%95%BD%EA%B5%AD-%EC%A0%84%EB%9D%BC%EB%82%A8%EB%8F%84-%EA%B0%95%EC%A7%84%EA%B5%B0-%EA%B0%95%EC%A7%84%EC%9D%8D/", "workingTime": ["-", "08:00~21:00", "08:00~21:00", "08:00~21:00", "08:00~21:00", "08:00~21:00", "08:00~21:00", "-"]}, {"name": "\ub300\uc131\uc57d\uad6d", "lat": "34.635864107604085", "lng": "126.75840834324467", "url": "/info/%EB%8C%80%EC%84%B1%EC%95%BD%EA%B5%AD-%EC%A0%84%EB%9D%BC%EB%82%A8%EB%8F%84-%EA%B0%95%EC%A7%84%EA%B5%B0-%EA%B0%95%EC%A7%84%EC%9D%8D/", "workingTime": ["1,2,3,4,5\uc9f8\uc8fc09:00~21:00", "08:00~21:00", "08:00~21:00", "08:00~21:00", "08:00~21:00", "08:00~21:00", "09:00~21:00", "09:00~21:00"]}, {"name": "\uad6d\uc81c\uc57d\uad6d", "lat": "34.63843529234741", "lng": "126.76912517215646", "url": "/info/%EA%B5%AD%EC%A0%9C%EC%95%BD%EA%B5%AD-%EC%A0%84%EB%9D%BC%EB%82%A8%EB%8F%84-%EA%B0%95%EC%A7%84%EA%B5%B0-%EA%B0%95%EC%A7%84%EC%9D%8D/", "workingTime": ["-", "07:40~18:00", "07:40~18:00", "07:40~18:00", "07:40~18:00", "07:40~18:00", "07:40~13:00", "-"]}, {"name": "\uac15\uc9c4\uc885\ub85c\uc57d\uad6d", "lat": "34.637913830018", "lng": "126.76865872985733", "url": "/info/%EA%B0%95%EC%A7%84%EC%A2%85%EB%A1%9C%EC%95%BD%EA%B5%AD-%EC%A0%84%EB%9D%BC%EB%82%A8%EB%8F%84-%EA%B0%95%EC%A7%84%EA%B5%B0-%EA%B0%95%EC%A7%84%EC%9D%8D/", "workingTime": ["-", "08:00~18:30", "08:00~18:30", "08:00~18:30", "08:00~18:30", "08:00~18:30", "08:00~13:30", "-"]}, {"name": "\ud55c\uaca8\ub808\uc57d\uad6d", "lat": "34.64095062924706", "lng": "126.76893549761779", "url": "/info/%ED%95%9C%EA%B2%A8%EB%A0%88%EC%95%BD%EA%B5%AD-%EC%A0%84%EB%9D%BC%EB%82%A8%EB%8F%84-%EA%B0%95%EC%A7%84%EA%B5%B0-%EA%B0%95%EC%A7%84%EC%9D%8D/", "workingTime": ["-", "08:00~18:00", "08:00~18:00", "08:00~18:00", "08:00~18:00", "08:00~18:00", "08:00~11:00", "-"]}, {"name": "\uc2e0\ud55c\uc57d\uad6d", "lat": "34.63860300698096", "lng": "126.76796288665758", "url": "/info/%EC%8B%A0%ED%95%9C%EC%95%BD%EA%B5%AD-%EC%A0%84%EB%9D%BC%EB%82%A8%EB%8F%84-%EA%B0%95%EC%A7%84%EA%B5%B0-%EA%B0%95%EC%A7%84%EC%9D%8D/", "workingTime": ["-", "08:30~13:00", "08:30~13:00", "08:30~13:00", "08:30~13:00", "08:30~13:00", "-", "-"]}]