[{"name": "\ubc15\uc57d\uad6d", "lat": "36.07909036920535", "lng": "126.95842400567062", "url": "/info/%EB%B0%95%EC%95%BD%EA%B5%AD-%EC%A0%84%EB%9D%BC%EB%B6%81%EB%8F%84-%EC%9D%B5%EC%82%B0%EC%8B%9C-%ED%95%A8%EC%97%B4%EC%9D%8D/", "workingTime": ["-", "09:00~19:00", "09:00~19:00", "09:00~19:00", "09:00~19:00", "09:00~19:00", "09:00~16:00", "-"]}, {"name": "\uc57d\uc190\uc57d\uad6d", "lat": "36.07940376655036", "lng": "126.95841421677596", "url": "/info/%EC%95%BD%EC%86%90%EC%95%BD%EA%B5%AD-%EC%A0%84%EB%9D%BC%EB%B6%81%EB%8F%84-%EC%9D%B5%EC%82%B0%EC%8B%9C-%ED%95%A8%EC%97%B4%EC%9D%8D/", "workingTime": ["1,2,3,4,5\uc9f8\uc8fc09:00~22:30", "09:00~22:30", "09:00~22:30", "09:00~22:30", "09:00~22:30", "09:00~22:30", "09:00~22:30", "09:00~22:00"]}, {"name": "\ud568\uc5f4\uac74\uac15\uc57d\uad6d", "lat": "36.0806476493489", "lng": "126.96095059669237", "url": "/info/%ED%95%A8%EC%97%B4%EA%B1%B4%EA%B0%95%EC%95%BD%EA%B5%AD-%EC%A0%84%EB%9D%BC%EB%B6%81%EB%8F%84-%EC%9D%B5%EC%82%B0%EC%8B%9C-%ED%95%A8%EC%97%B4%EC%9D%8D/", "workingTime": ["-", "08:30~18:00", "08:30~18:00", "08:30~18:00", "08:30~18:00", "08:30~18:00", "09:00~13:00", "-"]}, {"name": "\ud568\uc5f4\uc0ac\ub791\uc57d\uad6d", "lat": "36.07889450256518", "lng": "126.95750595562019", "url": "/info/%ED%95%A8%EC%97%B4%EC%82%AC%EB%9E%91%EC%95%BD%EA%B5%AD-%EC%A0%84%EB%9D%BC%EB%B6%81%EB%8F%84-%EC%9D%B5%EC%82%B0%EC%8B%9C-%ED%95%A8%EC%97%B4%EC%9D%8D/", "workingTime": ["-", "08:00~18:30", "08:00~18:30", "08:00~18:30", "08:00~18:30", "08:00~18:30", "08:00~13:00", "-"]}, {"name": "\ud568\uc5f4\ubcf4\ub839\uc57d\uad6d", "lat": "36.0795009616394", "lng": "126.95803669520677", "url": "/info/%ED%95%A8%EC%97%B4%EB%B3%B4%EB%A0%B9%EC%95%BD%EA%B5%AD-%EC%A0%84%EB%9D%BC%EB%B6%81%EB%8F%84-%EC%9D%B5%EC%82%B0%EC%8B%9C-%ED%95%A8%EC%97%B4%EC%9D%8D/", "workingTime": ["-", "08:00~20:00", "08:00~20:00", "08:00~20:00", "08:00~20:00", "08:00~20:00", "08:00~18:00", "-"]}, {"name": "\ud568\uc5f4\ud0dc\ud3c9\uc591\uc57d\uad6d", "lat": "36.07945780434523", "lng": "126.9583164896211", "url": "/info/%ED%95%A8%EC%97%B4%ED%83%9C%ED%8F%89%EC%96%91%EC%95%BD%EA%B5%AD-%EC%A0%84%EB%9D%BC%EB%B6%81%EB%8F%84-%EC%9D%B5%EC%82%B0%EC%8B%9C-%ED%95%A8%EC%97%B4%EC%9D%8D/", "workingTime": ["-", "09:00~20:00", "09:00~20:00", "09:00~20:00", "09:00~20:00", "09:00~20:00", "09:00~16:00", "-"]}, {"name": "\uc77c\ub4f1\uc57d\uad6d", "lat": "36.07925144724153", "lng": "126.95903370136877", "url": "/info/%EC%9D%BC%EB%93%B1%EC%95%BD%EA%B5%AD-%EC%A0%84%EB%9D%BC%EB%B6%81%EB%8F%84-%EC%9D%B5%EC%82%B0%EC%8B%9C-%ED%95%A8%EC%97%B4%EC%9D%8D/", "workingTime": ["-", "09:00~12:00", "09:00~12:00", "09:00~12:00", "09:00~12:00", "09:00~12:00", "-", "-"]}, {"name": "\ud568\uc5f4\uc57d\uad6d", "lat": "36.07869331407222", "lng": "126.95760194467988", "url": "/info/%ED%95%A8%EC%97%B4%EC%95%BD%EA%B5%AD-%EC%A0%84%EB%9D%BC%EB%B6%81%EB%8F%84-%EC%9D%B5%EC%82%B0%EC%8B%9C-%ED%95%A8%EC%97%B4%EC%9D%8D/", "workingTime": ["-", "09:00~12:00", "09:00~12:00", "09:00~12:00", "09:00~12:00", "09:00~12:00", "-", "-"]}]