[{"name": "\uc0ac\ub791\uc57d\uad6d", "lat": "35.564245192146934", "lng": "126.87114011428334", "url": "/info/%EC%82%AC%EB%9E%91%EC%95%BD%EA%B5%AD-%EC%A0%84%EB%9D%BC%EB%B6%81%EB%8F%84-%EC%A0%95%EC%9D%8D%EC%8B%9C-%EC%83%81%EB%8F%99/", "workingTime": ["-", "08:30~18:00", "08:30~18:00", "08:30~18:00", "08:30~18:00", "08:30~18:00", "08:30~13:00", "-"]}, {"name": "\uc0c8\ub86c\uc57d\uad6d", "lat": "35.557265249003414", "lng": "126.87368882039703", "url": "/info/%EC%83%88%EB%A1%AC%EC%95%BD%EA%B5%AD-%EC%A0%84%EB%9D%BC%EB%B6%81%EB%8F%84-%EC%A0%95%EC%9D%8D%EC%8B%9C-%EC%83%81%EB%8F%99/", "workingTime": ["-", "09:00~19:00", "09:00~19:00", "09:00~13:00", "09:00~19:00", "09:00~19:00", "09:00~13:00", "-"]}, {"name": "\ucc44\uc57d\uad6d", "lat": "35.5583062684", "lng": "126.8728489259", "url": "/info/%EC%B1%84%EC%95%BD%EA%B5%AD-%EC%A0%84%EB%9D%BC%EB%B6%81%EB%8F%84-%EC%A0%95%EC%9D%8D%EC%8B%9C-%EC%83%81%EB%8F%99/", "workingTime": ["-", "08:30~20:00", "08:30~20:00", "08:30~20:00", "08:30~20:00", "08:30~20:00", "08:30~13:00", "-"]}, {"name": "\uc815\ud654\uc57d\uad6d", "lat": "35.560694945574696", "lng": "126.86861337017203", "url": "/info/%EC%A0%95%ED%99%94%EC%95%BD%EA%B5%AD-%EC%A0%84%EB%9D%BC%EB%B6%81%EB%8F%84-%EC%A0%95%EC%9D%8D%EC%8B%9C-%EC%83%81%EB%8F%99/", "workingTime": ["-", "08:30~20:00", "08:30~20:00", "08:30~20:00", "08:30~20:00", "08:30~20:00", "08:30~19:00", "-"]}, {"name": "\uc0c1\ub85d\uc218\uc628\ub204\ub9ac\uc57d\uad6d", "lat": "35.55853225226675", "lng": "126.87031311309721", "url": "/info/%EC%83%81%EB%A1%9D%EC%88%98%EC%98%A8%EB%88%84%EB%A6%AC%EC%95%BD%EA%B5%AD-%EC%A0%84%EB%9D%BC%EB%B6%81%EB%8F%84-%EC%A0%95%EC%9D%8D%EC%8B%9C-%EC%83%81%EB%8F%99/", "workingTime": ["-", "08:30~18:30", "08:30~18:30", "08:30~18:30", "08:30~18:30", "08:30~18:30", "08:30~15:00", "-"]}, {"name": "\uc0c1\ub3d9\uc57d\uad6d", "lat": "35.5619800705005", "lng": "126.866526867157", "url": "/info/%EC%83%81%EB%8F%99%EC%95%BD%EA%B5%AD-%EC%A0%84%EB%9D%BC%EB%B6%81%EB%8F%84-%EC%A0%95%EC%9D%8D%EC%8B%9C-%EC%83%81%EB%8F%99/", "workingTime": ["1,2,3,4,5\uc9f8\uc8fc11:00~20:00", "08:30~20:00", "08:30~20:00", "08:30~20:00", "08:30~20:00", "08:30~20:00", "08:30~20:00", "10:00~20:00"]}]