[{"name": "\ube44\ud0c0\ubbfc\uc57d\uad6d", "lat": "35.9587587791772", "lng": "126.975493015827", "url": "/info/%EB%B9%84%ED%83%80%EB%AF%BC%EC%95%BD%EA%B5%AD-%EC%A0%84%EB%9D%BC%EB%B6%81%EB%8F%84-%EC%9D%B5%EC%82%B0%EC%8B%9C-%EC%98%81%EB%93%B1%EB%8F%99/", "workingTime": ["-", "08:30~20:30", "08:30~20:30", "08:30~18:30", "08:30~20:30", "08:30~20:30", "08:30~14:00", "-"]}, {"name": "\uc120\uc57d\uad6d", "lat": "35.959462878282", "lng": "126.972014906115", "url": "/info/%EC%84%A0%EC%95%BD%EA%B5%AD-%EC%A0%84%EB%9D%BC%EB%B6%81%EB%8F%84-%EC%9D%B5%EC%82%B0%EC%8B%9C-%EC%98%81%EB%93%B1%EB%8F%99/", "workingTime": ["-", "08:30~19:00", "08:30~19:00", "08:30~19:00", "08:30~19:00", "08:30~19:00", "08:30~13:30", "-"]}, {"name": "\uc6d0\ud31c\uc57d\uad6d", "lat": "35.9599440072402", "lng": "126.981004278733", "url": "/info/%EC%9B%90%ED%8C%9C%EC%95%BD%EA%B5%AD-%EC%A0%84%EB%9D%BC%EB%B6%81%EB%8F%84-%EC%9D%B5%EC%82%B0%EC%8B%9C-%EC%98%81%EB%93%B1%EB%8F%99/", "workingTime": ["-", "09:00~19:00", "09:00~19:00", "09:00~19:00", "09:00~19:00", "09:00~19:00", "09:00~13:00", "-"]}, {"name": "\ub450\ub9ac\uc57d\uad6d", "lat": "35.96686258436708", "lng": "126.95272800454495", "url": "/info/%EB%91%90%EB%A6%AC%EC%95%BD%EA%B5%AD-%EC%A0%84%EB%9D%BC%EB%B6%81%EB%8F%84-%EC%9D%B5%EC%82%B0%EC%8B%9C-%EC%98%81%EB%93%B1%EB%8F%99/", "workingTime": ["-", "09:00~18:30", "09:00~18:30", "09:00~18:30", "09:00~18:30", "09:00~18:30", "09:00~13:00", "09:00~13:00"]}, {"name": "\ub3d9\ubd80\uc57d\uad6d", "lat": "35.94815576386073", "lng": "126.96739675097174", "url": "/info/%EB%8F%99%EB%B6%80%EC%95%BD%EA%B5%AD-%EC%A0%84%EB%9D%BC%EB%B6%81%EB%8F%84-%EC%9D%B5%EC%82%B0%EC%8B%9C-%EC%98%81%EB%93%B1%EB%8F%99/", "workingTime": ["-", "09:00~19:30", "09:00~19:30", "09:00~19:30", "09:00~19:30", "09:00~19:30", "09:00~13:00", "-"]}, {"name": "\ub300\uc131\uc57d\uad6d", "lat": "35.956246482100156", "lng": "126.97206217230246", "url": "/info/%EB%8C%80%EC%84%B1%EC%95%BD%EA%B5%AD-%EC%A0%84%EB%9D%BC%EB%B6%81%EB%8F%84-%EC%9D%B5%EC%82%B0%EC%8B%9C-%EC%98%81%EB%93%B1%EB%8F%99/", "workingTime": ["1,2,3,4,5\uc9f8\uc8fc17:00~20:00", "09:00~22:00", "09:00~22:00", "09:00~22:00", "09:00~22:00", "09:00~22:00", "09:00~20:00", "17:00~20:00"]}, {"name": "\ud558\ub298\uc628\ub204\ub9ac\uc57d\uad6d", "lat": "35.955777777777776", "lng": "126.972405555555554", "url": "/info/%ED%95%98%EB%8A%98%EC%98%A8%EB%88%84%EB%A6%AC%EC%95%BD%EA%B5%AD-%EC%A0%84%EB%9D%BC%EB%B6%81%EB%8F%84-%EC%9D%B5%EC%82%B0%EC%8B%9C-%EC%98%81%EB%93%B1%EB%8F%99/", "workingTime": ["-", "08:30~18:30", "08:30~18:30", "08:30~18:30", "08:30~18:30", "08:30~18:30", "08:30~13:00", "-"]}, {"name": "\ub179\uc2ed\uc790\uc57d\uad6d", "lat": "35.95812443906168", "lng": "126.97119684573877", "url": "/info/%EB%85%B9%EC%8B%AD%EC%9E%90%EC%95%BD%EA%B5%AD-%EC%A0%84%EB%9D%BC%EB%B6%81%EB%8F%84-%EC%9D%B5%EC%82%B0%EC%8B%9C-%EC%98%81%EB%93%B1%EB%8F%99/", "workingTime": ["-", "09:00~18:00", "09:00~18:00", "09:00~18:00", "09:00~18:00", "09:00~18:00", "09:00~14:00", "-"]}, {"name": "\uc774\uc57d\uad6d", "lat": "35.94765372175746", "lng": "126.96361748314332", "url": "/info/%EC%9D%B4%EC%95%BD%EA%B5%AD-%EC%A0%84%EB%9D%BC%EB%B6%81%EB%8F%84-%EC%9D%B5%EC%82%B0%EC%8B%9C-%EC%98%81%EB%93%B1%EB%8F%99/", "workingTime": ["-", "09:00~19:00", "09:00~19:00", "09:00~19:00", "09:00~19:00", "09:00~19:00", "09:00~16:00", "-"]}, {"name": "\ubc31\ud654\uc810\uc57d\uad6d", "lat": "35.95880905694509", "lng": "126.97726651782248", "url": "/info/%EB%B0%B1%ED%99%94%EC%A0%90%EC%95%BD%EA%B5%AD-%EC%A0%84%EB%9D%BC%EB%B6%81%EB%8F%84-%EC%9D%B5%EC%82%B0%EC%8B%9C-%EC%98%81%EB%93%B1%EB%8F%99/", "workingTime": ["-", "08:30~20:00", "08:30~20:00", "08:30~20:00", "08:30~20:00", "08:30~20:00", "08:30~18:00", "-"]}, {"name": "\uc724\uc57d\uad6d", "lat": "35.960106712090116", "lng": "126.97556095753604", "url": "/info/%EC%9C%A4%EC%95%BD%EA%B5%AD-%EC%A0%84%EB%9D%BC%EB%B6%81%EB%8F%84-%EC%9D%B5%EC%82%B0%EC%8B%9C-%EC%98%81%EB%93%B1%EB%8F%99/", "workingTime": ["-", "09:30~21:00", "09:30~21:00", "09:30~21:00", "09:30~21:00", "09:30~21:00", "09:30~21:00", "09:30~20:00"]}, {"name": "\uc138\ub9bc\uc57d\uad6d", "lat": "35.956077777777779", "lng": "126.971266666666665", "url": "/info/%EC%84%B8%EB%A6%BC%EC%95%BD%EA%B5%AD-%EC%A0%84%EB%9D%BC%EB%B6%81%EB%8F%84-%EC%9D%B5%EC%82%B0%EC%8B%9C-%EC%98%81%EB%93%B1%EB%8F%99/", "workingTime": ["-", "09:00~18:30", "09:00~18:30", "09:00~18:30", "09:00~18:30", "09:00~18:30", "09:00~13:00", "-"]}, {"name": "\uc624\uac70\ub9ac\uc57d\uad6d", "lat": "35.94689572866655", "lng": "126.96647458918031", "url": "/info/%EC%98%A4%EA%B1%B0%EB%A6%AC%EC%95%BD%EA%B5%AD-%EC%A0%84%EB%9D%BC%EB%B6%81%EB%8F%84-%EC%9D%B5%EC%82%B0%EC%8B%9C-%EC%98%81%EB%93%B1%EB%8F%99/", "workingTime": ["-", "09:00~19:00", "09:00~19:00", "09:00~19:00", "09:00~19:00", "09:00~19:00", "09:00~13:30", "-"]}, {"name": "\uc601\ub4f1\ubc31\uc138\uc57d\uad6d", "lat": "35.9581374489", "lng": "126.9721187975", "url": "/info/%EC%98%81%EB%93%B1%EB%B0%B1%EC%84%B8%EC%95%BD%EA%B5%AD-%EC%A0%84%EB%9D%BC%EB%B6%81%EB%8F%84-%EC%9D%B5%EC%82%B0%EC%8B%9C-%EC%98%81%EB%93%B1%EB%8F%99/", "workingTime": ["-", "09:00~18:30", "09:00~18:30", "09:00~18:30", "09:00~18:30", "09:00~18:30", "09:00~13:00", "-"]}, {"name": "\ud504\ub77c\uc790\uc57d\uad6d", "lat": "35.95874549554397", "lng": "126.97549762561691", "url": "/info/%ED%94%84%EB%9D%BC%EC%9E%90%EC%95%BD%EA%B5%AD-%EC%A0%84%EB%9D%BC%EB%B6%81%EB%8F%84-%EC%9D%B5%EC%82%B0%EC%8B%9C-%EC%98%81%EB%93%B1%EB%8F%99/", "workingTime": ["-", "09:00~19:00", "09:00~19:00", "09:00~19:00", "09:00~19:00", "09:00~19:00", "09:00~12:30", "-"]}, {"name": "\uc9c4\uc57d\uad6d", "lat": "35.95529600299954", "lng": "126.97757822792951", "url": "/info/%EC%A7%84%EC%95%BD%EA%B5%AD-%EC%A0%84%EB%9D%BC%EB%B6%81%EB%8F%84-%EC%9D%B5%EC%82%B0%EC%8B%9C-%EC%98%81%EB%93%B1%EB%8F%99/", "workingTime": ["-", "09:00~19:00", "09:00~19:00", "09:00~19:00", "09:00~19:00", "09:00~19:00", "09:00~13:00", "-"]}, {"name": "\uc608\uc1a1\ud0dc\ud3c9\uc591\uc57d\uad6d", "lat": "35.958294444444448", "lng": "126.976927777777775", "url": "/info/%EC%98%88%EC%86%A1%ED%83%9C%ED%8F%89%EC%96%91%EC%95%BD%EA%B5%AD-%EC%A0%84%EB%9D%BC%EB%B6%81%EB%8F%84-%EC%9D%B5%EC%82%B0%EC%8B%9C-%EC%98%81%EB%93%B1%EB%8F%99/", "workingTime": ["-", "08:30~20:30", "08:30~20:30", "08:30~20:30", "08:30~20:30", "08:30~20:30", "09:00~16:00", "09:00~13:00"]}, {"name": "\uac74\uac15\ubc31\uc138\uc57d\uad6d", "lat": "35.958744444444442", "lng": "126.976477777777774", "url": "/info/%EA%B1%B4%EA%B0%95%EB%B0%B1%EC%84%B8%EC%95%BD%EA%B5%AD-%EC%A0%84%EB%9D%BC%EB%B6%81%EB%8F%84-%EC%9D%B5%EC%82%B0%EC%8B%9C-%EC%98%81%EB%93%B1%EB%8F%99/", "workingTime": ["-", "09:00~19:30", "09:00~19:30", "09:00~19:30", "09:00~19:30", "09:00~19:30", "09:00~14:00", "-"]}, {"name": "\uc0c1\uc544\uc57d\uad6d", "lat": "35.95073460434483", "lng": "126.96834840535612", "url": "/info/%EC%83%81%EC%95%84%EC%95%BD%EA%B5%AD-%EC%A0%84%EB%9D%BC%EB%B6%81%EB%8F%84-%EC%9D%B5%EC%82%B0%EC%8B%9C-%EC%98%81%EB%93%B1%EB%8F%99/", "workingTime": ["-", "09:00~21:00", "09:00~21:00", "09:00~21:00", "09:00~21:00", "09:00~21:00", "09:00~21:00", "-"]}, {"name": "\ubcf4\ub78c\ucc2c\uc57d\uad6d", "lat": "35.958864375309396", "lng": "126.97927182886202", "url": "/info/%EB%B3%B4%EB%9E%8C%EC%B0%AC%EC%95%BD%EA%B5%AD-%EC%A0%84%EB%9D%BC%EB%B6%81%EB%8F%84-%EC%9D%B5%EC%82%B0%EC%8B%9C-%EC%98%81%EB%93%B1%EB%8F%99/", "workingTime": ["-", "09:00~19:00", "09:00~19:00", "09:00~19:00", "09:00~19:00", "09:00~19:00", "09:00~13:00", "-"]}, {"name": "\ub9c8\ub354\uc2a4\uc57d\uad6d", "lat": "35.95908408546657", "lng": "126.97426041292289", "url": "/info/%EB%A7%88%EB%8D%94%EC%8A%A4%EC%95%BD%EA%B5%AD-%EC%A0%84%EB%9D%BC%EB%B6%81%EB%8F%84-%EC%9D%B5%EC%82%B0%EC%8B%9C-%EC%98%81%EB%93%B1%EB%8F%99/", "workingTime": ["1,3,5\uc9f8\uc8fc10:00~22:00", "10:00~22:00", "10:00~22:00", "10:00~22:00", "10:00~22:00", "10:00~22:00", "10:00~22:00", "10:00~22:00"]}, {"name": "\ub3d9\ubd80\uc885\ub85c\uc57d\uad6d", "lat": "35.946191200249814", "lng": "126.96785866117466", "url": "/info/%EB%8F%99%EB%B6%80%EC%A2%85%EB%A1%9C%EC%95%BD%EA%B5%AD-%EC%A0%84%EB%9D%BC%EB%B6%81%EB%8F%84-%EC%9D%B5%EC%82%B0%EC%8B%9C-%EC%98%81%EB%93%B1%EB%8F%99/", "workingTime": ["-", "08:00~20:00", "08:00~20:00", "08:00~20:00", "08:00~20:00", "08:00~20:00", "08:00~14:00", "-"]}, {"name": "\ub0b4\uac00\ubcf8\uc57d\uad6d", "lat": "35.95878922794586", "lng": "126.97778557616915", "url": "/info/%EB%82%B4%EA%B0%80%EB%B3%B8%EC%95%BD%EA%B5%AD-%EC%A0%84%EB%9D%BC%EB%B6%81%EB%8F%84-%EC%9D%B5%EC%82%B0%EC%8B%9C-%EC%98%81%EB%93%B1%EB%8F%99/", "workingTime": ["-", "09:00~18:30", "09:00~18:30", "09:00~18:30", "09:00~18:30", "09:00~18:30", "09:00~13:00", "-"]}, {"name": "\uad7f\ubaa8\ub2dd\uc57d\uad6d", "lat": "35.95905496237017", "lng": "126.97303662365943", "url": "/info/%EA%B5%BF%EB%AA%A8%EB%8B%9D%EC%95%BD%EA%B5%AD-%EC%A0%84%EB%9D%BC%EB%B6%81%EB%8F%84-%EC%9D%B5%EC%82%B0%EC%8B%9C-%EC%98%81%EB%93%B1%EB%8F%99/", "workingTime": ["-", "09:00~20:00", "09:00~19:00", "09:00~19:00", "09:00~19:00", "09:00~20:00", "09:00~14:00", "-"]}, {"name": "\uc601\ub4f1\uc2a4\ub9c8\uc77c\uc57d\uad6d", "lat": "35.9603129628", "lng": "126.9809286989", "url": "/info/%EC%98%81%EB%93%B1%EC%8A%A4%EB%A7%88%EC%9D%BC%EC%95%BD%EA%B5%AD-%EC%A0%84%EB%9D%BC%EB%B6%81%EB%8F%84-%EC%9D%B5%EC%82%B0%EC%8B%9C-%EC%98%81%EB%93%B1%EB%8F%99/", "workingTime": ["-", "08:30~18:30", "08:30~18:30", "08:30~12:30", "08:30~18:30", "08:30~18:30", "08:30~12:30", "-"]}, {"name": "\ubb38\uc57d\uad6d", "lat": "35.9583887652447", "lng": "126.969724101891", "url": "/info/%EB%AC%B8%EC%95%BD%EA%B5%AD-%EC%A0%84%EB%9D%BC%EB%B6%81%EB%8F%84-%EC%9D%B5%EC%82%B0%EC%8B%9C-%EC%98%81%EB%93%B1%EB%8F%99/", "workingTime": ["-", "09:00~19:00", "09:00~19:00", "09:00~19:00", "09:00~19:00", "09:00~19:00", "09:00~13:00", "09:00~13:00"]}, {"name": "\uc775\uc0b0\ud50c\ub7ec\uc2a4\uc57d\uad6d", "lat": "35.958901724", "lng": "126.9722205127", "url": "/info/%EC%9D%B5%EC%82%B0%ED%94%8C%EB%9F%AC%EC%8A%A4%EC%95%BD%EA%B5%AD-%EC%A0%84%EB%9D%BC%EB%B6%81%EB%8F%84-%EC%9D%B5%EC%82%B0%EC%8B%9C-%EC%98%81%EB%93%B1%EB%8F%99/", "workingTime": ["1,2,3,4,5\uc9f8\uc8fc10:00~22:00", "10:30~21:00", "10:30~21:00", "10:30~21:00", "10:30~21:00", "10:30~21:00", "10:30~21:00", "10:30~21:00"]}, {"name": "\uac74\uac15\uc774\ud654\uc57d\uad6d", "lat": "35.9589475878", "lng": "126.9681899191", "url": "/info/%EA%B1%B4%EA%B0%95%EC%9D%B4%ED%99%94%EC%95%BD%EA%B5%AD-%EC%A0%84%EB%9D%BC%EB%B6%81%EB%8F%84-%EC%9D%B5%EC%82%B0%EC%8B%9C-%EC%98%81%EB%93%B1%EB%8F%99/", "workingTime": ["-", "09:00~18:00", "09:00~18:00", "09:00~18:00", "09:00~18:00", "09:00~18:00", "09:00~12:00", "-"]}, {"name": "\ud574\ub9d1\uc740\uc57d\uad6d", "lat": "35.962140600145325", "lng": "126.98057797005435", "url": "/info/%ED%95%B4%EB%A7%91%EC%9D%80%EC%95%BD%EA%B5%AD-%EC%A0%84%EB%9D%BC%EB%B6%81%EB%8F%84-%EC%9D%B5%EC%82%B0%EC%8B%9C-%EC%98%81%EB%93%B1%EB%8F%99/", "workingTime": ["-", "09:00~12:00", "09:00~12:00", "09:00~12:00", "09:00~12:00", "09:00~12:00", "-", "-"]}]