[{"name": "\ud478\ub978\uc57d\uad6d", "lat": "34.79663976720742", "lng": "126.70276809938287", "url": "/info/%ED%91%B8%EB%A5%B8%EC%95%BD%EA%B5%AD-%EC%A0%84%EB%9D%BC%EB%82%A8%EB%8F%84-%EC%98%81%EC%95%94%EA%B5%B0-%EC%98%81%EC%95%94%EC%9D%8D/", "workingTime": ["1,2,3,4,5\uc9f8\uc8fc08:00~24:00", "08:00~24:00", "08:00~24:00", "08:00~24:00", "08:00~24:00", "08:00~24:00", "08:00~24:00", "08:00~24:00"]}, {"name": "\uc11c\uc6b8\uc57d\uad6d", "lat": "34.8019259271516", "lng": "126.699303836182", "url": "/info/%EC%84%9C%EC%9A%B8%EC%95%BD%EA%B5%AD-%EC%A0%84%EB%9D%BC%EB%82%A8%EB%8F%84-%EC%98%81%EC%95%94%EA%B5%B0-%EC%98%81%EC%95%94%EC%9D%8D/", "workingTime": ["-", "08:00~18:00", "08:00~18:00", "08:00~18:00", "08:00~18:00", "08:00~18:00", "08:00~13:00", "-"]}, {"name": "\ubd80\ubd80\uc57d\uad6d", "lat": "34.7950512091834", "lng": "126.701010694692", "url": "/info/%EB%B6%80%EB%B6%80%EC%95%BD%EA%B5%AD-%EC%A0%84%EB%9D%BC%EB%82%A8%EB%8F%84-%EC%98%81%EC%95%94%EA%B5%B0-%EC%98%81%EC%95%94%EC%9D%8D/", "workingTime": ["-", "08:30~21:00", "08:30~21:00", "08:30~21:00", "08:30~21:00", "08:30~21:00", "08:30~16:00", "-"]}, {"name": "\uc601\uc554\uc885\ub85c\uc57d\uad6d", "lat": "34.8000200246116", "lng": "126.69826968437274", "url": "/info/%EC%98%81%EC%95%94%EC%A2%85%EB%A1%9C%EC%95%BD%EA%B5%AD-%EC%A0%84%EB%9D%BC%EB%82%A8%EB%8F%84-%EC%98%81%EC%95%94%EA%B5%B0-%EC%98%81%EC%95%94%EC%9D%8D/", "workingTime": ["-", "08:00~18:30", "08:00~18:30", "08:00~18:30", "08:00~18:30", "08:00~18:30", "08:00~13:30", "-"]}, {"name": "\uac74\uac15\uc57d\uad6d", "lat": "34.79617012897581", "lng": "126.7023982685793", "url": "/info/%EA%B1%B4%EA%B0%95%EC%95%BD%EA%B5%AD-%EC%A0%84%EB%9D%BC%EB%82%A8%EB%8F%84-%EC%98%81%EC%95%94%EA%B5%B0-%EC%98%81%EC%95%94%EC%9D%8D/", "workingTime": ["-", "09:00~13:00", "09:00~13:00", "09:00~13:00", "09:00~13:00", "09:00~13:00", "08:30~13:00", "-"]}, {"name": "\uc870\uc740\uc57d\uad6d", "lat": "34.79914895262659", "lng": "126.69759205237257", "url": "/info/%EC%A1%B0%EC%9D%80%EC%95%BD%EA%B5%AD-%EC%A0%84%EB%9D%BC%EB%82%A8%EB%8F%84-%EC%98%81%EC%95%94%EA%B5%B0-%EC%98%81%EC%95%94%EC%9D%8D/", "workingTime": ["-", "09:00~13:00", "09:00~13:00", "09:00~13:00", "09:00~13:00", "09:00~13:00", "08:00~12:30", "-"]}, {"name": "\uc601\uc554\ud604\ub300\uc57d\uad6d", "lat": "34.79808918376352", "lng": "126.69572596902301", "url": "/info/%EC%98%81%EC%95%94%ED%98%84%EB%8C%80%EC%95%BD%EA%B5%AD-%EC%A0%84%EB%9D%BC%EB%82%A8%EB%8F%84-%EC%98%81%EC%95%94%EA%B5%B0-%EC%98%81%EC%95%94%EC%9D%8D/", "workingTime": ["-", "09:00~13:00", "09:00~13:00", "09:00~13:00", "09:00~13:00", "09:00~13:00", "08:30~13:00", "-"]}, {"name": "\uc73c\ub738\uc57d\uad6d", "lat": "34.803379738595446", "lng": "126.70027840678219", "url": "/info/%EC%9C%BC%EB%9C%B8%EC%95%BD%EA%B5%AD-%EC%A0%84%EB%9D%BC%EB%82%A8%EB%8F%84-%EC%98%81%EC%95%94%EA%B5%B0-%EC%98%81%EC%95%94%EC%9D%8D/", "workingTime": ["1,2,3,4,5\uc9f8\uc8fc22:00~25:00", "08:30~25:00", "08:30~25:00", "08:30~25:00", "08:30~25:00", "08:30~25:00", "22:00~25:00", "22:00~25:00"]}]