[{"name": "\uc0db\ubcc4\uc57d\uad6d", "lat": "35.8117319737535", "lng": "127.129192731524", "url": "/info/%EC%83%9B%EB%B3%84%EC%95%BD%EA%B5%AD-%EC%A0%84%EB%9D%BC%EB%B6%81%EB%8F%84-%EC%A0%84%EC%A3%BC%EC%8B%9C-%EC%A4%91%ED%99%94%EC%82%B0%EB%8F%992%EA%B0%80/", "workingTime": ["-", "08:30~18:30", "08:30~18:30", "08:30~18:30", "08:30~18:30", "08:30~18:30", "08:30~13:00", "-"]}, {"name": "\uc804\uc8fc\uc885\ub85c\uc57d\uad6d\uc911\ud654\uc0b0\uc810", "lat": "35.81637991400174", "lng": "127.12339820619415", "url": "/info/%EC%A0%84%EC%A3%BC%EC%A2%85%EB%A1%9C%EC%95%BD%EA%B5%AD%EC%A4%91%ED%99%94%EC%82%B0%EC%A0%90-%EC%A0%84%EB%9D%BC%EB%B6%81%EB%8F%84-%EC%A0%84%EC%A3%BC%EC%8B%9C-%EC%A4%91%ED%99%94%EC%82%B0%EB%8F%992%EA%B0%80/", "workingTime": ["1,2,3,4,5\uc9f8\uc8fc10:00~22:00", "09:00~22:30", "09:00~22:30", "09:00~22:30", "09:00~22:30", "09:00~22:30", "09:00~22:00", "09:00~22:00"]}, {"name": "\uc804\uc8fc\uccad\ucd98\uc57d\uad6d", "lat": "35.8169671375198", "lng": "127.123349708719", "url": "/info/%EC%A0%84%EC%A3%BC%EC%B2%AD%EC%B6%98%EC%95%BD%EA%B5%AD-%EC%A0%84%EB%9D%BC%EB%B6%81%EB%8F%84-%EC%A0%84%EC%A3%BC%EC%8B%9C-%EC%A4%91%ED%99%94%EC%82%B0%EB%8F%992%EA%B0%80/", "workingTime": ["-", "09:00~19:00", "09:00~19:00", "09:00~19:00", "09:00~19:00", "09:00~19:00", "09:00~13:00", "-"]}, {"name": "\uc81c\uc911\uc57d\uad6d", "lat": "35.81527241422402", "lng": "127.12506762930465", "url": "/info/%EC%A0%9C%EC%A4%91%EC%95%BD%EA%B5%AD-%EC%A0%84%EB%9D%BC%EB%B6%81%EB%8F%84-%EC%A0%84%EC%A3%BC%EC%8B%9C-%EC%A4%91%ED%99%94%EC%82%B0%EB%8F%992%EA%B0%80/", "workingTime": ["-", "08:30~18:30", "08:30~18:30", "08:30~18:30", "08:30~18:30", "08:30~18:30", "08:30~13:30", "-"]}, {"name": "\ub354\ub098\uc740\uc57d\uad6d", "lat": "35.8167653400135", "lng": "127.12335481862", "url": "/info/%EB%8D%94%EB%82%98%EC%9D%80%EC%95%BD%EA%B5%AD-%EC%A0%84%EB%9D%BC%EB%B6%81%EB%8F%84-%EC%A0%84%EC%A3%BC%EC%8B%9C-%EC%A4%91%ED%99%94%EC%82%B0%EB%8F%992%EA%B0%80/", "workingTime": ["-", "09:00~19:00", "09:00~19:00", "09:00~19:00", "09:00~19:00", "09:00~19:00", "09:00~13:00", "-"]}, {"name": "\uc124\uc57d\uad6d", "lat": "35.8158779389", "lng": "127.1234618856", "url": "/info/%EC%84%A4%EC%95%BD%EA%B5%AD-%EC%A0%84%EB%9D%BC%EB%B6%81%EB%8F%84-%EC%A0%84%EC%A3%BC%EC%8B%9C-%EC%A4%91%ED%99%94%EC%82%B0%EB%8F%992%EA%B0%80/", "workingTime": ["-", "09:00~18:30", "09:00~18:30", "09:00~18:30", "09:00~18:30", "09:00~18:30", "09:00~13:00", "-"]}, {"name": "\ub178\uc1a1\ud55c\uc57d\uad6d", "lat": "35.82483636483301", "lng": "127.1200008733105", "url": "/info/%EB%85%B8%EC%86%A1%ED%95%9C%EC%95%BD%EA%B5%AD-%EC%A0%84%EB%9D%BC%EB%B6%81%EB%8F%84-%EC%A0%84%EC%A3%BC%EC%8B%9C-%EC%A4%91%ED%99%94%EC%82%B0%EB%8F%992%EA%B0%80/", "workingTime": ["-", "10:00~19:00", "10:00~19:00", "10:00~19:00", "10:00~19:00", "10:00~19:00", "10:30~16:00", "-"]}, {"name": "\uc6b0\ub9ac\ub4e4\ud55c\uc57d\uad6d", "lat": "35.82516205171773", "lng": "127.11505239952316", "url": "/info/%EC%9A%B0%EB%A6%AC%EB%93%A4%ED%95%9C%EC%95%BD%EA%B5%AD-%EC%A0%84%EB%9D%BC%EB%B6%81%EB%8F%84-%EC%A0%84%EC%A3%BC%EC%8B%9C-%EC%A4%91%ED%99%94%EC%82%B0%EB%8F%992%EA%B0%80/", "workingTime": ["-", "09:30~18:30", "09:30~18:30", "09:30~18:30", "09:30~18:30", "09:30~18:30", "09:30~15:00", "-"]}, {"name": "\uc628\uace0\uc744\uc57d\uad6d", "lat": "35.8164875751", "lng": "127.1158321625", "url": "/info/%EC%98%A8%EA%B3%A0%EC%9D%84%EC%95%BD%EA%B5%AD-%EC%A0%84%EB%9D%BC%EB%B6%81%EB%8F%84-%EC%A0%84%EC%A3%BC%EC%8B%9C-%EC%A4%91%ED%99%94%EC%82%B0%EB%8F%992%EA%B0%80/", "workingTime": ["-", "08:30~19:30", "08:30~19:30", "08:30~19:30", "08:30~19:30", "08:30~19:30", "08:30~14:30", "-"]}, {"name": "\uc804\uc8fc\ud589\ubcf5\uc57d\uad6d", "lat": "35.81303355910696", "lng": "127.12346190830972", "url": "/info/%EC%A0%84%EC%A3%BC%ED%96%89%EB%B3%B5%EC%95%BD%EA%B5%AD-%EC%A0%84%EB%9D%BC%EB%B6%81%EB%8F%84-%EC%A0%84%EC%A3%BC%EC%8B%9C-%EC%A4%91%ED%99%94%EC%82%B0%EB%8F%992%EA%B0%80/", "workingTime": ["-", "09:00~18:30", "09:00~18:30", "09:00~13:00", "09:00~18:30", "09:00~18:30", "09:00~13:00", "-"]}, {"name": "\uc81c\uc774\ud31c\uc57d\uad6d", "lat": "35.81622931778555", "lng": "127.12259242611654", "url": "/info/%EC%A0%9C%EC%9D%B4%ED%8C%9C%EC%95%BD%EA%B5%AD-%EC%A0%84%EB%9D%BC%EB%B6%81%EB%8F%84-%EC%A0%84%EC%A3%BC%EC%8B%9C-%EC%A4%91%ED%99%94%EC%82%B0%EB%8F%992%EA%B0%80/", "workingTime": ["-", "09:00~18:30", "09:00~18:30", "09:00~18:30", "09:00~18:30", "09:00~18:30", "08:30~12:30", "09:00~12:30"]}, {"name": "\uc5f0\uc138\uc57d\uad6d", "lat": "35.81171996723516", "lng": "127.12562082549907", "url": "/info/%EC%97%B0%EC%84%B8%EC%95%BD%EA%B5%AD-%EC%A0%84%EB%9D%BC%EB%B6%81%EB%8F%84-%EC%A0%84%EC%A3%BC%EC%8B%9C-%EC%A4%91%ED%99%94%EC%82%B0%EB%8F%992%EA%B0%80/", "workingTime": ["-", "09:00~18:30", "09:00~18:30", "09:00~18:30", "09:00~18:30", "09:00~18:30", "09:00~14:00", "-"]}, {"name": "\ubbf8\ub798\uc57d\uad6d", "lat": "35.82517332664366", "lng": "127.11525344021064", "url": "/info/%EB%AF%B8%EB%9E%98%EC%95%BD%EA%B5%AD-%EC%A0%84%EB%9D%BC%EB%B6%81%EB%8F%84-%EC%A0%84%EC%A3%BC%EC%8B%9C-%EC%A4%91%ED%99%94%EC%82%B0%EB%8F%992%EA%B0%80/", "workingTime": ["-", "09:00~20:30", "09:00~20:30", "09:00~20:30", "09:00~20:30", "09:00~20:30", "09:00~17:00", "-"]}, {"name": "\uac00\ub098\uc57d\uad6d", "lat": "35.81473696818965", "lng": "127.12429223199216", "url": "/info/%EA%B0%80%EB%82%98%EC%95%BD%EA%B5%AD-%EC%A0%84%EB%9D%BC%EB%B6%81%EB%8F%84-%EC%A0%84%EC%A3%BC%EC%8B%9C-%EC%A4%91%ED%99%94%EC%82%B0%EB%8F%992%EA%B0%80/", "workingTime": ["-", "08:30~18:30", "08:30~18:30", "08:30~18:30", "08:30~18:30", "08:30~18:30", "08:30~13:00", "-"]}, {"name": "\ucf54\uc2a4\ucf54\uc57d\uad6d", "lat": "35.81868433208877", "lng": "127.11448976952168", "url": "/info/%EC%BD%94%EC%8A%A4%EC%BD%94%EC%95%BD%EA%B5%AD-%EC%A0%84%EB%9D%BC%EB%B6%81%EB%8F%84-%EC%A0%84%EC%A3%BC%EC%8B%9C-%EC%A4%91%ED%99%94%EC%82%B0%EB%8F%992%EA%B0%80/", "workingTime": ["-", "08:30~18:00", "08:30~18:00", "08:30~18:00", "08:30~18:00", "08:30~18:00", "08:30~13:00", "-"]}, {"name": "\ub204\ub9ac\ube5b\uc57d\uad6d", "lat": "35.8222996479", "lng": "127.1223563602", "url": "/info/%EB%88%84%EB%A6%AC%EB%B9%9B%EC%95%BD%EA%B5%AD-%EC%A0%84%EB%9D%BC%EB%B6%81%EB%8F%84-%EC%A0%84%EC%A3%BC%EC%8B%9C-%EC%A4%91%ED%99%94%EC%82%B0%EB%8F%992%EA%B0%80/", "workingTime": ["-", "09:00~18:00", "09:00~18:00", "09:00~18:00", "09:00~18:00", "09:00~18:00", "09:00~13:00", "-"]}]