[{"name": "\ub2e4\ub098\uc740\uc628\ub204\ub9ac\uc57d\uad6d", "lat": "35.9648747057257", "lng": "126.701925467546", "url": "/info/%EB%8B%A4%EB%82%98%EC%9D%80%EC%98%A8%EB%88%84%EB%A6%AC%EC%95%BD%EA%B5%AD-%EC%A0%84%EB%9D%BC%EB%B6%81%EB%8F%84-%EA%B5%B0%EC%82%B0%EC%8B%9C-%EB%82%98%EC%9A%B4%EB%8F%99/", "workingTime": ["1,2,3,4,5\uc9f8\uc8fc10:00~14:00", "08:30~21:00", "08:30~21:00", "08:30~21:00", "08:30~21:00", "08:30~21:00", "08:30~19:00", "-"]}, {"name": "\ub2e8\uace8\uc628\ub204\ub9ac\uc57d\uad6d", "lat": "35.96215555555555", "lng": "126.70081666666668", "url": "/info/%EB%8B%A8%EA%B3%A8%EC%98%A8%EB%88%84%EB%A6%AC%EC%95%BD%EA%B5%AD-%EC%A0%84%EB%9D%BC%EB%B6%81%EB%8F%84-%EA%B5%B0%EC%82%B0%EC%8B%9C-%EB%82%98%EC%9A%B4%EB%8F%99/", "workingTime": ["1,2,3,4,5\uc9f8\uc8fc18:30~25:00", "08:30~25:00", "08:30~25:00", "08:30~25:00", "08:30~25:00", "08:30~25:00", "08:30~25:00", "08:30~25:00"]}, {"name": "\uac74\uac15\uc57d\uad6d", "lat": "35.9655792557739", "lng": "126.695095459777", "url": "/info/%EA%B1%B4%EA%B0%95%EC%95%BD%EA%B5%AD-%EC%A0%84%EB%9D%BC%EB%B6%81%EB%8F%84-%EA%B5%B0%EC%82%B0%EC%8B%9C-%EB%82%98%EC%9A%B4%EB%8F%99/", "workingTime": ["-", "09:00~20:00", "09:00~20:00", "09:00~20:00", "09:00~20:00", "09:00~20:00", "09:00~20:00", "-"]}, {"name": "\ub098\uc6b4\uc628\ub204\ub9ac\uc57d\uad6d", "lat": "35.9687556244174", "lng": "126.697182257803", "url": "/info/%EB%82%98%EC%9A%B4%EC%98%A8%EB%88%84%EB%A6%AC%EC%95%BD%EA%B5%AD-%EC%A0%84%EB%9D%BC%EB%B6%81%EB%8F%84-%EA%B5%B0%EC%82%B0%EC%8B%9C-%EB%82%98%EC%9A%B4%EB%8F%99/", "workingTime": ["-", "08:30~21:00", "08:30~21:00", "08:30~21:00", "08:30~21:00", "08:30~21:00", "08:30~15:00", "-"]}, {"name": "\uc218\uc57d\uad6d", "lat": "35.97077378196885", "lng": "126.6983912503094", "url": "/info/%EC%88%98%EC%95%BD%EA%B5%AD-%EC%A0%84%EB%9D%BC%EB%B6%81%EB%8F%84-%EA%B5%B0%EC%82%B0%EC%8B%9C-%EB%82%98%EC%9A%B4%EB%8F%99/", "workingTime": ["-", "08:00~18:30", "08:00~18:30", "08:00~18:30", "08:00~18:30", "08:00~18:30", "08:00~13:00", "-"]}, {"name": "\ud50c\ub7ec\uc2a4\uc57d\uad6d", "lat": "35.968183333333336", "lng": "126.705397222222217", "url": "/info/%ED%94%8C%EB%9F%AC%EC%8A%A4%EC%95%BD%EA%B5%AD-%EC%A0%84%EB%9D%BC%EB%B6%81%EB%8F%84-%EA%B5%B0%EC%82%B0%EC%8B%9C-%EB%82%98%EC%9A%B4%EB%8F%99/", "workingTime": ["-", "08:00~18:00", "08:00~18:00", "08:00~18:00", "08:00~18:00", "08:00~18:00", "08:00~13:00", "-"]}, {"name": "\uc544\uc138\uc544\uc57d\uad6d", "lat": "35.968377777777775", "lng": "126.698405555555553", "url": "/info/%EC%95%84%EC%84%B8%EC%95%84%EC%95%BD%EA%B5%AD-%EC%A0%84%EB%9D%BC%EB%B6%81%EB%8F%84-%EA%B5%B0%EC%82%B0%EC%8B%9C-%EB%82%98%EC%9A%B4%EB%8F%99/", "workingTime": ["1,2,3,4,5\uc9f8\uc8fc17:00~22:00", "08:00~22:00", "08:00~22:00", "08:00~22:00", "08:00~22:00", "08:00~22:00", "08:00~22:00", "17:00~22:00"]}, {"name": "\ud638\uc57d\uad6d", "lat": "35.9621909526", "lng": "126.7007809877", "url": "/info/%ED%98%B8%EC%95%BD%EA%B5%AD-%EC%A0%84%EB%9D%BC%EB%B6%81%EB%8F%84-%EA%B5%B0%EC%82%B0%EC%8B%9C-%EB%82%98%EC%9A%B4%EB%8F%99/", "workingTime": ["1,2,3,4,5\uc9f8\uc8fc13:00~18:00", "09:00~19:30", "09:00~19:30", "09:00~19:30", "09:00~19:30", "09:00~19:30", "09:00~17:00", "13:00~18:00"]}, {"name": "\uc11c\ud604\uc57d\uad6d", "lat": "35.96896285373608", "lng": "126.69542393285985", "url": "/info/%EC%84%9C%ED%98%84%EC%95%BD%EA%B5%AD-%EC%A0%84%EB%9D%BC%EB%B6%81%EB%8F%84-%EA%B5%B0%EC%82%B0%EC%8B%9C-%EB%82%98%EC%9A%B4%EB%8F%99/", "workingTime": ["-", "09:00~18:00", "09:00~18:00", "09:00~18:00", "09:00~18:00", "09:00~18:00", "09:00~13:00", "09:00~13:00"]}, {"name": "\uc911\ubd80\uc57d\uad6d", "lat": "35.95764979067901", "lng": "126.70186440749987", "url": "/info/%EC%A4%91%EB%B6%80%EC%95%BD%EA%B5%AD-%EC%A0%84%EB%9D%BC%EB%B6%81%EB%8F%84-%EA%B5%B0%EC%82%B0%EC%8B%9C-%EB%82%98%EC%9A%B4%EB%8F%99/", "workingTime": ["-", "08:30~18:30", "08:30~18:30", "08:30~18:30", "08:30~18:30", "08:30~18:30", "08:30~12:30", "-"]}, {"name": "\ucd08\uc6d0\uc57d\uad6d", "lat": "35.9710422880731", "lng": "126.69908203821574", "url": "/info/%EC%B4%88%EC%9B%90%EC%95%BD%EA%B5%AD-%EC%A0%84%EB%9D%BC%EB%B6%81%EB%8F%84-%EA%B5%B0%EC%82%B0%EC%8B%9C-%EB%82%98%EC%9A%B4%EB%8F%99/", "workingTime": ["-", "08:30~18:30", "08:30~18:30", "08:30~18:30", "08:30~18:30", "08:30~18:30", "08:30~12:00", "-"]}, {"name": "\ubcf4\ub78c\uc57d\uad6d", "lat": "35.9719266854296", "lng": "126.69922424615544", "url": "/info/%EB%B3%B4%EB%9E%8C%EC%95%BD%EA%B5%AD-%EC%A0%84%EB%9D%BC%EB%B6%81%EB%8F%84-%EA%B5%B0%EC%82%B0%EC%8B%9C-%EB%82%98%EC%9A%B4%EB%8F%99/", "workingTime": ["-", "08:30~19:00", "08:30~19:00", "08:30~19:00", "08:30~19:00", "08:30~19:00", "08:30~13:00", "-"]}, {"name": "\uc544\ub984\ub2e4\uc6b4\uc635\ud2f0\ub9c8\uc57d\uad6d", "lat": "35.966769444444445", "lng": "126.700625000000002", "url": "/info/%EC%95%84%EB%A6%84%EB%8B%A4%EC%9A%B4%EC%98%B5%ED%8B%B0%EB%A7%88%EC%95%BD%EA%B5%AD-%EC%A0%84%EB%9D%BC%EB%B6%81%EB%8F%84-%EA%B5%B0%EC%82%B0%EC%8B%9C-%EB%82%98%EC%9A%B4%EB%8F%99/", "workingTime": ["-", "09:00~19:00", "09:00~19:00", "09:00~19:00", "09:00~19:00", "09:00~19:00", "09:00~13:00", "-"]}, {"name": "\ubcf4\uc2e0\uc57d\uad6d", "lat": "35.964575000000004", "lng": "126.701655555555561", "url": "/info/%EB%B3%B4%EC%8B%A0%EC%95%BD%EA%B5%AD-%EC%A0%84%EB%9D%BC%EB%B6%81%EB%8F%84-%EA%B5%B0%EC%82%B0%EC%8B%9C-%EB%82%98%EC%9A%B4%EB%8F%99/", "workingTime": ["-", "08:00~22:00", "08:00~22:00", "08:00~22:00", "08:00~22:00", "08:00~22:00", "08:00~22:00", "08:00~22:00"]}, {"name": "365\uc77c\ud589\ubcf5\ud55c\uc57d\uad6d", "lat": "35.961835960576586", "lng": "126.69974473596248", "url": "/info/365%EC%9D%BC%ED%96%89%EB%B3%B5%ED%95%9C%EC%95%BD%EA%B5%AD-%EC%A0%84%EB%9D%BC%EB%B6%81%EB%8F%84-%EA%B5%B0%EC%82%B0%EC%8B%9C-%EB%82%98%EC%9A%B4%EB%8F%99/", "workingTime": ["-", "09:00~19:00", "09:00~19:00", "09:00~19:00", "09:00~19:00", "09:00~19:00", "09:00~16:00", "-"]}, {"name": "\uc601\ubbfc\uc57d\uad6d", "lat": "35.965178912350716", "lng": "126.70268737093615", "url": "/info/%EC%98%81%EB%AF%BC%EC%95%BD%EA%B5%AD-%EC%A0%84%EB%9D%BC%EB%B6%81%EB%8F%84-%EA%B5%B0%EC%82%B0%EC%8B%9C-%EB%82%98%EC%9A%B4%EB%8F%99/", "workingTime": ["-", "08:30~18:30", "08:30~18:30", "08:30~18:30", "08:30~18:30", "08:30~18:30", "08:30~13:30", "-"]}, {"name": "\uac74\uac15\ud55c\uc57d\uad6d", "lat": "35.96556294873236", "lng": "126.7094176392827", "url": "/info/%EA%B1%B4%EA%B0%95%ED%95%9C%EC%95%BD%EA%B5%AD-%EC%A0%84%EB%9D%BC%EB%B6%81%EB%8F%84-%EA%B5%B0%EC%82%B0%EC%8B%9C-%EB%82%98%EC%9A%B4%EB%8F%99/", "workingTime": ["-", "09:30~20:30", "09:30~20:30", "09:30~20:30", "09:30~20:30", "09:30~20:30", "09:30~20:00", "-"]}, {"name": "\ud478\ub978\uc57d\uad6d", "lat": "35.963203101774255", "lng": "126.69119675821943", "url": "/info/%ED%91%B8%EB%A5%B8%EC%95%BD%EA%B5%AD-%EC%A0%84%EB%9D%BC%EB%B6%81%EB%8F%84-%EA%B5%B0%EC%82%B0%EC%8B%9C-%EB%82%98%EC%9A%B4%EB%8F%99/", "workingTime": ["-", "09:00~18:30", "09:00~18:30", "09:00~18:30", "09:00~18:30", "09:00~18:30", "09:00~13:00", "09:00~13:00"]}, {"name": "\ub2e4\uc815\ud55c\uc57d\uad6d", "lat": "35.958514559", "lng": "126.6995976656", "url": "/info/%EB%8B%A4%EC%A0%95%ED%95%9C%EC%95%BD%EA%B5%AD-%EC%A0%84%EB%9D%BC%EB%B6%81%EB%8F%84-%EA%B5%B0%EC%82%B0%EC%8B%9C-%EB%82%98%EC%9A%B4%EB%8F%99/", "workingTime": ["-", "08:30~21:00", "08:30~21:00", "08:30~21:00", "08:30~21:00", "08:30~21:00", "08:30~18:00", "08:30~18:00"]}, {"name": "\uae08\uac15\uc57d\uad6d", "lat": "35.968377777777775", "lng": "126.697900000000004", "url": "/info/%EA%B8%88%EA%B0%95%EC%95%BD%EA%B5%AD-%EC%A0%84%EB%9D%BC%EB%B6%81%EB%8F%84-%EA%B5%B0%EC%82%B0%EC%8B%9C-%EB%82%98%EC%9A%B4%EB%8F%99/", "workingTime": ["-", "08:30~21:00", "08:30~21:00", "08:30~21:00", "08:30~21:00", "08:30~21:00", "08:30~17:00", "-"]}, {"name": "\ud558\ub098\uc57d\uad6d", "lat": "35.96243649913751", "lng": "126.6995107728429", "url": "/info/%ED%95%98%EB%82%98%EC%95%BD%EA%B5%AD-%EC%A0%84%EB%9D%BC%EB%B6%81%EB%8F%84-%EA%B5%B0%EC%82%B0%EC%8B%9C-%EB%82%98%EC%9A%B4%EB%8F%99/", "workingTime": ["-", "08:30~19:00", "08:30~19:00", "08:30~19:00", "08:30~19:00", "08:30~19:00", "09:00~13:30", "-"]}, {"name": "\ub3c4\ub2f4\uc57d\uad6d", "lat": "35.961312078535", "lng": "126.700785411644", "url": "/info/%EB%8F%84%EB%8B%B4%EC%95%BD%EA%B5%AD-%EC%A0%84%EB%9D%BC%EB%B6%81%EB%8F%84-%EA%B5%B0%EC%82%B0%EC%8B%9C-%EB%82%98%EC%9A%B4%EB%8F%99/", "workingTime": ["-", "08:30~21:00", "08:30~21:00", "08:30~21:00", "08:30~21:00", "08:30~21:00", "08:30~18:00", "-"]}, {"name": "\uc740\ud30c\uc57d\uad6d", "lat": "35.95885611976932", "lng": "126.69888361476427", "url": "/info/%EC%9D%80%ED%8C%8C%EC%95%BD%EA%B5%AD-%EC%A0%84%EB%9D%BC%EB%B6%81%EB%8F%84-%EA%B5%B0%EC%82%B0%EC%8B%9C-%EB%82%98%EC%9A%B4%EB%8F%99/", "workingTime": ["-", "08:00~18:00", "08:00~18:00", "08:00~18:00", "08:00~18:00", "08:00~18:00", "-", "-"]}, {"name": "\uad6c\uc138\uc57d\uad6d", "lat": "35.96899784226528", "lng": "126.70546043924881", "url": "/info/%EA%B5%AC%EC%84%B8%EC%95%BD%EA%B5%AD-%EC%A0%84%EB%9D%BC%EB%B6%81%EB%8F%84-%EA%B5%B0%EC%82%B0%EC%8B%9C-%EB%82%98%EC%9A%B4%EB%8F%99/", "workingTime": ["-", "09:00~18:00", "09:00~18:00", "09:00~18:00", "09:00~18:00", "09:00~18:00", "-", "-"]}, {"name": "\ud0dc\uad11\uc57d\uad6d", "lat": "35.95783545656278", "lng": "126.68914930652066", "url": "/info/%ED%83%9C%EA%B4%91%EC%95%BD%EA%B5%AD-%EC%A0%84%EB%9D%BC%EB%B6%81%EB%8F%84-%EA%B5%B0%EC%82%B0%EC%8B%9C-%EB%82%98%EC%9A%B4%EB%8F%99/", "workingTime": ["1,2,3,4,5\uc9f8\uc8fc11:00~24:00", "11:00~24:00", "11:00~24:00", "11:00~24:00", "11:00~24:00", "11:00~24:00", "11:00~24:00", "11:00~24:00"]}, {"name": "\uc720\uc9c4\uc57d\uad6d", "lat": "35.9623867973937", "lng": "126.69980914771278", "url": "/info/%EC%9C%A0%EC%A7%84%EC%95%BD%EA%B5%AD-%EC%A0%84%EB%9D%BC%EB%B6%81%EB%8F%84-%EA%B5%B0%EC%82%B0%EC%8B%9C-%EB%82%98%EC%9A%B4%EB%8F%99/", "workingTime": ["-", "09:00~12:00", "09:00~12:00", "09:00~12:00", "09:00~12:00", "09:00~12:00", "-", "-"]}]