[{"name": "\ub099\uc6d0\uc885\ud569\uc57d\uad6d", "lat": "35.688981190166025", "lng": "126.88729691965011", "url": "/info/%EB%82%99%EC%9B%90%EC%A2%85%ED%95%A9%EC%95%BD%EA%B5%AD-%EC%A0%84%EB%9D%BC%EB%B6%81%EB%8F%84-%EC%A0%95%EC%9D%8D%EC%8B%9C-%EC%8B%A0%ED%83%9C%EC%9D%B8%EC%9D%8D/", "workingTime": ["-", "08:00~18:30", "08:00~18:30", "08:00~18:30", "08:00~18:30", "08:00~18:30", "08:00~13:00", "-"]}, {"name": "\uc2dc\ubbfc\uc57d\uad6d", "lat": "35.686348453954544", "lng": "126.88623129326717", "url": "/info/%EC%8B%9C%EB%AF%BC%EC%95%BD%EA%B5%AD-%EC%A0%84%EB%9D%BC%EB%B6%81%EB%8F%84-%EC%A0%95%EC%9D%8D%EC%8B%9C-%EC%8B%A0%ED%83%9C%EC%9D%B8%EC%9D%8D/", "workingTime": ["-", "09:00~19:00", "09:00~19:00", "09:00~19:00", "09:00~19:00", "09:00~19:00", "09:00~13:00", "-"]}, {"name": "\uc2e0\ud0dc\uc778\uc57d\uad6d", "lat": "35.68654640981221", "lng": "126.88580568241798", "url": "/info/%EC%8B%A0%ED%83%9C%EC%9D%B8%EC%95%BD%EA%B5%AD-%EC%A0%84%EB%9D%BC%EB%B6%81%EB%8F%84-%EC%A0%95%EC%9D%8D%EC%8B%9C-%EC%8B%A0%ED%83%9C%EC%9D%B8%EC%9D%8D/", "workingTime": ["-", "08:30~19:00", "08:30~19:00", "08:30~19:00", "08:30~19:00", "08:30~19:00", "08:30~17:00", "-"]}, {"name": "\uc81c\uc77c\uc885\ud569\uc57d\uad6d", "lat": "35.68823375658311", "lng": "126.88606065975007", "url": "/info/%EC%A0%9C%EC%9D%BC%EC%A2%85%ED%95%A9%EC%95%BD%EA%B5%AD-%EC%A0%84%EB%9D%BC%EB%B6%81%EB%8F%84-%EC%A0%95%EC%9D%8D%EC%8B%9C-%EC%8B%A0%ED%83%9C%EC%9D%B8%EC%9D%8D/", "workingTime": ["-", "09:00~17:30", "09:00~17:30", "09:00~17:30", "09:00~13:00", "09:00~17:30", "09:00~13:00", "-"]}, {"name": "\ub099\uc6d0\ud55c\uc57d\uad6d", "lat": "35.68918347680229", "lng": "126.88772086210986", "url": "/info/%EB%82%99%EC%9B%90%ED%95%9C%EC%95%BD%EA%B5%AD-%EC%A0%84%EB%9D%BC%EB%B6%81%EB%8F%84-%EC%A0%95%EC%9D%8D%EC%8B%9C-%EC%8B%A0%ED%83%9C%EC%9D%B8%EC%9D%8D/", "workingTime": ["-", "09:00~17:00", "09:00~17:00", "09:00~17:00", "09:00~17:00", "09:00~17:00", "09:00~13:00", "-"]}]