[{"name": "\uad11\uc8fc\uc57d\uad6d", "lat": "35.2087984313241", "lng": "127.46781522603581", "url": "/info/%EA%B4%91%EC%A3%BC%EC%95%BD%EA%B5%AD-%EC%A0%84%EB%9D%BC%EB%82%A8%EB%8F%84-%EA%B5%AC%EB%A1%80%EA%B5%B0-%EA%B5%AC%EB%A1%80%EC%9D%8D/", "workingTime": ["-", "07:30~18:30", "07:30~18:30", "07:30~18:30", "07:30~18:30", "07:30~18:30", "07:30~15:00", "-"]}, {"name": "\uc81c\uc77c\uc57d\uad6d", "lat": "35.208858860607286", "lng": "127.4661638615215", "url": "/info/%EC%A0%9C%EC%9D%BC%EC%95%BD%EA%B5%AD-%EC%A0%84%EB%9D%BC%EB%82%A8%EB%8F%84-%EA%B5%AC%EB%A1%80%EA%B5%B0-%EA%B5%AC%EB%A1%80%EC%9D%8D/", "workingTime": ["1\uc9f8\uc8fc07:00~14:00", "07:00~18:00", "07:00~18:00", "07:00~18:00", "07:00~18:00", "07:00~18:00", "07:00~15:00", "-"]}, {"name": "\ucc38\uc870\uc740\uc57d\uad6d", "lat": "35.20907994495011", "lng": "127.46586201398267", "url": "/info/%EC%B0%B8%EC%A1%B0%EC%9D%80%EC%95%BD%EA%B5%AD-%EC%A0%84%EB%9D%BC%EB%82%A8%EB%8F%84-%EA%B5%AC%EB%A1%80%EA%B5%B0-%EA%B5%AC%EB%A1%80%EC%9D%8D/", "workingTime": ["-", "07:30~19:30", "07:30~19:30", "07:30~19:30", "07:30~19:30", "07:30~19:30", "07:30~16:00", "-"]}, {"name": "\ubd80\ubd80\uc57d\uad6d", "lat": "35.21100121384962", "lng": "127.46502071958992", "url": "/info/%EB%B6%80%EB%B6%80%EC%95%BD%EA%B5%AD-%EC%A0%84%EB%9D%BC%EB%82%A8%EB%8F%84-%EA%B5%AC%EB%A1%80%EA%B5%B0-%EA%B5%AC%EB%A1%80%EC%9D%8D/", "workingTime": ["-", "09:00~12:00", "09:00~12:00", "09:00~12:00", "09:00~12:00", "09:00~12:00", "08:00~12:00", "-"]}, {"name": "\uc12c\uc9c0\uc57d\uad6d", "lat": "35.2088591887", "lng": "127.4666318157", "url": "/info/%EC%84%AC%EC%A7%80%EC%95%BD%EA%B5%AD-%EC%A0%84%EB%9D%BC%EB%82%A8%EB%8F%84-%EA%B5%AC%EB%A1%80%EA%B5%B0-%EA%B5%AC%EB%A1%80%EC%9D%8D/", "workingTime": ["-", "09:00~12:00", "09:00~12:00", "09:00~12:00", "09:00~12:00", "09:00~12:00", "09:00~13:00", "-"]}, {"name": "\ud604\ub300\uc57d\uad6d", "lat": "35.21209652613643", "lng": "127.4647086283187", "url": "/info/%ED%98%84%EB%8C%80%EC%95%BD%EA%B5%AD-%EC%A0%84%EB%9D%BC%EB%82%A8%EB%8F%84-%EA%B5%AC%EB%A1%80%EA%B5%B0-%EA%B5%AC%EB%A1%80%EC%9D%8D/", "workingTime": ["-", "09:00~12:00", "09:00~12:00", "09:00~12:00", "09:00~12:00", "09:00~12:00", "08:30~13:00", "-"]}, {"name": "\uad6c\ub840\uc57d\uad6d", "lat": "35.2156857986272", "lng": "127.463480290268", "url": "/info/%EA%B5%AC%EB%A1%80%EC%95%BD%EA%B5%AD-%EC%A0%84%EB%9D%BC%EB%82%A8%EB%8F%84-%EA%B5%AC%EB%A1%80%EA%B5%B0-%EA%B5%AC%EB%A1%80%EC%9D%8D/", "workingTime": ["-", "09:00~20:00", "09:00~20:00", "09:00~20:00", "09:00~20:00", "09:00~20:00", "-", "-"]}, {"name": "\uc7a5\uc57d\uad6d", "lat": "35.20908628377929", "lng": "127.46617023005396", "url": "/info/%EC%9E%A5%EC%95%BD%EA%B5%AD-%EC%A0%84%EB%9D%BC%EB%82%A8%EB%8F%84-%EA%B5%AC%EB%A1%80%EA%B5%B0-%EA%B5%AC%EB%A1%80%EC%9D%8D/", "workingTime": ["-", "07:30~19:30", "07:30~19:30", "07:30~19:30", "07:30~19:30", "07:30~19:30", "-", "-"]}, {"name": "\uc6b0\ub9ac\ub124\uc628\ub204\ub9ac\uc57d\uad6d", "lat": "35.21525620746697", "lng": "127.46116538421181", "url": "/info/%EC%9A%B0%EB%A6%AC%EB%84%A4%EC%98%A8%EB%88%84%EB%A6%AC%EC%95%BD%EA%B5%AD-%EC%A0%84%EB%9D%BC%EB%82%A8%EB%8F%84-%EA%B5%AC%EB%A1%80%EA%B5%B0-%EA%B5%AC%EB%A1%80%EC%9D%8D/", "workingTime": ["-", "09:00~18:00", "09:00~18:00", "09:00~18:00", "09:00~18:00", "09:00~18:00", "-", "-"]}, {"name": "\ubc31\uc81c\uc57d\uad6d", "lat": "35.209674999999997", "lng": "127.466166666666666", "url": "/info/%EB%B0%B1%EC%A0%9C%EC%95%BD%EA%B5%AD-%EC%A0%84%EB%9D%BC%EB%82%A8%EB%8F%84-%EA%B5%AC%EB%A1%80%EA%B5%B0-%EA%B5%AC%EB%A1%80%EC%9D%8D/", "workingTime": ["-", "08:00~18:00", "08:00~18:00", "08:00~18:00", "08:00~18:00", "08:00~18:00", "-", "-"]}, {"name": "\uc774\ud654\uc57d\uad6d", "lat": "35.20956286688733", "lng": "127.46833589745731", "url": "/info/%EC%9D%B4%ED%99%94%EC%95%BD%EA%B5%AD-%EC%A0%84%EB%9D%BC%EB%82%A8%EB%8F%84-%EA%B5%AC%EB%A1%80%EA%B5%B0-%EA%B5%AC%EB%A1%80%EC%9D%8D/", "workingTime": ["-", "09:00~18:00", "09:00~18:00", "09:00~18:00", "09:00~18:00", "09:00~18:00", "-", "-"]}]