[{"name": "\uc21c\ucc3d\uc885\ub85c\uc57d\uad6d", "lat": "35.3761589565025", "lng": "127.14278099059", "url": "/info/%EC%88%9C%EC%B0%BD%EC%A2%85%EB%A1%9C%EC%95%BD%EA%B5%AD-%EC%A0%84%EB%9D%BC%EB%B6%81%EB%8F%84-%EC%88%9C%EC%B0%BD%EA%B5%B0-%EC%88%9C%EC%B0%BD%EC%9D%8D/", "workingTime": ["-", "08:00~18:30", "08:00~18:30", "08:00~18:30", "08:00~18:30", "08:00~20:00", "08:00~14:00", "-"]}, {"name": "\uc21c\ucc3d\uc628\ub204\ub9ac\uc57d\uad6d", "lat": "35.37532513099689", "lng": "127.14339700095847", "url": "/info/%EC%88%9C%EC%B0%BD%EC%98%A8%EB%88%84%EB%A6%AC%EC%95%BD%EA%B5%AD-%EC%A0%84%EB%9D%BC%EB%B6%81%EB%8F%84-%EC%88%9C%EC%B0%BD%EA%B5%B0-%EC%88%9C%EC%B0%BD%EC%9D%8D/", "workingTime": ["1,2,3,4,5\uc9f8\uc8fc08:00~17:00", "08:00~22:00", "08:00~22:00", "08:00~22:00", "08:00~22:00", "08:00~22:00", "08:00~22:00", "08:00~22:00"]}, {"name": "\uc7a5\uc778\uc57d\uad6d", "lat": "35.376705152737934", "lng": "127.1411642023526", "url": "/info/%EC%9E%A5%EC%9D%B8%EC%95%BD%EA%B5%AD-%EC%A0%84%EB%9D%BC%EB%B6%81%EB%8F%84-%EC%88%9C%EC%B0%BD%EA%B5%B0-%EC%88%9C%EC%B0%BD%EC%9D%8D/", "workingTime": ["-", "07:30~19:00", "07:30~19:00", "07:30~19:00", "07:30~19:00", "07:30~19:00", "07:30~14:00", "-"]}, {"name": "\ubc31\uc81c\uc57d\uad6d", "lat": "35.37559589366741", "lng": "127.14308934462478", "url": "/info/%EB%B0%B1%EC%A0%9C%EC%95%BD%EA%B5%AD-%EC%A0%84%EB%9D%BC%EB%B6%81%EB%8F%84-%EC%88%9C%EC%B0%BD%EA%B5%B0-%EC%88%9C%EC%B0%BD%EC%9D%8D/", "workingTime": ["1,2,3,4,5\uc9f8\uc8fc08:00~21:00", "08:00~21:00", "08:00~21:00", "08:00~21:00", "08:00~21:00", "08:00~21:00", "08:00~21:00", "08:00~21:00"]}, {"name": "\uc6b0\ub9ac\uc57d\uad6d", "lat": "35.37601429063208", "lng": "127.14293601476122", "url": "/info/%EC%9A%B0%EB%A6%AC%EC%95%BD%EA%B5%AD-%EC%A0%84%EB%9D%BC%EB%B6%81%EB%8F%84-%EC%88%9C%EC%B0%BD%EA%B5%B0-%EC%88%9C%EC%B0%BD%EC%9D%8D/", "workingTime": ["-", "08:30~18:00", "08:30~18:00", "08:30~18:00", "08:30~18:00", "08:30~18:00", "08:30~13:00", "-"]}, {"name": "\uc0ac\ub791\uc57d\uad6d", "lat": "35.37478914438027", "lng": "127.14559797793986", "url": "/info/%EC%82%AC%EB%9E%91%EC%95%BD%EA%B5%AD-%EC%A0%84%EB%9D%BC%EB%B6%81%EB%8F%84-%EC%88%9C%EC%B0%BD%EA%B5%B0-%EC%88%9C%EC%B0%BD%EC%9D%8D/", "workingTime": ["-", "08:30~17:30", "08:30~17:30", "08:30~14:00", "08:30~17:30", "08:30~17:30", "08:30~13:00", "-"]}, {"name": "\uc21c\ucc3d\uc194\uc57d\uad6d", "lat": "35.37699448840591", "lng": "127.140372344133", "url": "/info/%EC%88%9C%EC%B0%BD%EC%86%94%EC%95%BD%EA%B5%AD-%EC%A0%84%EB%9D%BC%EB%B6%81%EB%8F%84-%EC%88%9C%EC%B0%BD%EA%B5%B0-%EC%88%9C%EC%B0%BD%EC%9D%8D/", "workingTime": ["-", "08:30~18:00", "08:30~18:00", "08:30~18:00", "08:30~18:00", "08:30~18:00", "08:30~13:00", "-"]}, {"name": "\uc81c\uc77c\uc57d\uad6d", "lat": "35.37566743993296", "lng": "127.14354508696138", "url": "/info/%EC%A0%9C%EC%9D%BC%EC%95%BD%EA%B5%AD-%EC%A0%84%EB%9D%BC%EB%B6%81%EB%8F%84-%EC%88%9C%EC%B0%BD%EA%B5%B0-%EC%88%9C%EC%B0%BD%EC%9D%8D/", "workingTime": ["1,2,3,4,5\uc9f8\uc8fc22:00~25:00", "22:00~25:00", "22:00~25:00", "22:00~25:00", "22:00~25:00", "22:00~25:00", "22:00~25:00", "22:00~25:00"]}, {"name": "\ud0dc\ubbfc\uc57d\uad6d", "lat": "35.3760076207", "lng": "127.1424781996", "url": "/info/%ED%83%9C%EB%AF%BC%EC%95%BD%EA%B5%AD-%EC%A0%84%EB%9D%BC%EB%B6%81%EB%8F%84-%EC%88%9C%EC%B0%BD%EA%B5%B0-%EC%88%9C%EC%B0%BD%EC%9D%8D/", "workingTime": ["-", "08:00~18:00", "08:00~18:00", "08:00~18:00", "08:00~18:00", "08:00~18:00", "-", "-"]}, {"name": "\uadf8\ub9b0\uc57d\uad6d", "lat": "35.377630555555555", "lng": "127.141247222222219", "url": "/info/%EA%B7%B8%EB%A6%B0%EC%95%BD%EA%B5%AD-%EC%A0%84%EB%9D%BC%EB%B6%81%EB%8F%84-%EC%88%9C%EC%B0%BD%EA%B5%B0-%EC%88%9C%EC%B0%BD%EC%9D%8D/", "workingTime": ["-", "08:30~17:30", "08:30~17:30", "08:30~17:30", "08:30~17:30", "08:30~17:30", "-", "-"]}]