[{"name": "\ub354\uc870\uc740\uc57d\uad6d", "lat": "35.725199337819475", "lng": "126.73693393466769", "url": "/info/%EB%8D%94%EC%A1%B0%EC%9D%80%EC%95%BD%EA%B5%AD-%EC%A0%84%EB%9D%BC%EB%B6%81%EB%8F%84-%EB%B6%80%EC%95%88%EA%B5%B0-%EB%B6%80%EC%95%88%EC%9D%8D/", "workingTime": ["-", "08:00~19:00", "08:00~19:00", "08:00~19:00", "08:00~19:00", "08:00~19:00", "08:00~15:00", "-"]}, {"name": "\uc218\uc57d\uad6d", "lat": "35.7267130254635", "lng": "126.736060957887", "url": "/info/%EC%88%98%EC%95%BD%EA%B5%AD-%EC%A0%84%EB%9D%BC%EB%B6%81%EB%8F%84-%EB%B6%80%EC%95%88%EA%B5%B0-%EB%B6%80%EC%95%88%EC%9D%8D/", "workingTime": ["-", "08:00~18:00", "08:00~18:00", "08:00~18:00", "08:00~18:00", "08:00~18:00", "08:00~13:00", "-"]}, {"name": "\ubc15\uc57d\uad6d", "lat": "35.7303926724967", "lng": "126.736401642896", "url": "/info/%EB%B0%95%EC%95%BD%EA%B5%AD-%EC%A0%84%EB%9D%BC%EB%B6%81%EB%8F%84-%EB%B6%80%EC%95%88%EA%B5%B0-%EB%B6%80%EC%95%88%EC%9D%8D/", "workingTime": ["-", "08:00~20:00", "08:00~20:00", "08:00~20:00", "08:00~20:00", "08:00~20:00", "08:00~15:00", "-"]}, {"name": "\ucc9c\uc0ac\uc57d\uad6d", "lat": "35.72640576517672", "lng": "126.73803964088441", "url": "/info/%EC%B2%9C%EC%82%AC%EC%95%BD%EA%B5%AD-%EC%A0%84%EB%9D%BC%EB%B6%81%EB%8F%84-%EB%B6%80%EC%95%88%EA%B5%B0-%EB%B6%80%EC%95%88%EC%9D%8D/", "workingTime": ["-", "08:00~18:30", "08:00~18:30", "08:00~18:30", "08:00~18:30", "08:00~18:30", "08:00~13:00", "-"]}, {"name": "\uae08\uc131\uc57d\uad6d", "lat": "35.7272070965", "lng": "126.7353605598", "url": "/info/%EA%B8%88%EC%84%B1%EC%95%BD%EA%B5%AD-%EC%A0%84%EB%9D%BC%EB%B6%81%EB%8F%84-%EB%B6%80%EC%95%88%EA%B5%B0-%EB%B6%80%EC%95%88%EC%9D%8D/", "workingTime": ["-", "08:00~18:30", "08:00~18:30", "08:00~18:30", "08:00~18:30", "08:00~18:30", "08:00~15:00", "-"]}, {"name": "\uc11c\uad11\uc57d\uad6d", "lat": "35.72635567073917", "lng": "126.73169993621539", "url": "/info/%EC%84%9C%EA%B4%91%EC%95%BD%EA%B5%AD-%EC%A0%84%EB%9D%BC%EB%B6%81%EB%8F%84-%EB%B6%80%EC%95%88%EA%B5%B0-%EB%B6%80%EC%95%88%EC%9D%8D/", "workingTime": ["-", "08:00~18:00", "08:00~18:00", "08:00~18:00", "08:00~18:00", "08:00~18:00", "08:30~12:30", "-"]}, {"name": "\ubd80\uc548\uc57d\uad6d", "lat": "35.7270077230129", "lng": "126.736093697176", "url": "/info/%EB%B6%80%EC%95%88%EC%95%BD%EA%B5%AD-%EC%A0%84%EB%9D%BC%EB%B6%81%EB%8F%84-%EB%B6%80%EC%95%88%EA%B5%B0-%EB%B6%80%EC%95%88%EC%9D%8D/", "workingTime": ["-", "08:30~19:00", "08:30~19:00", "08:30~19:00", "08:30~19:00", "08:30~19:00", "08:30~14:00", "-"]}, {"name": "\ud130\ubbf8\ub110\uc57d\uad6d", "lat": "35.72700682493301", "lng": "126.73609513701825", "url": "/info/%ED%84%B0%EB%AF%B8%EB%84%90%EC%95%BD%EA%B5%AD-%EC%A0%84%EB%9D%BC%EB%B6%81%EB%8F%84-%EB%B6%80%EC%95%88%EA%B5%B0-%EB%B6%80%EC%95%88%EC%9D%8D/", "workingTime": ["-", "07:30~18:30", "07:30~18:30", "07:30~18:30", "07:30~18:30", "07:30~18:30", "07:30~13:00", "-"]}, {"name": "\ud478\ub978\uc57d\uad6d", "lat": "35.7248038432", "lng": "126.7376188237", "url": "/info/%ED%91%B8%EB%A5%B8%EC%95%BD%EA%B5%AD-%EC%A0%84%EB%9D%BC%EB%B6%81%EB%8F%84-%EB%B6%80%EC%95%88%EA%B5%B0-%EB%B6%80%EC%95%88%EC%9D%8D/", "workingTime": ["1,2,3,4,5\uc9f8\uc8fc10:00~18:00", "08:00~20:00", "08:00~20:00", "08:00~20:00", "08:00~20:00", "08:00~20:00", "08:30~18:00", "10:00~18:00"]}, {"name": "\ud55c\uc0ac\ub791\uc57d\uad6d", "lat": "35.725156370677844", "lng": "126.73440080216596", "url": "/info/%ED%95%9C%EC%82%AC%EB%9E%91%EC%95%BD%EA%B5%AD-%EC%A0%84%EB%9D%BC%EB%B6%81%EB%8F%84-%EB%B6%80%EC%95%88%EA%B5%B0-%EB%B6%80%EC%95%88%EC%9D%8D/", "workingTime": ["1,2,3,4,5\uc9f8\uc8fc09:00~22:00", "08:30~22:00", "08:30~22:00", "08:30~22:00", "08:30~22:00", "08:30~22:00", "08:30~22:00", "09:00~22:00"]}, {"name": "\ud504\ub77c\uc790\uc57d\uad6d", "lat": "35.72635218737906", "lng": "126.73760934155302", "url": "/info/%ED%94%84%EB%9D%BC%EC%9E%90%EC%95%BD%EA%B5%AD-%EC%A0%84%EB%9D%BC%EB%B6%81%EB%8F%84-%EB%B6%80%EC%95%88%EA%B5%B0-%EB%B6%80%EC%95%88%EC%9D%8D/", "workingTime": ["-", "08:00~18:30", "08:00~18:30", "08:00~18:30", "08:00~18:30", "08:00~18:30", "08:00~13:00", "-"]}, {"name": "\uc11c\uc6b8\uc57d\uad6d", "lat": "35.727447222222224", "lng": "126.736272222222226", "url": "/info/%EC%84%9C%EC%9A%B8%EC%95%BD%EA%B5%AD-%EC%A0%84%EB%9D%BC%EB%B6%81%EB%8F%84-%EB%B6%80%EC%95%88%EA%B5%B0-%EB%B6%80%EC%95%88%EC%9D%8D/", "workingTime": ["-", "08:00~18:00", "08:00~18:00", "08:00~18:00", "08:00~18:00", "08:00~18:00", "08:00~13:00", "-"]}, {"name": "\uc6b0\ub9ac\uc628\ub204\ub9ac\uc57d\uad6d", "lat": "35.72639104495417", "lng": "126.73790263490807", "url": "/info/%EC%9A%B0%EB%A6%AC%EC%98%A8%EB%88%84%EB%A6%AC%EC%95%BD%EA%B5%AD-%EC%A0%84%EB%9D%BC%EB%B6%81%EB%8F%84-%EB%B6%80%EC%95%88%EA%B5%B0-%EB%B6%80%EC%95%88%EC%9D%8D/", "workingTime": ["-", "08:00~18:00", "08:00~18:00", "08:00~18:00", "08:00~18:00", "08:00~18:00", "08:00~14:00", "-"]}, {"name": "\uace0\ub824\uc57d\uad6d", "lat": "35.72603120856551", "lng": "126.73508372433778", "url": "/info/%EA%B3%A0%EB%A0%A4%EC%95%BD%EA%B5%AD-%EC%A0%84%EB%9D%BC%EB%B6%81%EB%8F%84-%EB%B6%80%EC%95%88%EA%B5%B0-%EB%B6%80%EC%95%88%EC%9D%8D/", "workingTime": ["-", "09:00~17:30", "09:00~17:30", "09:00~17:30", "09:00~17:30", "09:00~17:30", "09:00~12:00", "-"]}, {"name": "\ucc38\uc0ac\ub791\uc57d\uad6d", "lat": "35.72578892778109", "lng": "126.73762555728361", "url": "/info/%EC%B0%B8%EC%82%AC%EB%9E%91%EC%95%BD%EA%B5%AD-%EC%A0%84%EB%9D%BC%EB%B6%81%EB%8F%84-%EB%B6%80%EC%95%88%EA%B5%B0-%EB%B6%80%EC%95%88%EC%9D%8D/", "workingTime": ["-", "08:00~19:00", "08:00~19:00", "08:00~19:00", "08:00~19:00", "08:00~19:00", "08:00~13:00", "-"]}, {"name": "\ubd80\uc548\uc885\ub85c\uc57d\uad6d", "lat": "35.728014967321904", "lng": "126.73700862469539", "url": "/info/%EB%B6%80%EC%95%88%EC%A2%85%EB%A1%9C%EC%95%BD%EA%B5%AD-%EC%A0%84%EB%9D%BC%EB%B6%81%EB%8F%84-%EB%B6%80%EC%95%88%EA%B5%B0-%EB%B6%80%EC%95%88%EC%9D%8D/", "workingTime": ["-", "08:00~18:30", "08:00~18:30", "08:00~18:30", "08:00~18:30", "08:00~18:30", "08:30~15:00", "-"]}, {"name": "\ud55c\uc77c\uc57d\uad6d", "lat": "35.727313888888887", "lng": "126.733869444444451", "url": "/info/%ED%95%9C%EC%9D%BC%EC%95%BD%EA%B5%AD-%EC%A0%84%EB%9D%BC%EB%B6%81%EB%8F%84-%EB%B6%80%EC%95%88%EA%B5%B0-%EB%B6%80%EC%95%88%EC%9D%8D/", "workingTime": ["-", "09:00~18:00", "09:00~18:00", "09:00~18:00", "09:00~18:00", "09:00~18:00", "09:00~13:00", "09:00~13:00"]}, {"name": "\ud558\ub098\uc57d\uad6d", "lat": "35.731995844189626", "lng": "126.74638730552641", "url": "/info/%ED%95%98%EB%82%98%EC%95%BD%EA%B5%AD-%EC%A0%84%EB%9D%BC%EB%B6%81%EB%8F%84-%EB%B6%80%EC%95%88%EA%B5%B0-%EB%B6%80%EC%95%88%EC%9D%8D/", "workingTime": ["-", "08:30~17:30", "08:30~17:30", "08:30~17:30", "08:30~17:30", "08:30~17:30", "08:30~13:30", "-"]}, {"name": "\ubd80\uc548\uc2e0\uc138\uacc4\uc57d\uad6d", "lat": "35.72565015991464", "lng": "126.73706065077604", "url": "/info/%EB%B6%80%EC%95%88%EC%8B%A0%EC%84%B8%EA%B3%84%EC%95%BD%EA%B5%AD-%EC%A0%84%EB%9D%BC%EB%B6%81%EB%8F%84-%EB%B6%80%EC%95%88%EA%B5%B0-%EB%B6%80%EC%95%88%EC%9D%8D/", "workingTime": ["-", "09:00~18:00", "09:00~18:00", "09:00~18:00", "09:00~18:00", "09:00~18:00", "09:00~13:00", "-"]}, {"name": "\uc0c8\ucc9c\ub144\uac74\uac15\uc57d\uad6d", "lat": "35.72542943848671", "lng": "126.73767978912704", "url": "/info/%EC%83%88%EC%B2%9C%EB%85%84%EA%B1%B4%EA%B0%95%EC%95%BD%EA%B5%AD-%EC%A0%84%EB%9D%BC%EB%B6%81%EB%8F%84-%EB%B6%80%EC%95%88%EA%B5%B0-%EB%B6%80%EC%95%88%EC%9D%8D/", "workingTime": ["-", "08:00~19:00", "08:00~19:00", "08:00~19:00", "08:00~19:00", "08:00~19:00", "08:00~15:00", "-"]}, {"name": "\uc120\uc778\uc57d\uad6d", "lat": "35.72668519506744", "lng": "126.73739713928344", "url": "/info/%EC%84%A0%EC%9D%B8%EC%95%BD%EA%B5%AD-%EC%A0%84%EB%9D%BC%EB%B6%81%EB%8F%84-%EB%B6%80%EC%95%88%EA%B5%B0-%EB%B6%80%EC%95%88%EC%9D%8D/", "workingTime": ["-", "08:00~18:00", "08:00~18:00", "08:00~18:00", "08:00~18:00", "08:00~18:00", "08:00~17:00", "-"]}, {"name": "\uc885\ud569\uc721\uc57d\uad6d", "lat": "35.726429714579275", "lng": "126.73098455964492", "url": "/info/%EC%A2%85%ED%95%A9%EC%9C%A1%EC%95%BD%EA%B5%AD-%EC%A0%84%EB%9D%BC%EB%B6%81%EB%8F%84-%EB%B6%80%EC%95%88%EA%B5%B0-%EB%B6%80%EC%95%88%EC%9D%8D/", "workingTime": ["-", "08:00~18:30", "08:00~18:30", "08:00~18:30", "08:00~18:30", "08:00~18:30", "08:00~13:00", "-"]}, {"name": "\uac74\uac15\uc0ac\ub791\ubc31\uc81c\uc57d\uad6d", "lat": "35.727519444444447", "lng": "126.736897222222225", "url": "/info/%EA%B1%B4%EA%B0%95%EC%82%AC%EB%9E%91%EB%B0%B1%EC%A0%9C%EC%95%BD%EA%B5%AD-%EC%A0%84%EB%9D%BC%EB%B6%81%EB%8F%84-%EB%B6%80%EC%95%88%EA%B5%B0-%EB%B6%80%EC%95%88%EC%9D%8D/", "workingTime": ["-", "07:30~18:00", "07:30~18:00", "07:30~18:00", "07:30~18:00", "07:30~18:00", "07:30~13:00", "-"]}]