[{"name": "\uc0bc\ud638\uc57d\uad6d", "lat": "34.74525766728861", "lng": "126.46873632500112", "url": "/info/%EC%82%BC%ED%98%B8%EC%95%BD%EA%B5%AD-%EC%A0%84%EB%9D%BC%EB%82%A8%EB%8F%84-%EC%98%81%EC%95%94%EA%B5%B0-%EC%82%BC%ED%98%B8%EC%9D%8D/", "workingTime": ["-", "08:30~18:30", "08:30~18:30", "08:30~18:30", "08:30~18:30", "08:30~18:30", "08:30~12:30", "-"]}, {"name": "\uc131\uace8\ub86c\ubc18\uc57d\uad6d", "lat": "34.74476481145819", "lng": "126.38073267681614", "url": "/info/%EC%84%B1%EA%B3%A8%EB%A1%AC%EB%B0%98%EC%95%BD%EA%B5%AD-%EC%A0%84%EB%9D%BC%EB%82%A8%EB%8F%84-%EC%98%81%EC%95%94%EA%B5%B0-%EC%82%BC%ED%98%B8%EC%9D%8D/", "workingTime": ["-", "08:00~20:30", "08:00~20:30", "08:00~20:30", "08:00~20:30", "08:00~20:30", "08:00~18:30", "-"]}, {"name": "\ub300\ubd88\uc57d\uad6d", "lat": "34.745540882876035", "lng": "126.46918879546818", "url": "/info/%EB%8C%80%EB%B6%88%EC%95%BD%EA%B5%AD-%EC%A0%84%EB%9D%BC%EB%82%A8%EB%8F%84-%EC%98%81%EC%95%94%EA%B5%B0-%EC%82%BC%ED%98%B8%EC%9D%8D/", "workingTime": ["-", "08:30~18:30", "08:30~18:30", "08:30~18:30", "08:30~18:30", "08:30~18:30", "08:30~12:30", "-"]}, {"name": "\ubcf4\ub78c\uc57d\uad6d", "lat": "34.74943680663678", "lng": "126.4622355840649", "url": "/info/%EB%B3%B4%EB%9E%8C%EC%95%BD%EA%B5%AD-%EC%A0%84%EB%9D%BC%EB%82%A8%EB%8F%84-%EC%98%81%EC%95%94%EA%B5%B0-%EC%82%BC%ED%98%B8%EC%9D%8D/", "workingTime": ["-", "09:00~19:00", "09:00~19:00", "09:00~19:00", "09:00~19:00", "09:00~19:00", "09:00~18:00", "-"]}, {"name": "\ud55c\uc194\uc628\ub204\ub9ac\uc57d\uad6d", "lat": "34.74495183536439", "lng": "126.37957809536121", "url": "/info/%ED%95%9C%EC%86%94%EC%98%A8%EB%88%84%EB%A6%AC%EC%95%BD%EA%B5%AD-%EC%A0%84%EB%9D%BC%EB%82%A8%EB%8F%84-%EC%98%81%EC%95%94%EA%B5%B0-%EC%82%BC%ED%98%B8%EC%9D%8D/", "workingTime": ["-", "09:00~13:00", "09:00~13:00", "09:00~13:00", "09:00~13:00", "09:00~13:00", "08:30~13:00", "-"]}]