[{"name": "\uad6d\ubbfc\uc57d\uad6d", "lat": "35.962489125742295", "lng": "126.98520740177602", "url": "/info/%EA%B5%AD%EB%AF%BC%EC%95%BD%EA%B5%AD-%EC%A0%84%EB%9D%BC%EB%B6%81%EB%8F%84-%EC%9D%B5%EC%82%B0%EC%8B%9C-%EB%B6%80%EC%86%A1%EB%8F%99/", "workingTime": ["-", "09:00~19:00", "09:00~19:00", "12:00~19:00", "09:00~19:00", "09:00~19:00", "09:00~13:00", "-"]}, {"name": "\ube5b\uacfc\uc18c\uae08\uc57d\uad6d", "lat": "35.9619577082941", "lng": "126.990697282219", "url": "/info/%EB%B9%9B%EA%B3%BC%EC%86%8C%EA%B8%88%EC%95%BD%EA%B5%AD-%EC%A0%84%EB%9D%BC%EB%B6%81%EB%8F%84-%EC%9D%B5%EC%82%B0%EC%8B%9C-%EB%B6%80%EC%86%A1%EB%8F%99/", "workingTime": ["-", "09:30~20:30", "09:30~20:30", "09:30~20:30", "09:30~20:30", "09:30~20:30", "09:30~19:30", "-"]}, {"name": "\uadf8\ub79c\ub4dc\uc57d\uad6d", "lat": "35.959119574391906", "lng": "126.99843045628259", "url": "/info/%EA%B7%B8%EB%9E%9C%EB%93%9C%EC%95%BD%EA%B5%AD-%EC%A0%84%EB%9D%BC%EB%B6%81%EB%8F%84-%EC%9D%B5%EC%82%B0%EC%8B%9C-%EB%B6%80%EC%86%A1%EB%8F%99/", "workingTime": ["-", "09:00~20:00", "09:00~20:00", "09:00~20:00", "09:00~20:00", "09:00~20:00", "09:00~15:00", "-"]}, {"name": "\ubc1d\uc740\uc57d\uad6d", "lat": "35.957536543172765", "lng": "126.99048040757418", "url": "/info/%EB%B0%9D%EC%9D%80%EC%95%BD%EA%B5%AD-%EC%A0%84%EB%9D%BC%EB%B6%81%EB%8F%84-%EC%9D%B5%EC%82%B0%EC%8B%9C-%EB%B6%80%EC%86%A1%EB%8F%99/", "workingTime": ["-", "09:00~18:00", "09:00~18:00", "09:00~18:00", "09:00~18:00", "09:00~18:00", "09:00~12:00", "-"]}, {"name": "\ud68c\uc0dd\ub2f9\uc57d\uad6d", "lat": "35.96040652954493", "lng": "126.99817322747815", "url": "/info/%ED%9A%8C%EC%83%9D%EB%8B%B9%EC%95%BD%EA%B5%AD-%EC%A0%84%EB%9D%BC%EB%B6%81%EB%8F%84-%EC%9D%B5%EC%82%B0%EC%8B%9C-%EB%B6%80%EC%86%A1%EB%8F%99/", "workingTime": ["-", "09:00~21:00", "09:00~21:00", "09:00~21:00", "09:00~21:00", "09:00~21:00", "09:00~14:30", "-"]}, {"name": "\uc288\ubc14\uc774\ucc98\uc57d\uad6d", "lat": "35.958060991574655", "lng": "126.99036485444176", "url": "/info/%EC%8A%88%EB%B0%94%EC%9D%B4%EC%B2%98%EC%95%BD%EA%B5%AD-%EC%A0%84%EB%9D%BC%EB%B6%81%EB%8F%84-%EC%9D%B5%EC%82%B0%EC%8B%9C-%EB%B6%80%EC%86%A1%EB%8F%99/", "workingTime": ["-", "09:00~19:00", "09:00~19:00", "09:00~17:00", "09:00~19:00", "09:00~19:00", "09:00~13:00", "-"]}, {"name": "\ubd80\uc1a1\uc885\ub85c\uc57d\uad6d", "lat": "35.95944255036307", "lng": "126.99009754862652", "url": "/info/%EB%B6%80%EC%86%A1%EC%A2%85%EB%A1%9C%EC%95%BD%EA%B5%AD-%EC%A0%84%EB%9D%BC%EB%B6%81%EB%8F%84-%EC%9D%B5%EC%82%B0%EC%8B%9C-%EB%B6%80%EC%86%A1%EB%8F%99/", "workingTime": ["-", "09:00~18:30", "09:00~18:30", "09:00~18:30", "09:00~18:30", "09:00~18:30", "09:00~12:30", "-"]}, {"name": "\ubcf4\ub78c\uc57d\uad6d", "lat": "35.95754156971282", "lng": "126.98728108728645", "url": "/info/%EB%B3%B4%EB%9E%8C%EC%95%BD%EA%B5%AD-%EC%A0%84%EB%9D%BC%EB%B6%81%EB%8F%84-%EC%9D%B5%EC%82%B0%EC%8B%9C-%EB%B6%80%EC%86%A1%EB%8F%99/", "workingTime": ["-", "08:30~18:30", "08:30~18:30", "08:30~18:30", "08:30~18:30", "08:30~18:30", "08:30~13:00", "-"]}, {"name": "\uac74\uac15\uc774\uc5f4\ub9ac\ub294\uc57d\uad6d", "lat": "35.957702777777776", "lng": "126.990813888888894", "url": "/info/%EA%B1%B4%EA%B0%95%EC%9D%B4%EC%97%B4%EB%A6%AC%EB%8A%94%EC%95%BD%EA%B5%AD-%EC%A0%84%EB%9D%BC%EB%B6%81%EB%8F%84-%EC%9D%B5%EC%82%B0%EC%8B%9C-%EB%B6%80%EC%86%A1%EB%8F%99/", "workingTime": ["-", "09:00~20:30", "09:00~20:30", "09:00~20:30", "09:00~20:30", "09:00~20:30", "09:00~14:00", "-"]}, {"name": "\ubd80\uc1a1\uc6b0\ub9ac\uc57d\uad6d", "lat": "35.95996836258407", "lng": "126.99785611221122", "url": "/info/%EB%B6%80%EC%86%A1%EC%9A%B0%EB%A6%AC%EC%95%BD%EA%B5%AD-%EC%A0%84%EB%9D%BC%EB%B6%81%EB%8F%84-%EC%9D%B5%EC%82%B0%EC%8B%9C-%EB%B6%80%EC%86%A1%EB%8F%99/", "workingTime": ["-", "09:00~20:00", "09:00~20:00", "09:00~20:00", "09:00~20:00", "09:00~20:00", "09:00~15:00", "-"]}, {"name": "\uc88b\uc740\uc57d\uad6d", "lat": "35.9580177823", "lng": "126.9910122276", "url": "/info/%EC%A2%8B%EC%9D%80%EC%95%BD%EA%B5%AD-%EC%A0%84%EB%9D%BC%EB%B6%81%EB%8F%84-%EC%9D%B5%EC%82%B0%EC%8B%9C-%EB%B6%80%EC%86%A1%EB%8F%99/", "workingTime": ["-", "09:00~19:00", "09:00~19:00", "09:00~19:00", "09:00~19:00", "09:00~19:00", "09:00~14:00", "-"]}]