[{"name": "\uc5ec\uba85\uc57d\uad6d", "lat": "34.77184980499375", "lng": "127.65128260074087", "url": "/info/%EC%97%AC%EB%AA%85%EC%95%BD%EA%B5%AD-%EC%A0%84%EB%9D%BC%EB%82%A8%EB%8F%84-%EC%97%AC%EC%88%98%EC%8B%9C-%EC%84%A0%EC%9B%90%EB%8F%99/", "workingTime": ["-", "09:00~19:00", "09:00~19:00", "09:00~19:00", "09:00~19:00", "09:00~19:00", "09:00~15:00", "-"]}, {"name": "\uac74\uac15\uc57d\uad6d", "lat": "34.77268958736888", "lng": "127.6501651102632", "url": "/info/%EA%B1%B4%EA%B0%95%EC%95%BD%EA%B5%AD-%EC%A0%84%EB%9D%BC%EB%82%A8%EB%8F%84-%EC%97%AC%EC%88%98%EC%8B%9C-%EC%84%A0%EC%9B%90%EB%8F%99/", "workingTime": ["-", "08:30~20:00", "08:30~20:00", "08:30~20:00", "08:30~20:00", "08:30~20:00", "08:30~18:00", "-"]}, {"name": "\uc2e0\ub3d9\uc544\uc57d\uad6d", "lat": "34.76551111111111", "lng": "127.65581388888888", "url": "/info/%EC%8B%A0%EB%8F%99%EC%95%84%EC%95%BD%EA%B5%AD-%EC%A0%84%EB%9D%BC%EB%82%A8%EB%8F%84-%EC%97%AC%EC%88%98%EC%8B%9C-%EC%84%A0%EC%9B%90%EB%8F%99/", "workingTime": ["-", "09:00~18:30", "09:00~18:30", "09:00~18:30", "09:00~18:30", "09:00~18:30", "09:00~13:00", "-"]}, {"name": "\uc5ec\ucc9c\uc57d\uad6d", "lat": "34.7703528133194", "lng": "127.65460145769465", "url": "/info/%EC%97%AC%EC%B2%9C%EC%95%BD%EA%B5%AD-%EC%A0%84%EB%9D%BC%EB%82%A8%EB%8F%84-%EC%97%AC%EC%88%98%EC%8B%9C-%EC%84%A0%EC%9B%90%EB%8F%99/", "workingTime": ["-", "08:30~19:00", "08:30~19:00", "08:30~19:00", "08:30~19:00", "08:30~19:00", "08:30~15:00", "-"]}, {"name": "\uc804\ub0a8\uc6b0\ub9ac\uc57d\uad6d", "lat": "34.77036190892559", "lng": "127.6545894994625", "url": "/info/%EC%A0%84%EB%82%A8%EC%9A%B0%EB%A6%AC%EC%95%BD%EA%B5%AD-%EC%A0%84%EB%9D%BC%EB%82%A8%EB%8F%84-%EC%97%AC%EC%88%98%EC%8B%9C-%EC%84%A0%EC%9B%90%EB%8F%99/", "workingTime": ["-", "08:30~20:00", "08:30~20:00", "08:30~20:00", "08:30~20:00", "08:30~20:00", "08:30~20:00", "-"]}, {"name": "\uc5f0\uc138\uc57d\uad6d", "lat": "34.76121845904518", "lng": "127.6523200294994", "url": "/info/%EC%97%B0%EC%84%B8%EC%95%BD%EA%B5%AD-%EC%A0%84%EB%9D%BC%EB%82%A8%EB%8F%84-%EC%97%AC%EC%88%98%EC%8B%9C-%EC%84%A0%EC%9B%90%EB%8F%99/", "workingTime": ["-", "08:30~13:00", "08:30~13:00", "08:30~13:00", "08:30~13:00", "08:30~13:00", "09:00~13:00", "-"]}, {"name": "\ubbf8\ub798\uc57d\uad6d", "lat": "34.77250178857787", "lng": "127.65072895041413", "url": "/info/%EB%AF%B8%EB%9E%98%EC%95%BD%EA%B5%AD-%EC%A0%84%EB%9D%BC%EB%82%A8%EB%8F%84-%EC%97%AC%EC%88%98%EC%8B%9C-%EC%84%A0%EC%9B%90%EB%8F%99/", "workingTime": ["-", "08:00~13:00", "08:00~13:00", "08:00~13:00", "08:00~13:00", "08:00~13:00", "-", "-"]}]