[{"name": "\ud68c\uc0dd\uc57d\uad6d", "lat": "35.859988888888886", "lng": "127.120972222222221", "url": "/info/%ED%9A%8C%EC%83%9D%EC%95%BD%EA%B5%AD-%EC%A0%84%EB%9D%BC%EB%B6%81%EB%8F%84-%EC%A0%84%EC%A3%BC%EC%8B%9C-%EC%86%A1%EC%B2%9C%EB%8F%991%EA%B0%80/", "workingTime": ["-", "08:30~21:00", "08:30~21:00", "08:30~21:00", "08:30~21:00", "08:30~21:00", "08:30~18:00", "08:30~21:00"]}, {"name": "\uc1a1\ucc9c\uc774\ud654\uc57d\uad6d", "lat": "35.8584817409252", "lng": "127.120619733375", "url": "/info/%EC%86%A1%EC%B2%9C%EC%9D%B4%ED%99%94%EC%95%BD%EA%B5%AD-%EC%A0%84%EB%9D%BC%EB%B6%81%EB%8F%84-%EC%A0%84%EC%A3%BC%EC%8B%9C-%EC%86%A1%EC%B2%9C%EB%8F%991%EA%B0%80/", "workingTime": ["-", "09:00~18:00", "09:00~18:00", "09:00~18:00", "09:00~18:00", "09:00~18:00", "09:00~12:30", "-"]}, {"name": "\ubb34\uc9c0\uac1c\uc57d\uad6d", "lat": "35.8553548900049", "lng": "127.119303666501", "url": "/info/%EB%AC%B4%EC%A7%80%EA%B0%9C%EC%95%BD%EA%B5%AD-%EC%A0%84%EB%9D%BC%EB%B6%81%EB%8F%84-%EC%A0%84%EC%A3%BC%EC%8B%9C-%EC%86%A1%EC%B2%9C%EB%8F%991%EA%B0%80/", "workingTime": ["-", "09:00~18:30", "09:00~18:30", "09:00~18:30", "09:00~18:30", "09:00~18:30", "09:00~13:00", "-"]}, {"name": "\uc804\uc8fc\ub9d1\uc740\uc57d\uad6d", "lat": "35.86313491480313", "lng": "127.11480500888835", "url": "/info/%EC%A0%84%EC%A3%BC%EB%A7%91%EC%9D%80%EC%95%BD%EA%B5%AD-%EC%A0%84%EB%9D%BC%EB%B6%81%EB%8F%84-%EC%A0%84%EC%A3%BC%EC%8B%9C-%EC%86%A1%EC%B2%9C%EB%8F%991%EA%B0%80/", "workingTime": ["-", "09:00~19:30", "09:00~19:30", "09:00~19:30", "09:00~19:30", "09:00~19:30", "09:00~14:00", "-"]}, {"name": "\uad00\uc6b0\uc57d\uad6d", "lat": "35.86237472077903", "lng": "127.12126756577278", "url": "/info/%EA%B4%80%EC%9A%B0%EC%95%BD%EA%B5%AD-%EC%A0%84%EB%9D%BC%EB%B6%81%EB%8F%84-%EC%A0%84%EC%A3%BC%EC%8B%9C-%EC%86%A1%EC%B2%9C%EB%8F%991%EA%B0%80/", "workingTime": ["-", "09:00~18:00", "09:00~18:00", "09:00~18:00", "09:00~18:00", "09:00~18:00", "09:00~12:30", "-"]}, {"name": "\ubcf4\ub78c\uc57d\uad6d", "lat": "35.85807226511326", "lng": "127.12063551501622", "url": "/info/%EB%B3%B4%EB%9E%8C%EC%95%BD%EA%B5%AD-%EC%A0%84%EB%9D%BC%EB%B6%81%EB%8F%84-%EC%A0%84%EC%A3%BC%EC%8B%9C-%EC%86%A1%EC%B2%9C%EB%8F%991%EA%B0%80/", "workingTime": ["-", "08:30~18:30", "08:30~18:30", "08:30~18:30", "08:30~18:30", "08:30~18:30", "08:30~13:30", "-"]}, {"name": "\uc6b0\ub9ac\uc1a1\ucc9c\uc57d\uad6d", "lat": "35.85844795975848", "lng": "127.12076340280032", "url": "/info/%EC%9A%B0%EB%A6%AC%EC%86%A1%EC%B2%9C%EC%95%BD%EA%B5%AD-%EC%A0%84%EB%9D%BC%EB%B6%81%EB%8F%84-%EC%A0%84%EC%A3%BC%EC%8B%9C-%EC%86%A1%EC%B2%9C%EB%8F%991%EA%B0%80/", "workingTime": ["-", "09:00~18:00", "09:00~18:00", "09:00~18:00", "09:00~18:00", "09:00~18:00", "09:00~13:00", "-"]}, {"name": "\uc5d0\uc774\uc2a4\uc57d\uad6d", "lat": "35.863716365", "lng": "127.1272119093", "url": "/info/%EC%97%90%EC%9D%B4%EC%8A%A4%EC%95%BD%EA%B5%AD-%EC%A0%84%EB%9D%BC%EB%B6%81%EB%8F%84-%EC%A0%84%EC%A3%BC%EC%8B%9C-%EC%86%A1%EC%B2%9C%EB%8F%991%EA%B0%80/", "workingTime": ["-", "08:30~19:30", "08:30~19:30", "08:30~19:30", "08:30~19:30", "08:30~19:30", "08:30~13:00", "-"]}, {"name": "\ube45\uc57d\uad6d", "lat": "35.8545745112179", "lng": "127.120460043701", "url": "/info/%EB%B9%85%EC%95%BD%EA%B5%AD-%EC%A0%84%EB%9D%BC%EB%B6%81%EB%8F%84-%EC%A0%84%EC%A3%BC%EC%8B%9C-%EC%86%A1%EC%B2%9C%EB%8F%991%EA%B0%80/", "workingTime": ["1,3,5\uc9f8\uc8fc10:00~21:00", "10:00~21:00", "10:00~21:00", "10:00~21:00", "10:00~21:00", "10:00~21:00", "10:00~21:00", "-"]}, {"name": "\ubcf8\uc57d\uad6d", "lat": "35.8605104332043", "lng": "127.121722978475", "url": "/info/%EB%B3%B8%EC%95%BD%EA%B5%AD-%EC%A0%84%EB%9D%BC%EB%B6%81%EB%8F%84-%EC%A0%84%EC%A3%BC%EC%8B%9C-%EC%86%A1%EC%B2%9C%EB%8F%991%EA%B0%80/", "workingTime": ["-", "09:00~20:00", "09:00~20:00", "09:00~20:00", "09:00~20:00", "09:00~20:00", "09:00~16:00", "-"]}, {"name": "\ud070\uc0ac\ub791\uc628\ub204\ub9ac\uc57d\uad6d", "lat": "35.86205145890847", "lng": "127.1266147163677", "url": "/info/%ED%81%B0%EC%82%AC%EB%9E%91%EC%98%A8%EB%88%84%EB%A6%AC%EC%95%BD%EA%B5%AD-%EC%A0%84%EB%9D%BC%EB%B6%81%EB%8F%84-%EC%A0%84%EC%A3%BC%EC%8B%9C-%EC%86%A1%EC%B2%9C%EB%8F%991%EA%B0%80/", "workingTime": ["-", "09:00~20:30", "09:00~20:30", "09:00~20:30", "09:00~20:30", "09:00~20:30", "09:00~17:00", "09:00~13:00"]}, {"name": "\uc804\uc8fc\uc885\ub85c\uc57d\uad6d", "lat": "35.86142171518817", "lng": "127.1211443476098", "url": "/info/%EC%A0%84%EC%A3%BC%EC%A2%85%EB%A1%9C%EC%95%BD%EA%B5%AD-%EC%A0%84%EB%9D%BC%EB%B6%81%EB%8F%84-%EC%A0%84%EC%A3%BC%EC%8B%9C-%EC%86%A1%EC%B2%9C%EB%8F%991%EA%B0%80/", "workingTime": ["1,2,3,4,5\uc9f8\uc8fc09:00~19:00", "09:00~22:00", "09:00~22:00", "09:00~22:00", "09:00~22:00", "09:00~22:00", "08:30~22:00", "09:00~19:00"]}, {"name": "\ud654\ub791\uc57d\uad6d", "lat": "35.860983333333330", "lng": "127.121077777777771", "url": "/info/%ED%99%94%EB%9E%91%EC%95%BD%EA%B5%AD-%EC%A0%84%EB%9D%BC%EB%B6%81%EB%8F%84-%EC%A0%84%EC%A3%BC%EC%8B%9C-%EC%86%A1%EC%B2%9C%EB%8F%991%EA%B0%80/", "workingTime": ["-", "08:00~20:00", "08:00~20:00", "08:00~20:00", "08:00~20:00", "08:00~20:00", "08:00~15:00", "-"]}, {"name": "\uc870\uc740\uc57d\uad6d", "lat": "35.86120992082085", "lng": "127.12114402533518", "url": "/info/%EC%A1%B0%EC%9D%80%EC%95%BD%EA%B5%AD-%EC%A0%84%EB%9D%BC%EB%B6%81%EB%8F%84-%EC%A0%84%EC%A3%BC%EC%8B%9C-%EC%86%A1%EC%B2%9C%EB%8F%991%EA%B0%80/", "workingTime": ["-", "09:00~18:30", "09:00~18:30", "09:00~18:30", "09:00~18:30", "09:00~18:30", "09:00~12:30", "-"]}, {"name": "\uc804\uc8fc\uc194\uc57d\uad6d", "lat": "35.8601790718", "lng": "127.1209796902", "url": "/info/%EC%A0%84%EC%A3%BC%EC%86%94%EC%95%BD%EA%B5%AD-%EC%A0%84%EB%9D%BC%EB%B6%81%EB%8F%84-%EC%A0%84%EC%A3%BC%EC%8B%9C-%EC%86%A1%EC%B2%9C%EB%8F%991%EA%B0%80/", "workingTime": ["-", "08:30~19:30", "08:30~19:30", "08:30~19:30", "08:30~19:30", "08:30~19:30", "08:30~16:00", "-"]}, {"name": "\uc1a1\ucc9c\uc6b0\ub9ac\uc57d\uad6d", "lat": "35.8654222859577", "lng": "127.12123790565687", "url": "/info/%EC%86%A1%EC%B2%9C%EC%9A%B0%EB%A6%AC%EC%95%BD%EA%B5%AD-%EC%A0%84%EB%9D%BC%EB%B6%81%EB%8F%84-%EC%A0%84%EC%A3%BC%EC%8B%9C-%EC%86%A1%EC%B2%9C%EB%8F%991%EA%B0%80/", "workingTime": ["-", "09:00~18:00", "09:00~20:00", "09:00~18:00", "09:00~20:00", "09:00~18:00", "09:00~13:00", "-"]}, {"name": "\uc1a1\ucc9c\uc131\uc2ec\uc57d\uad6d", "lat": "35.863310379202055", "lng": "127.12716560586474", "url": "/info/%EC%86%A1%EC%B2%9C%EC%84%B1%EC%8B%AC%EC%95%BD%EA%B5%AD-%EC%A0%84%EB%9D%BC%EB%B6%81%EB%8F%84-%EC%A0%84%EC%A3%BC%EC%8B%9C-%EC%86%A1%EC%B2%9C%EB%8F%991%EA%B0%80/", "workingTime": ["-", "09:00~22:00", "09:00~22:00", "09:00~22:00", "09:00~22:00", "09:00~22:00", "09:00~22:00", "-"]}, {"name": "\uc1a1\ucc9c\uc0ac\ub791\uc57d\uad6d", "lat": "35.862928960308054", "lng": "127.11479365080122", "url": "/info/%EC%86%A1%EC%B2%9C%EC%82%AC%EB%9E%91%EC%95%BD%EA%B5%AD-%EC%A0%84%EB%9D%BC%EB%B6%81%EB%8F%84-%EC%A0%84%EC%A3%BC%EC%8B%9C-%EC%86%A1%EC%B2%9C%EB%8F%991%EA%B0%80/", "workingTime": ["-", "08:30~20:00", "08:30~20:00", "08:30~20:00", "08:30~20:00", "08:30~20:00", "08:30~19:00", "-"]}, {"name": "\uc1a1\ucc9c\ubc31\uc81c\uc57d\uad6d", "lat": "35.86386747962287", "lng": "127.1274911635361", "url": "/info/%EC%86%A1%EC%B2%9C%EB%B0%B1%EC%A0%9C%EC%95%BD%EA%B5%AD-%EC%A0%84%EB%9D%BC%EB%B6%81%EB%8F%84-%EC%A0%84%EC%A3%BC%EC%8B%9C-%EC%86%A1%EC%B2%9C%EB%8F%991%EA%B0%80/", "workingTime": ["-", "08:30~19:00", "08:30~19:00", "08:30~19:00", "08:30~19:00", "08:30~19:00", "08:30~13:00", "-"]}, {"name": "\ubc14\ub2e4\uc57d\uad6d", "lat": "35.85609326985941", "lng": "127.11919009297748", "url": "/info/%EB%B0%94%EB%8B%A4%EC%95%BD%EA%B5%AD-%EC%A0%84%EB%9D%BC%EB%B6%81%EB%8F%84-%EC%A0%84%EC%A3%BC%EC%8B%9C-%EC%86%A1%EC%B2%9C%EB%8F%991%EA%B0%80/", "workingTime": ["-", "09:00~18:00", "09:00~18:00", "09:00~18:00", "09:00~18:00", "09:00~18:00", "09:00~13:00", "-"]}, {"name": "\uccad\uac15\ud55c\uc57d\uad6d", "lat": "35.8630427606", "lng": "127.1300806483", "url": "/info/%EC%B2%AD%EA%B0%95%ED%95%9C%EC%95%BD%EA%B5%AD-%EC%A0%84%EB%9D%BC%EB%B6%81%EB%8F%84-%EC%A0%84%EC%A3%BC%EC%8B%9C-%EC%86%A1%EC%B2%9C%EB%8F%991%EA%B0%80/", "workingTime": ["-", "10:00~19:00", "10:00~19:00", "10:00~19:00", "10:00~19:00", "10:00~19:00", "-", "-"]}, {"name": "\ucc9c\uc0ac\uc57d\uad6d", "lat": "35.858881275683586", "lng": "127.1214748757638", "url": "/info/%EC%B2%9C%EC%82%AC%EC%95%BD%EA%B5%AD-%EC%A0%84%EB%9D%BC%EB%B6%81%EB%8F%84-%EC%A0%84%EC%A3%BC%EC%8B%9C-%EC%86%A1%EC%B2%9C%EB%8F%991%EA%B0%80/", "workingTime": ["-", "08:30~19:00", "08:30~19:00", "08:30~19:00", "08:30~19:00", "08:30~19:00", "-", "-"]}]