[{"name": "\ub18d\ubbfc\uc57d\uad6d", "lat": "34.569633333333336", "lng": "126.597877777777782", "url": "/info/%EB%86%8D%EB%AF%BC%EC%95%BD%EA%B5%AD-%EC%A0%84%EB%9D%BC%EB%82%A8%EB%8F%84-%ED%95%B4%EB%82%A8%EA%B5%B0-%ED%95%B4%EB%82%A8%EC%9D%8D/", "workingTime": ["-", "08:00~20:00", "08:00~20:00", "08:00~20:00", "08:00~20:00", "08:00~20:00", "08:00~15:00", "08:00~15:00"]}, {"name": "\ud558\ub098\ub85c\uc57d\uad6d", "lat": "34.567611111111113", "lng": "126.608433333333338", "url": "/info/%ED%95%98%EB%82%98%EB%A1%9C%EC%95%BD%EA%B5%AD-%EC%A0%84%EB%9D%BC%EB%82%A8%EB%8F%84-%ED%95%B4%EB%82%A8%EA%B5%B0-%ED%95%B4%EB%82%A8%EC%9D%8D/", "workingTime": ["-", "08:30~17:30", "08:30~17:30", "08:30~17:30", "08:30~17:30", "08:30~17:30", "08:30~12:30", "-"]}, {"name": "\uc2e0\uc131\uc57d\uad6d", "lat": "34.569855555555556", "lng": "126.599183333333329", "url": "/info/%EC%8B%A0%EC%84%B1%EC%95%BD%EA%B5%AD-%EC%A0%84%EB%9D%BC%EB%82%A8%EB%8F%84-%ED%95%B4%EB%82%A8%EA%B5%B0-%ED%95%B4%EB%82%A8%EC%9D%8D/", "workingTime": ["-", "08:10~19:00", "08:10~19:00", "08:10~19:00", "08:10~19:00", "08:10~19:00", "08:10~15:00", "-"]}, {"name": "\ubcf4\uac74\uc57d\uad6d", "lat": "34.571289393031", "lng": "126.611451734482", "url": "/info/%EB%B3%B4%EA%B1%B4%EC%95%BD%EA%B5%AD-%EC%A0%84%EB%9D%BC%EB%82%A8%EB%8F%84-%ED%95%B4%EB%82%A8%EA%B5%B0-%ED%95%B4%EB%82%A8%EC%9D%8D/", "workingTime": ["-", "08:30~17:30", "08:30~17:30", "08:30~17:30", "08:30~17:30", "08:30~17:30", "08:30~13:00", "-"]}, {"name": "\uc815\ub2e4\uc6b4\uc57d\uad6d", "lat": "34.571322222222221", "lng": "126.606930555555550", "url": "/info/%EC%A0%95%EB%8B%A4%EC%9A%B4%EC%95%BD%EA%B5%AD-%EC%A0%84%EB%9D%BC%EB%82%A8%EB%8F%84-%ED%95%B4%EB%82%A8%EA%B5%B0-%ED%95%B4%EB%82%A8%EC%9D%8D/", "workingTime": ["-", "08:00~18:00", "08:00~18:00", "08:00~18:00", "08:00~18:00", "08:00~18:00", "08:00~13:00", "-"]}, {"name": "\ud574\ub0a8\uc57d\uad6d", "lat": "34.566094020570496", "lng": "126.59478613371311", "url": "/info/%ED%95%B4%EB%82%A8%EC%95%BD%EA%B5%AD-%EC%A0%84%EB%9D%BC%EB%82%A8%EB%8F%84-%ED%95%B4%EB%82%A8%EA%B5%B0-%ED%95%B4%EB%82%A8%EC%9D%8D/", "workingTime": ["-", "08:00~19:00", "08:00~19:00", "08:00~19:00", "08:00~19:00", "08:00~19:00", "08:00~15:00", "-"]}, {"name": "\ud574\ub0a8\uc628\ub204\ub9ac\uc57d\uad6d", "lat": "34.5718020278", "lng": "126.6075867458", "url": "/info/%ED%95%B4%EB%82%A8%EC%98%A8%EB%88%84%EB%A6%AC%EC%95%BD%EA%B5%AD-%EC%A0%84%EB%9D%BC%EB%82%A8%EB%8F%84-%ED%95%B4%EB%82%A8%EA%B5%B0-%ED%95%B4%EB%82%A8%EC%9D%8D/", "workingTime": ["-", "08:00~18:30", "08:00~18:30", "08:00~18:30", "08:00~18:30", "08:00~18:30", "08:00~14:00", "-"]}, {"name": "\uc2e0\uc138\uacc4\uc57d\uad6d", "lat": "34.57579790126885", "lng": "126.59503968341136", "url": "/info/%EC%8B%A0%EC%84%B8%EA%B3%84%EC%95%BD%EA%B5%AD-%EC%A0%84%EB%9D%BC%EB%82%A8%EB%8F%84-%ED%95%B4%EB%82%A8%EA%B5%B0-%ED%95%B4%EB%82%A8%EC%9D%8D/", "workingTime": ["-", "08:00~19:00", "08:00~19:00", "08:00~19:00", "08:00~19:00", "08:00~19:00", "08:00~13:00", "-"]}, {"name": "\ud574\uc624\ub984\uc57d\uad6d", "lat": "34.570573698920164", "lng": "126.60729214155502", "url": "/info/%ED%95%B4%EC%98%A4%EB%A6%84%EC%95%BD%EA%B5%AD-%EC%A0%84%EB%9D%BC%EB%82%A8%EB%8F%84-%ED%95%B4%EB%82%A8%EA%B5%B0-%ED%95%B4%EB%82%A8%EC%9D%8D/", "workingTime": ["2\uc9f8\uc8fc09:00~17:00", "08:00~21:00", "08:00~21:00", "08:00~21:00", "08:00~21:00", "08:00~21:00", "08:00~13:00", "-"]}, {"name": "\uc601\uc0dd\uc57d\uad6d", "lat": "34.57059338953795", "lng": "126.60669050407859", "url": "/info/%EC%98%81%EC%83%9D%EC%95%BD%EA%B5%AD-%EC%A0%84%EB%9D%BC%EB%82%A8%EB%8F%84-%ED%95%B4%EB%82%A8%EA%B5%B0-%ED%95%B4%EB%82%A8%EC%9D%8D/", "workingTime": ["-", "08:00~19:00", "08:00~19:00", "08:00~19:00", "08:00~19:00", "08:00~19:00", "08:00~13:00", "-"]}, {"name": "\uba85\uc9c0\uc57d\uad6d", "lat": "34.56536198067384", "lng": "126.5943009615198", "url": "/info/%EB%AA%85%EC%A7%80%EC%95%BD%EA%B5%AD-%EC%A0%84%EB%9D%BC%EB%82%A8%EB%8F%84-%ED%95%B4%EB%82%A8%EA%B5%B0-%ED%95%B4%EB%82%A8%EC%9D%8D/", "workingTime": ["-", "08:00~18:00", "08:00~18:00", "08:00~18:00", "08:00~18:00", "08:00~18:00", "08:00~13:00", "-"]}, {"name": "\ub300\ucc3d\uc57d\uad6d", "lat": "34.567137962719805", "lng": "126.59535206012472", "url": "/info/%EB%8C%80%EC%B0%BD%EC%95%BD%EA%B5%AD-%EC%A0%84%EB%9D%BC%EB%82%A8%EB%8F%84-%ED%95%B4%EB%82%A8%EA%B5%B0-%ED%95%B4%EB%82%A8%EC%9D%8D/", "workingTime": ["1,2,3,4,5\uc9f8\uc8fc07:30~19:00", "07:30~19:00", "07:30~19:00", "07:30~19:00", "07:30~19:00", "07:30~19:00", "07:30~19:00", "07:30~19:00"]}, {"name": "\uae08\uac15\uc57d\uad6d", "lat": "34.57140419178185", "lng": "126.61215293563623", "url": "/info/%EA%B8%88%EA%B0%95%EC%95%BD%EA%B5%AD-%EC%A0%84%EB%9D%BC%EB%82%A8%EB%8F%84-%ED%95%B4%EB%82%A8%EA%B5%B0-%ED%95%B4%EB%82%A8%EC%9D%8D/", "workingTime": ["-", "08:30~17:00", "08:30~17:00", "08:30~17:00", "08:30~17:00", "08:30~17:00", "09:00~13:00", "-"]}, {"name": "\uc0d8\ubb3c\uc57d\uad6d", "lat": "34.5669300360057", "lng": "126.59571485324977", "url": "/info/%EC%83%98%EB%AC%BC%EC%95%BD%EA%B5%AD-%EC%A0%84%EB%9D%BC%EB%82%A8%EB%8F%84-%ED%95%B4%EB%82%A8%EA%B5%B0-%ED%95%B4%EB%82%A8%EC%9D%8D/", "workingTime": ["-", "08:30~17:30", "08:30~17:30", "08:30~17:30", "08:30~17:30", "08:30~17:30", "08:30~12:30", "-"]}, {"name": "\ud574\ub0a8\uc885\ub85c\uc57d\uad6d", "lat": "34.568191666666664", "lng": "126.596519444444439", "url": "/info/%ED%95%B4%EB%82%A8%EC%A2%85%EB%A1%9C%EC%95%BD%EA%B5%AD-%EC%A0%84%EB%9D%BC%EB%82%A8%EB%8F%84-%ED%95%B4%EB%82%A8%EA%B5%B0-%ED%95%B4%EB%82%A8%EC%9D%8D/", "workingTime": ["-", "08:00~18:30", "08:00~18:30", "08:00~18:30", "08:00~18:30", "08:00~18:30", "08:00~12:30", "-"]}, {"name": "\ub0a8\ub3c4\uc57d\uad6d", "lat": "34.57061544246284", "lng": "126.6079370795465", "url": "/info/%EB%82%A8%EB%8F%84%EC%95%BD%EA%B5%AD-%EC%A0%84%EB%9D%BC%EB%82%A8%EB%8F%84-%ED%95%B4%EB%82%A8%EA%B5%B0-%ED%95%B4%EB%82%A8%EC%9D%8D/", "workingTime": ["-", "08:00~17:30", "08:00~17:30", "08:00~17:30", "08:00~17:30", "08:00~17:30", "08:00~12:30", "-"]}, {"name": "\uac74\uac15\ub9c8\ud2b8\uc57d\uad6d", "lat": "34.5710593067977", "lng": "126.60804832382627", "url": "/info/%EA%B1%B4%EA%B0%95%EB%A7%88%ED%8A%B8%EC%95%BD%EA%B5%AD-%EC%A0%84%EB%9D%BC%EB%82%A8%EB%8F%84-%ED%95%B4%EB%82%A8%EA%B5%B0-%ED%95%B4%EB%82%A8%EC%9D%8D/", "workingTime": ["-", "08:00~18:00", "08:00~18:00", "08:00~18:00", "08:00~18:00", "08:00~18:00", "08:00~13:00", "-"]}, {"name": "\ub9e4\uc77c\uc57d\uad6d", "lat": "34.566486023145", "lng": "126.5944791096413", "url": "/info/%EB%A7%A4%EC%9D%BC%EC%95%BD%EA%B5%AD-%EC%A0%84%EB%9D%BC%EB%82%A8%EB%8F%84-%ED%95%B4%EB%82%A8%EA%B5%B0-%ED%95%B4%EB%82%A8%EC%9D%8D/", "workingTime": ["-", "09:00~17:00", "09:00~17:00", "09:00~17:00", "09:00~17:00", "09:00~17:00", "-", "-"]}]