[{"name": "\ud638\ub0a8\uc57d\uad6d", "lat": "34.74127131379326", "lng": "127.72761422804817", "url": "/info/%ED%98%B8%EB%82%A8%EC%95%BD%EA%B5%AD-%EC%A0%84%EB%9D%BC%EB%82%A8%EB%8F%84-%EC%97%AC%EC%88%98%EC%8B%9C-%EC%84%9C%EA%B5%90%EB%8F%99/", "workingTime": ["1,2,3,4,5\uc9f8\uc8fc14:30~17:00", "08:30~18:30", "08:30~18:30", "08:30~18:30", "08:30~18:30", "08:30~18:30", "08:30~13:00", "-"]}, {"name": "\ubc31\uc218\uc57d\uad6d", "lat": "34.740606772534434", "lng": "127.72855730641007", "url": "/info/%EB%B0%B1%EC%88%98%EC%95%BD%EA%B5%AD-%EC%A0%84%EB%9D%BC%EB%82%A8%EB%8F%84-%EC%97%AC%EC%88%98%EC%8B%9C-%EC%84%9C%EA%B5%90%EB%8F%99/", "workingTime": ["-", "08:30~18:30", "08:30~18:30", "08:30~18:30", "08:30~18:30", "08:30~18:30", "08:30~16:00", "-"]}, {"name": "\ud0dc\uc2e0\uc57d\uad6d", "lat": "34.740938931270826", "lng": "127.72757527887626", "url": "/info/%ED%83%9C%EC%8B%A0%EC%95%BD%EA%B5%AD-%EC%A0%84%EB%9D%BC%EB%82%A8%EB%8F%84-%EC%97%AC%EC%88%98%EC%8B%9C-%EC%84%9C%EA%B5%90%EB%8F%99/", "workingTime": ["-", "08:30~18:00", "08:30~18:00", "08:30~18:00", "08:30~18:00", "08:30~18:00", "08:30~12:30", "-"]}, {"name": "\uce5c\uc808\ud55c\uc57d\uad6d", "lat": "34.74000140572602", "lng": "127.72728859652403", "url": "/info/%EC%B9%9C%EC%A0%88%ED%95%9C%EC%95%BD%EA%B5%AD-%EC%A0%84%EB%9D%BC%EB%82%A8%EB%8F%84-%EC%97%AC%EC%88%98%EC%8B%9C-%EC%84%9C%EA%B5%90%EB%8F%99/", "workingTime": ["-", "08:00~18:30", "08:00~18:30", "08:00~18:30", "08:00~18:30", "08:00~18:30", "08:00~13:00", "-"]}, {"name": "\uad7f\ubaa8\ub2dd\uc57d\uad6d", "lat": "34.74021325395611", "lng": "127.72682775568622", "url": "/info/%EA%B5%BF%EB%AA%A8%EB%8B%9D%EC%95%BD%EA%B5%AD-%EC%A0%84%EB%9D%BC%EB%82%A8%EB%8F%84-%EC%97%AC%EC%88%98%EC%8B%9C-%EC%84%9C%EA%B5%90%EB%8F%99/", "workingTime": ["-", "09:00~18:00", "09:00~18:00", "09:00~18:00", "09:00~18:00", "09:00~18:00", "09:00~13:00", "-"]}, {"name": "\ud55c\uc77c\uc57d\uad6d", "lat": "34.740084715316385", "lng": "127.72661778551637", "url": "/info/%ED%95%9C%EC%9D%BC%EC%95%BD%EA%B5%AD-%EC%A0%84%EB%9D%BC%EB%82%A8%EB%8F%84-%EC%97%AC%EC%88%98%EC%8B%9C-%EC%84%9C%EA%B5%90%EB%8F%99/", "workingTime": ["-", "08:00~19:30", "08:00~19:30", "08:00~19:30", "08:00~19:30", "08:00~19:30", "08:00~18:00", "-"]}, {"name": "\uc11c\uc815\uc57d\uad6d", "lat": "34.74119332680003", "lng": "127.72806944340605", "url": "/info/%EC%84%9C%EC%A0%95%EC%95%BD%EA%B5%AD-%EC%A0%84%EB%9D%BC%EB%82%A8%EB%8F%84-%EC%97%AC%EC%88%98%EC%8B%9C-%EC%84%9C%EA%B5%90%EB%8F%99/", "workingTime": ["-", "09:00~18:30", "09:00~18:30", "09:00~18:30", "09:00~18:30", "09:00~18:30", "09:00~15:00", "-"]}, {"name": "\uc608\ub2f4\uc57d\uad6d", "lat": "34.74012572787727", "lng": "127.72805188794267", "url": "/info/%EC%98%88%EB%8B%B4%EC%95%BD%EA%B5%AD-%EC%A0%84%EB%9D%BC%EB%82%A8%EB%8F%84-%EC%97%AC%EC%88%98%EC%8B%9C-%EC%84%9C%EA%B5%90%EB%8F%99/", "workingTime": ["-", "08:30~18:00", "08:30~18:00", "08:30~18:00", "08:30~18:00", "08:30~18:00", "08:30~13:00", "-"]}, {"name": "\ub300\uc6c5\uc57d\uad6d", "lat": "34.74064011560009", "lng": "127.72825730830711", "url": "/info/%EB%8C%80%EC%9B%85%EC%95%BD%EA%B5%AD-%EC%A0%84%EB%9D%BC%EB%82%A8%EB%8F%84-%EC%97%AC%EC%88%98%EC%8B%9C-%EC%84%9C%EA%B5%90%EB%8F%99/", "workingTime": ["-", "08:30~20:00", "08:30~20:00", "08:30~20:00", "08:30~20:00", "08:30~20:00", "08:30~18:00", "08:00~20:00"]}, {"name": "\uc77c\ubc88\uc9c0\uc57d\uad6d", "lat": "34.7750616773107", "lng": "127.648005855398", "url": "/info/%EC%9D%BC%EB%B2%88%EC%A7%80%EC%95%BD%EA%B5%AD-%EC%A0%84%EB%9D%BC%EB%82%A8%EB%8F%84-%EC%97%AC%EC%88%98%EC%8B%9C-%EC%84%9C%EA%B5%90%EB%8F%99/", "workingTime": ["-", "09:00~18:00", "09:00~18:00", "09:00~18:00", "09:00~18:00", "09:00~18:00", "-", "-"]}]