[{"name": "\uc138\uc885\uc57d\uad6d", "lat": "34.9790346122058", "lng": "127.58464855546708", "url": "/info/%EC%84%B8%EC%A2%85%EC%95%BD%EA%B5%AD-%EC%A0%84%EB%9D%BC%EB%82%A8%EB%8F%84-%EA%B4%91%EC%96%91%EC%8B%9C-%EA%B4%91%EC%96%91%EC%9D%8D/", "workingTime": ["1\uc9f8\uc8fc09:00~18:00", "08:30~18:30", "08:30~18:30", "08:30~18:30", "08:30~18:30", "08:30~18:30", "08:30~13:00", "-"]}, {"name": "\ubc31\uc81c\uc57d\uad6d", "lat": "34.97002483420467", "lng": "127.58924326629925", "url": "/info/%EB%B0%B1%EC%A0%9C%EC%95%BD%EA%B5%AD-%EC%A0%84%EB%9D%BC%EB%82%A8%EB%8F%84-%EA%B4%91%EC%96%91%EC%8B%9C-%EA%B4%91%EC%96%91%EC%9D%8D/", "workingTime": ["5\uc9f8\uc8fc13:00~18:00", "08:30~18:30", "08:30~18:30", "08:30~18:30", "08:30~18:30", "08:30~18:30", "08:30~12:30", "-"]}, {"name": "\uad6d\uc81c\uc628\ub204\ub9ac\uc57d\uad6d", "lat": "34.9712623019", "lng": "127.5897812864", "url": "/info/%EA%B5%AD%EC%A0%9C%EC%98%A8%EB%88%84%EB%A6%AC%EC%95%BD%EA%B5%AD-%EC%A0%84%EB%9D%BC%EB%82%A8%EB%8F%84-%EA%B4%91%EC%96%91%EC%8B%9C-%EA%B4%91%EC%96%91%EC%9D%8D/", "workingTime": ["5\uc9f8\uc8fc13:00~18:00", "08:30~18:30", "08:30~18:30", "08:30~18:30", "08:30~18:30", "08:30~18:30", "08:30~13:30", "-"]}, {"name": "\uba54\ub514\ud31c\uba85\uc7ac\uc57d\uad6d", "lat": "34.970458333333333", "lng": "127.589002777777779", "url": "/info/%EB%A9%94%EB%94%94%ED%8C%9C%EB%AA%85%EC%9E%AC%EC%95%BD%EA%B5%AD-%EC%A0%84%EB%9D%BC%EB%82%A8%EB%8F%84-%EA%B4%91%EC%96%91%EC%8B%9C-%EA%B4%91%EC%96%91%EC%9D%8D/", "workingTime": ["5\uc9f8\uc8fc09:00~13:00", "08:30~18:00", "08:30~18:00", "08:30~18:00", "08:30~18:00", "08:30~18:00", "08:00~12:30", "-"]}, {"name": "\uad11\uc591\ub098\ub77c\uc57d\uad6d", "lat": "34.9705880686289", "lng": "127.586637905848", "url": "/info/%EA%B4%91%EC%96%91%EB%82%98%EB%9D%BC%EC%95%BD%EA%B5%AD-%EC%A0%84%EB%9D%BC%EB%82%A8%EB%8F%84-%EA%B4%91%EC%96%91%EC%8B%9C-%EA%B4%91%EC%96%91%EC%9D%8D/", "workingTime": ["4\uc9f8\uc8fc09:00~18:00", "08:30~22:00", "08:30~22:00", "08:30~22:00", "08:30~22:00", "08:30~22:00", "08:30~13:00", "-"]}, {"name": "\ud638\ub0a8\uc57d\uad6d", "lat": "34.9780932553839", "lng": "127.588479645631", "url": "/info/%ED%98%B8%EB%82%A8%EC%95%BD%EA%B5%AD-%EC%A0%84%EB%9D%BC%EB%82%A8%EB%8F%84-%EA%B4%91%EC%96%91%EC%8B%9C-%EA%B4%91%EC%96%91%EC%9D%8D/", "workingTime": ["4\uc9f8\uc8fc10:00~18:00", "09:00~18:00", "09:00~18:00", "09:00~18:00", "09:00~18:00", "09:00~18:00", "09:00~13:00", "-"]}, {"name": "\ub85c\ud0c0\ub9ac\ud070\uc57d\uad6d", "lat": "34.97125493231733", "lng": "127.58921309507002", "url": "/info/%EB%A1%9C%ED%83%80%EB%A6%AC%ED%81%B0%EC%95%BD%EA%B5%AD-%EC%A0%84%EB%9D%BC%EB%82%A8%EB%8F%84-%EA%B4%91%EC%96%91%EC%8B%9C-%EA%B4%91%EC%96%91%EC%9D%8D/", "workingTime": ["3\uc9f8\uc8fc09:00~18:00", "08:30~20:00", "08:30~20:00", "08:30~20:00", "08:30~20:00", "08:30~20:00", "09:00~19:00", "-"]}, {"name": "\uc6b0\ub9ac\uc628\ub204\ub9ac\uc57d\uad6d", "lat": "34.97563179986213", "lng": "127.58822337813913", "url": "/info/%EC%9A%B0%EB%A6%AC%EC%98%A8%EB%88%84%EB%A6%AC%EC%95%BD%EA%B5%AD-%EC%A0%84%EB%9D%BC%EB%82%A8%EB%8F%84-%EA%B4%91%EC%96%91%EC%8B%9C-%EA%B4%91%EC%96%91%EC%9D%8D/", "workingTime": ["3\uc9f8\uc8fc09:00~18:00", "08:30~18:30", "08:30~18:30", "08:30~18:30", "08:30~18:30", "08:30~18:30", "08:30~13:00", "-"]}, {"name": "\uadf8\ub9b0\uc57d\uad6d", "lat": "34.97137895184872", "lng": "127.58194664114853", "url": "/info/%EA%B7%B8%EB%A6%B0%EC%95%BD%EA%B5%AD-%EC%A0%84%EB%9D%BC%EB%82%A8%EB%8F%84-%EA%B4%91%EC%96%91%EC%8B%9C-%EA%B4%91%EC%96%91%EC%9D%8D/", "workingTime": ["2\uc9f8\uc8fc09:00~18:00", "09:00~19:30", "09:00~19:30", "09:00~19:30", "09:00~19:30", "09:00~19:30", "09:00~14:00", "-"]}, {"name": "\uc2ed\uc790\ub2f9\uc57d\uad6d", "lat": "34.97540161658821", "lng": "127.5873612695726", "url": "/info/%EC%8B%AD%EC%9E%90%EB%8B%B9%EC%95%BD%EA%B5%AD-%EC%A0%84%EB%9D%BC%EB%82%A8%EB%8F%84-%EA%B4%91%EC%96%91%EC%8B%9C-%EA%B4%91%EC%96%91%EC%9D%8D/", "workingTime": ["1\uc9f8\uc8fc10:00~17:00", "08:00~19:30", "08:00~19:30", "08:00~19:30", "08:00~19:30", "08:00~19:30", "08:30~16:00", "-"]}, {"name": "\uc870\uc740\uc57d\uad6d", "lat": "34.9727527401", "lng": "127.5894984968", "url": "/info/%EC%A1%B0%EC%9D%80%EC%95%BD%EA%B5%AD-%EC%A0%84%EB%9D%BC%EB%82%A8%EB%8F%84-%EA%B4%91%EC%96%91%EC%8B%9C-%EA%B4%91%EC%96%91%EC%9D%8D/", "workingTime": ["-", "08:00~18:30", "08:00~18:30", "08:00~18:30", "08:00~18:30", "08:00~18:30", "08:00~13:00", "08:00~13:00"]}, {"name": "\ub098\ub798\uc57d\uad6d", "lat": "34.97219537626907", "lng": "127.60911003323761", "url": "/info/%EB%82%98%EB%9E%98%EC%95%BD%EA%B5%AD-%EC%A0%84%EB%9D%BC%EB%82%A8%EB%8F%84-%EA%B4%91%EC%96%91%EC%8B%9C-%EA%B4%91%EC%96%91%EC%9D%8D/", "workingTime": ["-", "08:30~19:20", "08:30~19:20", "08:30~19:20", "08:30~12:30", "08:30~19:20", "08:30~12:30", "-"]}, {"name": "\uc77c\uc2ec\ub2f9\ud55c\uc57d\uad6d", "lat": "34.9760266035", "lng": "127.5887378686", "url": "/info/%EC%9D%BC%EC%8B%AC%EB%8B%B9%ED%95%9C%EC%95%BD%EA%B5%AD-%EC%A0%84%EB%9D%BC%EB%82%A8%EB%8F%84-%EA%B4%91%EC%96%91%EC%8B%9C-%EA%B4%91%EC%96%91%EC%9D%8D/", "workingTime": ["-", "09:00~20:00", "09:00~20:00", "09:00~20:00", "09:00~20:00", "09:00~20:00", "09:00~20:00", "09:00~20:00"]}, {"name": "\ud314\ub9c8\uc57d\uad6d", "lat": "34.97544919089019", "lng": "127.58926267720699", "url": "/info/%ED%8C%94%EB%A7%88%EC%95%BD%EA%B5%AD-%EC%A0%84%EB%9D%BC%EB%82%A8%EB%8F%84-%EA%B4%91%EC%96%91%EC%8B%9C-%EA%B4%91%EC%96%91%EC%9D%8D/", "workingTime": ["5\uc9f8\uc8fc09:00~13:00", "08:40~18:00", "08:40~18:00", "08:40~18:00", "08:40~18:00", "08:40~18:00", "08:40~12:30", "-"]}, {"name": "\ub179\uc2ed\uc790\uc57d\uad6d", "lat": "34.965069968028", "lng": "127.572680252338", "url": "/info/%EB%85%B9%EC%8B%AD%EC%9E%90%EC%95%BD%EA%B5%AD-%EC%A0%84%EB%9D%BC%EB%82%A8%EB%8F%84-%EA%B4%91%EC%96%91%EC%8B%9C-%EA%B4%91%EC%96%91%EC%9D%8D/", "workingTime": ["-", "09:00~20:30", "09:00~20:30", "09:00~20:30", "09:00~20:30", "09:00~20:30", "-", "-"]}, {"name": "\uc0dd\uc57d\uad6d", "lat": "34.97903353957777", "lng": "127.58426278716595", "url": "/info/%EC%83%9D%EC%95%BD%EA%B5%AD-%EC%A0%84%EB%9D%BC%EB%82%A8%EB%8F%84-%EA%B4%91%EC%96%91%EC%8B%9C-%EA%B4%91%EC%96%91%EC%9D%8D/", "workingTime": ["2\uc9f8\uc8fc09:00~18:00", "09:00~12:30", "09:00~12:30", "09:00~12:30", "09:00~12:30", "09:00~12:30", "-", "-"]}, {"name": "\uc6a9\uac15\uc57d\uad6d", "lat": "34.97106936953665", "lng": "127.60986268311507", "url": "/info/%EC%9A%A9%EA%B0%95%EC%95%BD%EA%B5%AD-%EC%A0%84%EB%9D%BC%EB%82%A8%EB%8F%84-%EA%B4%91%EC%96%91%EC%8B%9C-%EA%B4%91%EC%96%91%EC%9D%8D/", "workingTime": ["-", "08:30~13:00", "08:30~13:00", "08:30~13:00", "08:30~13:00", "08:30~13:00", "-", "-"]}]