[{"name": "\ubcf4\ub839\uc57d\uad6d", "lat": "35.8325056965025", "lng": "127.16271250090134", "url": "/info/%EB%B3%B4%EB%A0%B9%EC%95%BD%EA%B5%AD-%EC%A0%84%EB%9D%BC%EB%B6%81%EB%8F%84-%EC%A0%84%EC%A3%BC%EC%8B%9C-%EC%9D%B8%ED%9B%84%EB%8F%991%EA%B0%80/", "workingTime": ["-", "08:40~19:00", "08:40~19:00", "08:40~19:00", "08:40~19:00", "08:40~19:00", "08:40~15:00", "-"]}, {"name": "\uc548\uace8\ub179\uc2ed\uc790\uc57d\uad6d", "lat": "35.836207229862", "lng": "127.153398681762", "url": "/info/%EC%95%88%EA%B3%A8%EB%85%B9%EC%8B%AD%EC%9E%90%EC%95%BD%EA%B5%AD-%EC%A0%84%EB%9D%BC%EB%B6%81%EB%8F%84-%EC%A0%84%EC%A3%BC%EC%8B%9C-%EC%9D%B8%ED%9B%84%EB%8F%991%EA%B0%80/", "workingTime": ["-", "09:00~19:00", "09:00~19:00", "09:00~19:00", "09:00~19:00", "09:00~19:00", "09:00~13:30", "-"]}, {"name": "\uc778\ud6c4\ub300\ud615\uc57d\uad6d", "lat": "35.8315141665694", "lng": "127.163474625044", "url": "/info/%EC%9D%B8%ED%9B%84%EB%8C%80%ED%98%95%EC%95%BD%EA%B5%AD-%EC%A0%84%EB%9D%BC%EB%B6%81%EB%8F%84-%EC%A0%84%EC%A3%BC%EC%8B%9C-%EC%9D%B8%ED%9B%84%EB%8F%991%EA%B0%80/", "workingTime": ["-", "09:00~21:00", "09:00~21:00", "09:00~21:00", "09:00~21:00", "09:00~21:00", "09:00~21:00", "09:00~21:00"]}, {"name": "\uc544\uc911\ubc31\uc81c\uc57d\uad6d", "lat": "35.832176491282006", "lng": "127.15812990944568", "url": "/info/%EC%95%84%EC%A4%91%EB%B0%B1%EC%A0%9C%EC%95%BD%EA%B5%AD-%EC%A0%84%EB%9D%BC%EB%B6%81%EB%8F%84-%EC%A0%84%EC%A3%BC%EC%8B%9C-%EC%9D%B8%ED%9B%84%EB%8F%991%EA%B0%80/", "workingTime": ["-", "08:30~18:30", "08:30~18:30", "08:30~18:30", "08:30~18:30", "08:30~18:30", "08:30~13:00", "-"]}, {"name": "\ud734\ud50c\ub7ec\uc2a4\uc57d\uad6d", "lat": "35.83693247869917", "lng": "127.15513292963385", "url": "/info/%ED%9C%B4%ED%94%8C%EB%9F%AC%EC%8A%A4%EC%95%BD%EA%B5%AD-%EC%A0%84%EB%9D%BC%EB%B6%81%EB%8F%84-%EC%A0%84%EC%A3%BC%EC%8B%9C-%EC%9D%B8%ED%9B%84%EB%8F%991%EA%B0%80/", "workingTime": ["-", "09:00~19:00", "09:00~19:00", "09:00~19:00", "09:00~19:00", "09:00~19:00", "09:00~13:00", "-"]}, {"name": "\ud558\ub298\uc57d\uad6d", "lat": "35.83081194011332", "lng": "127.1586747205994", "url": "/info/%ED%95%98%EB%8A%98%EC%95%BD%EA%B5%AD-%EC%A0%84%EB%9D%BC%EB%B6%81%EB%8F%84-%EC%A0%84%EC%A3%BC%EC%8B%9C-%EC%9D%B8%ED%9B%84%EB%8F%991%EA%B0%80/", "workingTime": ["-", "09:00~18:00", "09:00~18:00", "09:00~18:00", "09:00~18:00", "09:00~20:00", "09:00~16:00", "-"]}, {"name": "\ud0dc\ud3c9\uc591\uc57d\uad6d", "lat": "35.83643696693417", "lng": "127.15499361352314", "url": "/info/%ED%83%9C%ED%8F%89%EC%96%91%EC%95%BD%EA%B5%AD-%EC%A0%84%EB%9D%BC%EB%B6%81%EB%8F%84-%EC%A0%84%EC%A3%BC%EC%8B%9C-%EC%9D%B8%ED%9B%84%EB%8F%991%EA%B0%80/", "workingTime": ["-", "09:00~21:00", "09:00~21:00", "09:00~21:00", "09:00~21:00", "09:00~21:00", "09:00~19:00", "-"]}, {"name": "\ucd5c\uc57d\uad6d", "lat": "35.83428210933996", "lng": "127.16334916996705", "url": "/info/%EC%B5%9C%EC%95%BD%EA%B5%AD-%EC%A0%84%EB%9D%BC%EB%B6%81%EB%8F%84-%EC%A0%84%EC%A3%BC%EC%8B%9C-%EC%9D%B8%ED%9B%84%EB%8F%991%EA%B0%80/", "workingTime": ["-", "08:30~19:30", "08:30~19:30", "08:30~19:30", "08:30~19:30", "08:30~19:30", "08:30~13:00", "-"]}, {"name": "\uc804\ubd81\uc57d\uad6d", "lat": "35.837152777777774", "lng": "127.159388888888884", "url": "/info/%EC%A0%84%EB%B6%81%EC%95%BD%EA%B5%AD-%EC%A0%84%EB%9D%BC%EB%B6%81%EB%8F%84-%EC%A0%84%EC%A3%BC%EC%8B%9C-%EC%9D%B8%ED%9B%84%EB%8F%991%EA%B0%80/", "workingTime": ["-", "09:00~20:00", "09:00~20:00", "09:00~20:00", "09:00~20:00", "09:00~20:00", "09:00~18:00", "09:00~18:00"]}, {"name": "\uc778\ud6c4\uc885\ub85c\uc57d\uad6d", "lat": "35.832650000000001", "lng": "127.163113888888887", "url": "/info/%EC%9D%B8%ED%9B%84%EC%A2%85%EB%A1%9C%EC%95%BD%EA%B5%AD-%EC%A0%84%EB%9D%BC%EB%B6%81%EB%8F%84-%EC%A0%84%EC%A3%BC%EC%8B%9C-%EC%9D%B8%ED%9B%84%EB%8F%991%EA%B0%80/", "workingTime": ["-", "09:00~19:00", "09:00~19:00", "09:00~19:00", "09:00~19:00", "09:00~19:00", "09:00~16:00", "09:00~14:00"]}, {"name": "\uc544\uc911\uc885\ub85c\uc57d\uad6d", "lat": "35.833732893227975", "lng": "127.16159493569336", "url": "/info/%EC%95%84%EC%A4%91%EC%A2%85%EB%A1%9C%EC%95%BD%EA%B5%AD-%EC%A0%84%EB%9D%BC%EB%B6%81%EB%8F%84-%EC%A0%84%EC%A3%BC%EC%8B%9C-%EC%9D%B8%ED%9B%84%EB%8F%991%EA%B0%80/", "workingTime": ["-", "09:00~18:10", "09:00~18:10", "09:00~18:10", "09:00~18:10", "09:00~18:10", "09:00~12:10", "-"]}, {"name": "\uc544\uc911\uc0c8\ucc9c\ub144\uc57d\uad6d", "lat": "35.834061830974264", "lng": "127.16273755109424", "url": "/info/%EC%95%84%EC%A4%91%EC%83%88%EC%B2%9C%EB%85%84%EC%95%BD%EA%B5%AD-%EC%A0%84%EB%9D%BC%EB%B6%81%EB%8F%84-%EC%A0%84%EC%A3%BC%EC%8B%9C-%EC%9D%B8%ED%9B%84%EB%8F%991%EA%B0%80/", "workingTime": ["-", "08:30~20:00", "08:30~20:00", "08:30~20:00", "08:30~20:00", "08:30~20:00", "08:30~14:00", "-"]}, {"name": "\uc544\uc911\ub300\uc131\uc57d\uad6d", "lat": "35.831386088318716", "lng": "127.16423752911476", "url": "/info/%EC%95%84%EC%A4%91%EB%8C%80%EC%84%B1%EC%95%BD%EA%B5%AD-%EC%A0%84%EB%9D%BC%EB%B6%81%EB%8F%84-%EC%A0%84%EC%A3%BC%EC%8B%9C-%EC%9D%B8%ED%9B%84%EB%8F%991%EA%B0%80/", "workingTime": ["-", "08:30~21:00", "08:30~21:00", "08:30~21:00", "08:30~21:00", "08:30~21:00", "08:30~18:00", "08:30~12:30"]}, {"name": "\uc544\uc911\uac74\uac15\uc57d\uad6d", "lat": "35.826647751875804", "lng": "127.1669211411874", "url": "/info/%EC%95%84%EC%A4%91%EA%B1%B4%EA%B0%95%EC%95%BD%EA%B5%AD-%EC%A0%84%EB%9D%BC%EB%B6%81%EB%8F%84-%EC%A0%84%EC%A3%BC%EC%8B%9C-%EC%9D%B8%ED%9B%84%EB%8F%991%EA%B0%80/", "workingTime": ["-", "09:00~19:00", "09:00~19:00", "09:00~19:00", "09:00~19:00", "09:00~19:00", "09:00~13:00", "-"]}, {"name": "\uc544\uc911E\ub9c8\ud2b8\uc57d\uad6d", "lat": "35.83126479329371", "lng": "127.16372126515021", "url": "/info/%EC%95%84%EC%A4%91E%EB%A7%88%ED%8A%B8%EC%95%BD%EA%B5%AD-%EC%A0%84%EB%9D%BC%EB%B6%81%EB%8F%84-%EC%A0%84%EC%A3%BC%EC%8B%9C-%EC%9D%B8%ED%9B%84%EB%8F%991%EA%B0%80/", "workingTime": ["-", "08:50~19:30", "08:50~19:30", "08:50~19:30", "08:50~19:30", "08:50~19:30", "08:50~14:30", "-"]}, {"name": "\uc544\ub984\ub2e4\uc6b4\uc57d\uad6d", "lat": "35.82620422187128", "lng": "127.16569844948677", "url": "/info/%EC%95%84%EB%A6%84%EB%8B%A4%EC%9A%B4%EC%95%BD%EA%B5%AD-%EC%A0%84%EB%9D%BC%EB%B6%81%EB%8F%84-%EC%A0%84%EC%A3%BC%EC%8B%9C-%EC%9D%B8%ED%9B%84%EB%8F%991%EA%B0%80/", "workingTime": ["-", "08:30~19:00", "08:30~19:00", "08:30~19:00", "08:30~19:00", "08:30~19:00", "08:30~13:00", "-"]}, {"name": "\uba85\ub791\uc57d\uad6d", "lat": "35.83556151667217", "lng": "127.14966296112257", "url": "/info/%EB%AA%85%EB%9E%91%EC%95%BD%EA%B5%AD-%EC%A0%84%EB%9D%BC%EB%B6%81%EB%8F%84-%EC%A0%84%EC%A3%BC%EC%8B%9C-%EC%9D%B8%ED%9B%84%EB%8F%991%EA%B0%80/", "workingTime": ["-", "09:00~19:00", "09:00~19:00", "09:00~19:00", "09:00~19:00", "09:00~19:00", "09:00~13:30", "-"]}, {"name": "\uc0c8\ud3c9\ud654\uc57d\uad6d", "lat": "35.83692920407028", "lng": "127.15557454383474", "url": "/info/%EC%83%88%ED%8F%89%ED%99%94%EC%95%BD%EA%B5%AD-%EC%A0%84%EB%9D%BC%EB%B6%81%EB%8F%84-%EC%A0%84%EC%A3%BC%EC%8B%9C-%EC%9D%B8%ED%9B%84%EB%8F%991%EA%B0%80/", "workingTime": ["1,2,3,4,5\uc9f8\uc8fc10:00~20:00", "08:30~22:00", "08:30~22:00", "08:30~22:00", "08:30~22:00", "08:30~22:00", "08:30~21:00", "10:00~20:00"]}, {"name": "\uc0ac\ub791\ub179\uc2ed\uc790\uc57d\uad6d", "lat": "35.825825069459", "lng": "127.16615028701925", "url": "/info/%EC%82%AC%EB%9E%91%EB%85%B9%EC%8B%AD%EC%9E%90%EC%95%BD%EA%B5%AD-%EC%A0%84%EB%9D%BC%EB%B6%81%EB%8F%84-%EC%A0%84%EC%A3%BC%EC%8B%9C-%EC%9D%B8%ED%9B%84%EB%8F%991%EA%B0%80/", "workingTime": ["-", "09:00~18:30", "09:00~18:30", "09:00~18:30", "09:00~18:30", "09:00~18:30", "09:00~13:00", "-"]}, {"name": "\ud544\uc57d\uad6d", "lat": "35.83476835645088", "lng": "127.16344623161168", "url": "/info/%ED%95%84%EC%95%BD%EA%B5%AD-%EC%A0%84%EB%9D%BC%EB%B6%81%EB%8F%84-%EC%A0%84%EC%A3%BC%EC%8B%9C-%EC%9D%B8%ED%9B%84%EB%8F%991%EA%B0%80/", "workingTime": ["-", "08:30~18:00", "08:30~18:00", "08:30~12:30", "08:30~18:00", "08:30~18:00", "08:30~12:30", "-"]}, {"name": "\uc870\uc57d\uad6d", "lat": "35.826273294934126", "lng": "127.16593320717173", "url": "/info/%EC%A1%B0%EC%95%BD%EA%B5%AD-%EC%A0%84%EB%9D%BC%EB%B6%81%EB%8F%84-%EC%A0%84%EC%A3%BC%EC%8B%9C-%EC%9D%B8%ED%9B%84%EB%8F%991%EA%B0%80/", "workingTime": ["-", "09:00~19:00", "09:00~19:00", "09:00~19:00", "09:00~19:00", "09:00~19:00", "09:00~14:00", "-"]}, {"name": "\ud0d1\ud589\ubcf5\ud55c\uc57d\uad6d", "lat": "35.825416028404376", "lng": "127.16344031800322", "url": "/info/%ED%83%91%ED%96%89%EB%B3%B5%ED%95%9C%EC%95%BD%EA%B5%AD-%EC%A0%84%EB%9D%BC%EB%B6%81%EB%8F%84-%EC%A0%84%EC%A3%BC%EC%8B%9C-%EC%9D%B8%ED%9B%84%EB%8F%991%EA%B0%80/", "workingTime": ["-", "09:00~18:00", "09:00~18:00", "09:00~18:00", "09:00~18:00", "09:00~18:00", "09:00~13:00", "-"]}]