[{"name": "\uc628\ub9ac\uc57d\uad6d", "lat": "34.72837725303291", "lng": "127.721529461492", "url": "/info/%EC%98%A8%EB%A6%AC%EC%95%BD%EA%B5%AD-%EC%A0%84%EB%9D%BC%EB%82%A8%EB%8F%84-%EC%97%AC%EC%88%98%EC%8B%9C-%EA%B5%AD%EB%8F%99/", "workingTime": ["1,3,5\uc9f8\uc8fc10:00~22:00", "10:00~22:00", "10:00~22:00", "10:00~22:00", "10:00~22:00", "10:00~22:00", "10:00~22:00", "-"]}, {"name": "\ub300\ud765\uc57d\uad6d", "lat": "34.73257197424813", "lng": "127.71888114002944", "url": "/info/%EB%8C%80%ED%9D%A5%EC%95%BD%EA%B5%AD-%EC%A0%84%EB%9D%BC%EB%82%A8%EB%8F%84-%EC%97%AC%EC%88%98%EC%8B%9C-%EA%B5%AD%EB%8F%99/", "workingTime": ["-", "08:40~18:00", "08:40~18:00", "08:40~18:00", "08:40~18:00", "08:40~18:00", "08:40~13:00", "-"]}, {"name": "\ucd08\uc6d0\uc57d\uad6d", "lat": "34.7312814502958", "lng": "127.7179904985197", "url": "/info/%EC%B4%88%EC%9B%90%EC%95%BD%EA%B5%AD-%EC%A0%84%EB%9D%BC%EB%82%A8%EB%8F%84-%EC%97%AC%EC%88%98%EC%8B%9C-%EA%B5%AD%EB%8F%99/", "workingTime": ["-", "08:50~20:00", "08:50~20:00", "08:50~20:00", "08:50~20:00", "08:50~20:00", "08:30~16:00", "-"]}, {"name": "\ube44\ud0c0\ubbfc\uc57d\uad6d", "lat": "34.7303580856431", "lng": "127.71483147111894", "url": "/info/%EB%B9%84%ED%83%80%EB%AF%BC%EC%95%BD%EA%B5%AD-%EC%A0%84%EB%9D%BC%EB%82%A8%EB%8F%84-%EC%97%AC%EC%88%98%EC%8B%9C-%EA%B5%AD%EB%8F%99/", "workingTime": ["-", "09:00~18:00", "09:00~18:00", "09:00~18:00", "09:00~18:00", "09:00~18:00", "09:00~13:00", "-"]}, {"name": "\ud76c\ub9dd\uc57d\uad6d", "lat": "34.73442544363627", "lng": "127.7195321362118", "url": "/info/%ED%9D%AC%EB%A7%9D%EC%95%BD%EA%B5%AD-%EC%A0%84%EB%9D%BC%EB%82%A8%EB%8F%84-%EC%97%AC%EC%88%98%EC%8B%9C-%EA%B5%AD%EB%8F%99/", "workingTime": ["-", "09:00~18:00", "09:00~18:00", "09:00~18:00", "09:00~18:00", "09:00~18:00", "09:00~14:00", "-"]}]