[{"name": "\ubc31\uc138\uc57d\uad6d", "lat": "35.943552777777775", "lng": "126.948808333333332", "url": "/info/%EB%B0%B1%EC%84%B8%EC%95%BD%EA%B5%AD-%EC%A0%84%EB%9D%BC%EB%B6%81%EB%8F%84-%EC%9D%B5%EC%82%B0%EC%8B%9C-%EC%B0%BD%EC%9D%B8%EB%8F%991%EA%B0%80/", "workingTime": ["-", "09:00~18:30", "09:00~18:30", "09:00~18:30", "09:00~18:30", "09:00~18:30", "09:00~13:30", "-"]}, {"name": "\uc544\ub984\ub2e4\uc6b4\uc57d\uad6d", "lat": "35.9424191259", "lng": "126.9483227105", "url": "/info/%EC%95%84%EB%A6%84%EB%8B%A4%EC%9A%B4%EC%95%BD%EA%B5%AD-%EC%A0%84%EB%9D%BC%EB%B6%81%EB%8F%84-%EC%9D%B5%EC%82%B0%EC%8B%9C-%EC%B0%BD%EC%9D%B8%EB%8F%991%EA%B0%80/", "workingTime": ["-", "09:00~18:00", "09:00~18:00", "09:00~18:00", "09:00~18:00", "09:00~18:00", "09:00~13:00", "-"]}, {"name": "\ubc94\uc0dd\uc885\ud569\uc57d\uad6d", "lat": "35.939439050677656", "lng": "126.9536024171322", "url": "/info/%EB%B2%94%EC%83%9D%EC%A2%85%ED%95%A9%EC%95%BD%EA%B5%AD-%EC%A0%84%EB%9D%BC%EB%B6%81%EB%8F%84-%EC%9D%B5%EC%82%B0%EC%8B%9C-%EC%B0%BD%EC%9D%B8%EB%8F%991%EA%B0%80/", "workingTime": ["1,2,3,4,5\uc9f8\uc8fc10:00~20:00", "08:30~20:00", "08:30~20:00", "08:30~20:00", "08:30~20:00", "08:30~20:00", "08:30~20:00", "10:00~20:00"]}, {"name": "\uc601\uc591\uacfc\uac74\uac15\uc57d\uad6d", "lat": "35.94278326774465", "lng": "126.94841557014463", "url": "/info/%EC%98%81%EC%96%91%EA%B3%BC%EA%B1%B4%EA%B0%95%EC%95%BD%EA%B5%AD-%EC%A0%84%EB%9D%BC%EB%B6%81%EB%8F%84-%EC%9D%B5%EC%82%B0%EC%8B%9C-%EC%B0%BD%EC%9D%B8%EB%8F%991%EA%B0%80/", "workingTime": ["-", "09:00~21:00", "09:00~21:00", "09:00~21:00", "09:00~21:00", "09:00~21:00", "09:00~21:00", "-"]}, {"name": "\uc190\uc57d\uad6d", "lat": "35.944314752589115", "lng": "126.94910618035324", "url": "/info/%EC%86%90%EC%95%BD%EA%B5%AD-%EC%A0%84%EB%9D%BC%EB%B6%81%EB%8F%84-%EC%9D%B5%EC%82%B0%EC%8B%9C-%EC%B0%BD%EC%9D%B8%EB%8F%991%EA%B0%80/", "workingTime": ["-", "09:00~19:30", "09:00~19:30", "09:00~19:30", "09:00~19:30", "09:00~19:30", "09:00~19:30", "09:00~19:30"]}, {"name": "\uc624\uc57d\uad6d", "lat": "35.941527777777779", "lng": "126.953958333333333", "url": "/info/%EC%98%A4%EC%95%BD%EA%B5%AD-%EC%A0%84%EB%9D%BC%EB%B6%81%EB%8F%84-%EC%9D%B5%EC%82%B0%EC%8B%9C-%EC%B0%BD%EC%9D%B8%EB%8F%991%EA%B0%80/", "workingTime": ["-", "09:00~18:00", "09:00~18:00", "09:00~18:00", "09:00~18:00", "09:00~18:00", "09:00~14:00", "-"]}, {"name": "\ud589\ubcf5\uc57d\uad6d", "lat": "35.9405989612", "lng": "126.9491307111", "url": "/info/%ED%96%89%EB%B3%B5%EC%95%BD%EA%B5%AD-%EC%A0%84%EB%9D%BC%EB%B6%81%EB%8F%84-%EC%9D%B5%EC%82%B0%EC%8B%9C-%EC%B0%BD%EC%9D%B8%EB%8F%991%EA%B0%80/", "workingTime": ["-", "09:00~18:30", "09:00~18:30", "09:00~18:30", "09:00~18:30", "09:00~18:30", "09:00~12:00", "-"]}, {"name": "\uc0bc\ud55c\ub2f9\uc57d\uad6d", "lat": "35.940802777777776", "lng": "126.948130555555551", "url": "/info/%EC%82%BC%ED%95%9C%EB%8B%B9%EC%95%BD%EA%B5%AD-%EC%A0%84%EB%9D%BC%EB%B6%81%EB%8F%84-%EC%9D%B5%EC%82%B0%EC%8B%9C-%EC%B0%BD%EC%9D%B8%EB%8F%991%EA%B0%80/", "workingTime": ["-", "09:00~18:00", "09:00~18:00", "09:00~18:00", "09:00~18:00", "09:00~18:00", "09:00~12:00", "-"]}, {"name": "\uc19c\ub9ac\uc57d\uad6d", "lat": "35.941555555555553", "lng": "126.947963888888893", "url": "/info/%EC%86%9C%EB%A6%AC%EC%95%BD%EA%B5%AD-%EC%A0%84%EB%9D%BC%EB%B6%81%EB%8F%84-%EC%9D%B5%EC%82%B0%EC%8B%9C-%EC%B0%BD%EC%9D%B8%EB%8F%991%EA%B0%80/", "workingTime": ["-", "08:30~18:00", "08:30~18:00", "08:30~18:00", "08:30~18:00", "08:30~18:00", "08:30~13:00", "-"]}, {"name": "\ubbfc\uc9c0\uc57d\uad6d", "lat": "35.94083558407492", "lng": "126.95105971742575", "url": "/info/%EB%AF%BC%EC%A7%80%EC%95%BD%EA%B5%AD-%EC%A0%84%EB%9D%BC%EB%B6%81%EB%8F%84-%EC%9D%B5%EC%82%B0%EC%8B%9C-%EC%B0%BD%EC%9D%B8%EB%8F%991%EA%B0%80/", "workingTime": ["-", "09:00~18:00", "09:00~18:00", "09:00~18:00", "09:00~18:00", "09:00~18:00", "09:00~13:00", "-"]}]