[{"name": "\ub2e4\uc19c\uc57d\uad6d", "lat": "34.96042422075358", "lng": "127.52034908457689", "url": "/info/%EB%8B%A4%EC%86%9C%EC%95%BD%EA%B5%AD-%EC%A0%84%EB%9D%BC%EB%82%A8%EB%8F%84-%EC%88%9C%EC%B2%9C%EC%8B%9C-%EC%A1%B0%EB%A1%80%EB%8F%99/", "workingTime": ["1,2,3,4,5\uc9f8\uc8fc09:00~18:00", "08:30~22:00", "08:30~22:00", "08:30~22:00", "08:30~22:00", "08:30~22:00", "08:30~20:00", "09:00~18:00"]}, {"name": "\ubbf8\uc18c\ud070\uc57d\uad6d", "lat": "34.9596175112652", "lng": "127.522384824831", "url": "/info/%EB%AF%B8%EC%86%8C%ED%81%B0%EC%95%BD%EA%B5%AD-%EC%A0%84%EB%9D%BC%EB%82%A8%EB%8F%84-%EC%88%9C%EC%B2%9C%EC%8B%9C-%EC%A1%B0%EB%A1%80%EB%8F%99/", "workingTime": ["1,2,3,4,5\uc9f8\uc8fc09:00~12:30", "09:00~19:20", "09:00~19:20", "09:00~19:20", "09:00~19:20", "09:00~19:20", "09:00~16:20", "-"]}, {"name": "\ud638\uc218\uc57d\uad6d", "lat": "34.9662855140374", "lng": "127.520919704508", "url": "/info/%ED%98%B8%EC%88%98%EC%95%BD%EA%B5%AD-%EC%A0%84%EB%9D%BC%EB%82%A8%EB%8F%84-%EC%88%9C%EC%B2%9C%EC%8B%9C-%EC%A1%B0%EB%A1%80%EB%8F%99/", "workingTime": ["-", "09:00~19:00", "09:00~19:00", "09:00~19:00", "09:00~19:00", "09:00~19:00", "09:00~13:30", "-"]}, {"name": "\uac74\uac15\ub4dc\ub9bc\uc57d\uad6d", "lat": "34.9545975041", "lng": "127.5229222745", "url": "/info/%EA%B1%B4%EA%B0%95%EB%93%9C%EB%A6%BC%EC%95%BD%EA%B5%AD-%EC%A0%84%EB%9D%BC%EB%82%A8%EB%8F%84-%EC%88%9C%EC%B2%9C%EC%8B%9C-%EC%A1%B0%EB%A1%80%EB%8F%99/", "workingTime": ["-", "08:00~18:30", "08:00~18:30", "08:00~18:30", "08:00~18:30", "08:00~18:30", "08:00~13:00", "-"]}, {"name": "\uc2e0\ub300\ud0c0\uc6b4\uc628\ub204\ub9ac\uc57d\uad6d", "lat": "34.963268401646076", "lng": "127.54029473410968", "url": "/info/%EC%8B%A0%EB%8C%80%ED%83%80%EC%9A%B4%EC%98%A8%EB%88%84%EB%A6%AC%EC%95%BD%EA%B5%AD-%EC%A0%84%EB%9D%BC%EB%82%A8%EB%8F%84-%EC%88%9C%EC%B2%9C%EC%8B%9C-%EC%A1%B0%EB%A1%80%EB%8F%99/", "workingTime": ["1,2,3,4,5\uc9f8\uc8fc09:00~13:00", "08:30~21:00", "08:30~21:00", "08:30~21:00", "08:30~21:00", "08:30~21:00", "08:30~18:00", "-"]}, {"name": "\ud2bc\ud2bc\uc57d\uad6d", "lat": "34.9539100565315", "lng": "127.518562453738", "url": "/info/%ED%8A%BC%ED%8A%BC%EC%95%BD%EA%B5%AD-%EC%A0%84%EB%9D%BC%EB%82%A8%EB%8F%84-%EC%88%9C%EC%B2%9C%EC%8B%9C-%EC%A1%B0%EB%A1%80%EB%8F%99/", "workingTime": ["-", "09:00~18:00", "09:00~18:00", "09:00~18:00", "09:00~18:00", "09:00~18:00", "09:00~13:00", "-"]}, {"name": "\uc0c8\ub85c\uc6b4\uc57d\uad6d", "lat": "34.9498764642525", "lng": "127.52826730979125", "url": "/info/%EC%83%88%EB%A1%9C%EC%9A%B4%EC%95%BD%EA%B5%AD-%EC%A0%84%EB%9D%BC%EB%82%A8%EB%8F%84-%EC%88%9C%EC%B2%9C%EC%8B%9C-%EC%A1%B0%EB%A1%80%EB%8F%99/", "workingTime": ["-", "08:30~19:00", "08:30~19:00", "08:30~19:00", "08:30~19:00", "08:30~19:00", "08:30~12:50", "-"]}, {"name": "\ud558\ub298\ube5b\uc57d\uad6d", "lat": "34.959629207577", "lng": "127.521991509044", "url": "/info/%ED%95%98%EB%8A%98%EB%B9%9B%EC%95%BD%EA%B5%AD-%EC%A0%84%EB%9D%BC%EB%82%A8%EB%8F%84-%EC%88%9C%EC%B2%9C%EC%8B%9C-%EC%A1%B0%EB%A1%80%EB%8F%99/", "workingTime": ["-", "08:30~19:30", "08:30~19:30", "08:30~19:30", "08:30~19:30", "08:30~19:30", "08:30~16:30", "-"]}, {"name": "\uc5ec\uc131\uc544\ub3d9\uc57d\uad6d", "lat": "34.95318694082756", "lng": "127.52310601412696", "url": "/info/%EC%97%AC%EC%84%B1%EC%95%84%EB%8F%99%EC%95%BD%EA%B5%AD-%EC%A0%84%EB%9D%BC%EB%82%A8%EB%8F%84-%EC%88%9C%EC%B2%9C%EC%8B%9C-%EC%A1%B0%EB%A1%80%EB%8F%99/", "workingTime": ["1,2,3,4,5\uc9f8\uc8fc09:00~13:00", "09:00~21:00", "09:00~21:00", "09:00~21:00", "09:00~21:00", "09:00~21:00", "09:00~16:00", "-"]}, {"name": "\ub3c4\ub2f4\uc57d\uad6d", "lat": "34.9533649692803", "lng": "127.522186954941", "url": "/info/%EB%8F%84%EB%8B%B4%EC%95%BD%EA%B5%AD-%EC%A0%84%EB%9D%BC%EB%82%A8%EB%8F%84-%EC%88%9C%EC%B2%9C%EC%8B%9C-%EC%A1%B0%EB%A1%80%EB%8F%99/", "workingTime": ["1,2,3,4,5\uc9f8\uc8fc09:00~13:00", "09:00~19:00", "09:00~19:00", "09:00~19:00", "09:00~19:00", "09:00~19:00", "09:00~16:00", "-"]}, {"name": "\uba54\ub514\ud0c0\uc6b4\uc815\uaca8\uc6b4\uc57d\uad6d", "lat": "34.960444444444441", "lng": "127.519750000000002", "url": "/info/%EB%A9%94%EB%94%94%ED%83%80%EC%9A%B4%EC%A0%95%EA%B2%A8%EC%9A%B4%EC%95%BD%EA%B5%AD-%EC%A0%84%EB%9D%BC%EB%82%A8%EB%8F%84-%EC%88%9C%EC%B2%9C%EC%8B%9C-%EC%A1%B0%EB%A1%80%EB%8F%99/", "workingTime": ["1,2,3,4,5\uc9f8\uc8fc09:00~13:00", "08:30~20:00", "08:30~20:00", "08:30~20:00", "08:30~20:00", "08:30~20:00", "08:30~18:00", "09:00~13:00"]}, {"name": "\uba85\uc131\uc628\ub204\ub9ac\uc57d\uad6d", "lat": "34.96091269084408", "lng": "127.5182587308634", "url": "/info/%EB%AA%85%EC%84%B1%EC%98%A8%EB%88%84%EB%A6%AC%EC%95%BD%EA%B5%AD-%EC%A0%84%EB%9D%BC%EB%82%A8%EB%8F%84-%EC%88%9C%EC%B2%9C%EC%8B%9C-%EC%A1%B0%EB%A1%80%EB%8F%99/", "workingTime": ["1,2,3,4,5\uc9f8\uc8fc15:00~20:00", "08:30~20:00", "08:30~20:00", "08:30~20:00", "08:30~20:00", "08:30~20:00", "08:30~20:00", "08:30~20:00"]}, {"name": "\ub204\uc5d8\uc57d\uad6d", "lat": "34.959933088", "lng": "127.5222160257", "url": "/info/%EB%88%84%EC%97%98%EC%95%BD%EA%B5%AD-%EC%A0%84%EB%9D%BC%EB%82%A8%EB%8F%84-%EC%88%9C%EC%B2%9C%EC%8B%9C-%EC%A1%B0%EB%A1%80%EB%8F%99/", "workingTime": ["1,2,3,4,5\uc9f8\uc8fc09:00~12:30", "09:00~21:30", "09:00~21:30", "09:00~21:30", "09:00~21:30", "09:00~21:30", "09:00~17:30", "09:00~12:30"]}, {"name": "\ud589\ubcf5\ud55c\uc628\ub204\ub9ac\uc57d\uad6d", "lat": "34.953679665317516", "lng": "127.5271434812511", "url": "/info/%ED%96%89%EB%B3%B5%ED%95%9C%EC%98%A8%EB%88%84%EB%A6%AC%EC%95%BD%EA%B5%AD-%EC%A0%84%EB%9D%BC%EB%82%A8%EB%8F%84-%EC%88%9C%EC%B2%9C%EC%8B%9C-%EC%A1%B0%EB%A1%80%EB%8F%99/", "workingTime": ["-", "09:00~18:30", "09:00~18:30", "09:00~18:30", "09:00~18:30", "09:00~18:30", "09:00~13:00", "-"]}, {"name": "\ud55c\ub9c8\uc74c\uc57d\uad6d", "lat": "34.9536061028", "lng": "127.5220576558", "url": "/info/%ED%95%9C%EB%A7%88%EC%9D%8C%EC%95%BD%EA%B5%AD-%EC%A0%84%EB%9D%BC%EB%82%A8%EB%8F%84-%EC%88%9C%EC%B2%9C%EC%8B%9C-%EC%A1%B0%EB%A1%80%EB%8F%99/", "workingTime": ["1,2,3,4,5\uc9f8\uc8fc09:00~13:00", "09:00~19:00", "09:00~19:00", "09:00~19:00", "09:00~19:00", "09:00~19:00", "09:00~19:00", "09:00~13:00"]}, {"name": "\ud604\ub300\uc628\ub204\ub9ac\uc57d\uad6d", "lat": "34.952981932486075", "lng": "127.52267445901333", "url": "/info/%ED%98%84%EB%8C%80%EC%98%A8%EB%88%84%EB%A6%AC%EC%95%BD%EA%B5%AD-%EC%A0%84%EB%9D%BC%EB%82%A8%EB%8F%84-%EC%88%9C%EC%B2%9C%EC%8B%9C-%EC%A1%B0%EB%A1%80%EB%8F%99/", "workingTime": ["1,2,3,4,5\uc9f8\uc8fc09:00~13:00", "09:00~21:00", "09:00~21:00", "09:00~21:00", "09:00~21:00", "09:00~21:00", "09:00~16:00", "09:00~13:00"]}, {"name": "\uc870\ub840\ud070\uc57d\uad6d", "lat": "34.95411191051534", "lng": "127.51927763854509", "url": "/info/%EC%A1%B0%EB%A1%80%ED%81%B0%EC%95%BD%EA%B5%AD-%EC%A0%84%EB%9D%BC%EB%82%A8%EB%8F%84-%EC%88%9C%EC%B2%9C%EC%8B%9C-%EC%A1%B0%EB%A1%80%EB%8F%99/", "workingTime": ["-", "08:30~18:30", "08:30~18:30", "08:30~18:30", "08:30~18:30", "08:30~18:30", "08:30~16:00", "-"]}, {"name": "\ubc1d\uc740\uc57d\uad6d", "lat": "34.95379491003454", "lng": "127.51836477497216", "url": "/info/%EB%B0%9D%EC%9D%80%EC%95%BD%EA%B5%AD-%EC%A0%84%EB%9D%BC%EB%82%A8%EB%8F%84-%EC%88%9C%EC%B2%9C%EC%8B%9C-%EC%A1%B0%EB%A1%80%EB%8F%99/", "workingTime": ["2,4\uc9f8\uc8fc09:00~12:00", "08:30~18:30", "08:30~18:30", "08:30~18:30", "08:30~18:30", "08:30~18:30", "08:30~13:00", "09:00~12:00"]}, {"name": "\uc138\ube0c\ub780\uc2a4\uc57d\uad6d", "lat": "34.95382837522749", "lng": "127.5181396886653", "url": "/info/%EC%84%B8%EB%B8%8C%EB%9E%80%EC%8A%A4%EC%95%BD%EA%B5%AD-%EC%A0%84%EB%9D%BC%EB%82%A8%EB%8F%84-%EC%88%9C%EC%B2%9C%EC%8B%9C-%EC%A1%B0%EB%A1%80%EB%8F%99/", "workingTime": ["-", "09:00~18:30", "09:00~18:30", "09:00~18:30", "09:00~18:30", "09:00~18:30", "09:00~15:00", "-"]}, {"name": "\uc815\uc57d\uad6d", "lat": "34.953370745", "lng": "127.5172346824", "url": "/info/%EC%A0%95%EC%95%BD%EA%B5%AD-%EC%A0%84%EB%9D%BC%EB%82%A8%EB%8F%84-%EC%88%9C%EC%B2%9C%EC%8B%9C-%EC%A1%B0%EB%A1%80%EB%8F%99/", "workingTime": ["1,2,3,4,5\uc9f8\uc8fc10:00~13:00", "09:00~19:00", "09:00~19:00", "09:00~19:00", "09:00~19:00", "09:00~19:00", "09:00~13:00", "09:00~13:00"]}, {"name": "\uc740\uc57d\uad6d", "lat": "34.95252457072313", "lng": "127.51610155580505", "url": "/info/%EC%9D%80%EC%95%BD%EA%B5%AD-%EC%A0%84%EB%9D%BC%EB%82%A8%EB%8F%84-%EC%88%9C%EC%B2%9C%EC%8B%9C-%EC%A1%B0%EB%A1%80%EB%8F%99/", "workingTime": ["-", "08:30~18:30", "08:30~18:30", "08:30~18:30", "08:30~18:30", "08:30~18:30", "08:30~14:00", "-"]}, {"name": "\uc628\ub204\ub9ac\ubcf4\uac74\uc57d\uad6d", "lat": "34.955565594927904", "lng": "127.53328109876962", "url": "/info/%EC%98%A8%EB%88%84%EB%A6%AC%EB%B3%B4%EA%B1%B4%EC%95%BD%EA%B5%AD-%EC%A0%84%EB%9D%BC%EB%82%A8%EB%8F%84-%EC%88%9C%EC%B2%9C%EC%8B%9C-%EC%A1%B0%EB%A1%80%EB%8F%99/", "workingTime": ["-", "08:30~20:30", "08:30~20:30", "08:30~20:30", "08:30~20:30", "08:30~20:30", "08:30~20:30", "-"]}, {"name": "\ubfcc\ub9ac\uae4a\uc740\ud55c\uc57d\uad6d", "lat": "34.956933628362655", "lng": "127.53374979405548", "url": "/info/%EB%BF%8C%EB%A6%AC%EA%B9%8A%EC%9D%80%ED%95%9C%EC%95%BD%EA%B5%AD-%EC%A0%84%EB%9D%BC%EB%82%A8%EB%8F%84-%EC%88%9C%EC%B2%9C%EC%8B%9C-%EC%A1%B0%EB%A1%80%EB%8F%99/", "workingTime": ["-", "10:00~18:00", "10:00~18:00", "10:00~18:00", "10:00~18:00", "10:00~18:00", "10:00~18:00", "-"]}, {"name": "\ub354\ub4dc\ub9bc\uc57d\uad6d", "lat": "34.96044327878739", "lng": "127.5201126943031", "url": "/info/%EB%8D%94%EB%93%9C%EB%A6%BC%EC%95%BD%EA%B5%AD-%EC%A0%84%EB%9D%BC%EB%82%A8%EB%8F%84-%EC%88%9C%EC%B2%9C%EC%8B%9C-%EC%A1%B0%EB%A1%80%EB%8F%99/", "workingTime": ["-", "09:00~21:00", "09:00~21:00", "09:00~21:00", "09:00~21:00", "09:00~21:00", "09:00~20:30", "09:00~20:30"]}, {"name": "\ud50c\ub7ec\uc2a4\uc870\uc740\uc57d\uad6d", "lat": "34.96047839495071", "lng": "127.52033189425988", "url": "/info/%ED%94%8C%EB%9F%AC%EC%8A%A4%EC%A1%B0%EC%9D%80%EC%95%BD%EA%B5%AD-%EC%A0%84%EB%9D%BC%EB%82%A8%EB%8F%84-%EC%88%9C%EC%B2%9C%EC%8B%9C-%EC%A1%B0%EB%A1%80%EB%8F%99/", "workingTime": ["1,3\uc9f8\uc8fc10:00~16:00", "09:00~21:00", "09:00~21:00", "09:00~21:00", "09:00~21:00", "09:00~21:00", "09:00~16:00", "10:00~18:00"]}, {"name": "\uc21c\ucc9c\uc885\ub85c\uc57d\uad6d", "lat": "34.96038242719825", "lng": "127.52083239839263", "url": "/info/%EC%88%9C%EC%B2%9C%EC%A2%85%EB%A1%9C%EC%95%BD%EA%B5%AD-%EC%A0%84%EB%9D%BC%EB%82%A8%EB%8F%84-%EC%88%9C%EC%B2%9C%EC%8B%9C-%EC%A1%B0%EB%A1%80%EB%8F%99/", "workingTime": ["-", "08:00~18:30", "08:00~18:30", "08:00~18:30", "08:00~18:30", "08:00~20:00", "08:00~14:00", "-"]}, {"name": "365\ubcf4\ubc30\uc57d\uad6d", "lat": "34.961714418732114", "lng": "127.51792836626547", "url": "/info/365%EB%B3%B4%EB%B0%B0%EC%95%BD%EA%B5%AD-%EC%A0%84%EB%9D%BC%EB%82%A8%EB%8F%84-%EC%88%9C%EC%B2%9C%EC%8B%9C-%EC%A1%B0%EB%A1%80%EB%8F%99/", "workingTime": ["1,2,3,4,5\uc9f8\uc8fc13:00~22:00", "08:30~22:00", "08:30~22:00", "08:30~22:00", "08:30~22:00", "08:30~22:00", "08:30~22:00", "13:00~22:00"]}, {"name": "\uc655\uc9c0\uc57d\uad6d", "lat": "34.95339023924785", "lng": "127.53191822120965", "url": "/info/%EC%99%95%EC%A7%80%EC%95%BD%EA%B5%AD-%EC%A0%84%EB%9D%BC%EB%82%A8%EB%8F%84-%EC%88%9C%EC%B2%9C%EC%8B%9C-%EC%A1%B0%EB%A1%80%EB%8F%99/", "workingTime": ["-", "08:20~19:00", "08:20~19:00", "08:20~19:00", "08:20~19:00", "08:20~19:00", "08:20~13:00", "08:20~13:00"]}, {"name": "\ud558\uc601\uc57d\uad6d", "lat": "34.954839631254245", "lng": "127.5244653121103", "url": "/info/%ED%95%98%EC%98%81%EC%95%BD%EA%B5%AD-%EC%A0%84%EB%9D%BC%EB%82%A8%EB%8F%84-%EC%88%9C%EC%B2%9C%EC%8B%9C-%EC%A1%B0%EB%A1%80%EB%8F%99/", "workingTime": ["-", "09:00~18:30", "09:00~18:30", "09:00~18:30", "09:00~18:30", "09:00~18:30", "09:00~13:30", "-"]}, {"name": "\ubd04\ubd04\uc57d\uad6d", "lat": "34.9637769982011", "lng": "127.521021751802", "url": "/info/%EB%B4%84%EB%B4%84%EC%95%BD%EA%B5%AD-%EC%A0%84%EB%9D%BC%EB%82%A8%EB%8F%84-%EC%88%9C%EC%B2%9C%EC%8B%9C-%EC%A1%B0%EB%A1%80%EB%8F%99/", "workingTime": ["1,2,3,4,5\uc9f8\uc8fc09:00~13:00", "08:30~20:00", "08:30~20:00", "08:30~20:00", "08:30~20:00", "08:30~20:00", "08:30~16:00", "09:00~13:00"]}, {"name": "\ud0dc\ud3c9\uc591\uc57d\uad6d", "lat": "34.9528945043", "lng": "127.5164609588", "url": "/info/%ED%83%9C%ED%8F%89%EC%96%91%EC%95%BD%EA%B5%AD-%EC%A0%84%EB%9D%BC%EB%82%A8%EB%8F%84-%EC%88%9C%EC%B2%9C%EC%8B%9C-%EC%A1%B0%EB%A1%80%EB%8F%99/", "workingTime": ["-", "09:00~13:00", "09:00~13:00", "09:00~13:00", "09:00~13:00", "09:00~13:00", "09:00~15:00", "-"]}, {"name": "\uc2b9\uc8fc\uc57d\uad6d", "lat": "34.96546628314201", "lng": "127.54143914213867", "url": "/info/%EC%8A%B9%EC%A3%BC%EC%95%BD%EA%B5%AD-%EC%A0%84%EB%9D%BC%EB%82%A8%EB%8F%84-%EC%88%9C%EC%B2%9C%EC%8B%9C-%EC%A1%B0%EB%A1%80%EB%8F%99/", "workingTime": ["-", "08:30~18:30", "08:30~18:30", "08:30~18:30", "08:30~18:30", "08:30~18:30", "-", "-"]}, {"name": "\uc2ed\uc790\ub2f9\uc57d\uad6d", "lat": "34.954608377688075", "lng": "127.52290484111245", "url": "/info/%EC%8B%AD%EC%9E%90%EB%8B%B9%EC%95%BD%EA%B5%AD-%EC%A0%84%EB%9D%BC%EB%82%A8%EB%8F%84-%EC%88%9C%EC%B2%9C%EC%8B%9C-%EC%A1%B0%EB%A1%80%EB%8F%99/", "workingTime": ["-", "08:30~17:30", "08:30~17:30", "08:30~17:30", "08:30~17:30", "08:30~17:30", "-", "-"]}, {"name": "\uc628\ub204\ub9ac\uc870\ub840\uc81c\uc77c\uc57d\uad6d", "lat": "34.96067316661804", "lng": "127.52366599384285", "url": "/info/%EC%98%A8%EB%88%84%EB%A6%AC%EC%A1%B0%EB%A1%80%EC%A0%9C%EC%9D%BC%EC%95%BD%EA%B5%AD-%EC%A0%84%EB%9D%BC%EB%82%A8%EB%8F%84-%EC%88%9C%EC%B2%9C%EC%8B%9C-%EC%A1%B0%EB%A1%80%EB%8F%99/", "workingTime": ["-", "09:00~18:00", "09:00~18:00", "09:00~18:00", "09:00~18:00", "09:00~18:00", "-", "-"]}, {"name": "\ud574\ub9d1\uc740\uc57d\uad6d", "lat": "34.9540699531", "lng": "127.5189863841", "url": "/info/%ED%95%B4%EB%A7%91%EC%9D%80%EC%95%BD%EA%B5%AD-%EC%A0%84%EB%9D%BC%EB%82%A8%EB%8F%84-%EC%88%9C%EC%B2%9C%EC%8B%9C-%EC%A1%B0%EB%A1%80%EB%8F%99/", "workingTime": ["-", "08:00~13:00", "08:00~13:00", "08:00~13:00", "08:00~13:00", "08:00~13:00", "-", "-"]}, {"name": "\ubc14\ub978\uc57d\uad6d", "lat": "34.95421120384554", "lng": "127.52637941041121", "url": "/info/%EB%B0%94%EB%A5%B8%EC%95%BD%EA%B5%AD-%EC%A0%84%EB%9D%BC%EB%82%A8%EB%8F%84-%EC%88%9C%EC%B2%9C%EC%8B%9C-%EC%A1%B0%EB%A1%80%EB%8F%99/", "workingTime": ["-", "09:00~15:00", "09:00~15:00", "09:00~15:00", "09:00~15:00", "09:00~15:00", "-", "-"]}]