[{"name": "\uc815\ubb38\uc57d\uad6d", "lat": "35.9613833454591", "lng": "126.965497041436", "url": "/info/%EC%A0%95%EB%AC%B8%EC%95%BD%EA%B5%AD-%EC%A0%84%EB%9D%BC%EB%B6%81%EB%8F%84-%EC%9D%B5%EC%82%B0%EC%8B%9C-%EC%8B%A0%EB%8F%99/", "workingTime": ["-", "08:30~18:30", "08:30~18:30", "08:30~18:30", "08:30~18:30", "08:30~18:30", "08:30~13:00", "-"]}, {"name": "\ubc15\uc0ac\uc57d\uad6d", "lat": "35.96136009966526", "lng": "126.96550211896027", "url": "/info/%EB%B0%95%EC%82%AC%EC%95%BD%EA%B5%AD-%EC%A0%84%EB%9D%BC%EB%B6%81%EB%8F%84-%EC%9D%B5%EC%82%B0%EC%8B%9C-%EC%8B%A0%EB%8F%99/", "workingTime": ["-", "09:00~18:00", "09:00~18:00", "09:00~18:00", "09:00~18:00", "09:00~18:00", "09:00~12:00", "-"]}, {"name": "\ub300\ud559\uc885\ub85c\uc57d\uad6d", "lat": "35.96349494116444", "lng": "126.95842703745677", "url": "/info/%EB%8C%80%ED%95%99%EC%A2%85%EB%A1%9C%EC%95%BD%EA%B5%AD-%EC%A0%84%EB%9D%BC%EB%B6%81%EB%8F%84-%EC%9D%B5%EC%82%B0%EC%8B%9C-%EC%8B%A0%EB%8F%99/", "workingTime": ["-", "08:30~22:00", "08:30~22:00", "08:30~22:00", "08:30~22:00", "08:30~22:00", "08:30~22:00", "09:00~19:00"]}, {"name": "\uc2e0\ub3d9\uc57d\uad6d", "lat": "35.958582847869", "lng": "126.96094519637919", "url": "/info/%EC%8B%A0%EB%8F%99%EC%95%BD%EA%B5%AD-%EC%A0%84%EB%9D%BC%EB%B6%81%EB%8F%84-%EC%9D%B5%EC%82%B0%EC%8B%9C-%EC%8B%A0%EB%8F%99/", "workingTime": ["-", "09:00~19:00", "09:00~19:00", "09:00~19:00", "09:00~19:00", "09:00~19:00", "09:00~13:00", "-"]}, {"name": "\uc775\uc0b0\uc57d\uad6d", "lat": "35.96373895622045", "lng": "126.9590959415541", "url": "/info/%EC%9D%B5%EC%82%B0%EC%95%BD%EA%B5%AD-%EC%A0%84%EB%9D%BC%EB%B6%81%EB%8F%84-%EC%9D%B5%EC%82%B0%EC%8B%9C-%EC%8B%A0%EB%8F%99/", "workingTime": ["-", "08:30~19:00", "08:30~19:00", "08:30~19:00", "08:30~19:00", "08:30~19:00", "09:00~13:00", "-"]}, {"name": "\ub300\ud559\ud55c\uc57d\uad6d", "lat": "35.9637808692261", "lng": "126.95905200298", "url": "/info/%EB%8C%80%ED%95%99%ED%95%9C%EC%95%BD%EA%B5%AD-%EC%A0%84%EB%9D%BC%EB%B6%81%EB%8F%84-%EC%9D%B5%EC%82%B0%EC%8B%9C-%EC%8B%A0%EB%8F%99/", "workingTime": ["-", "09:00~19:00", "09:00~19:00", "09:00~19:00", "09:00~19:00", "09:00~19:00", "09:30~15:00", "-"]}, {"name": "\ub098\uc778\ud22c\ub098\uc778\ub300\ud559\ub85c\uc57d\uad6d", "lat": "35.9610772168", "lng": "126.9649521009", "url": "/info/%EB%82%98%EC%9D%B8%ED%88%AC%EB%82%98%EC%9D%B8%EB%8C%80%ED%95%99%EB%A1%9C%EC%95%BD%EA%B5%AD-%EC%A0%84%EB%9D%BC%EB%B6%81%EB%8F%84-%EC%9D%B5%EC%82%B0%EC%8B%9C-%EC%8B%A0%EB%8F%99/", "workingTime": ["1,2,3,4,5\uc9f8\uc8fc10:00~21:00", "09:00~21:00", "09:00~21:00", "09:00~21:00", "09:00~21:00", "09:00~21:00", "09:00~21:00", "10:00~21:00"]}, {"name": "\uc990\uac70\uc6b4\uc57d\uad6d", "lat": "35.961154722891344", "lng": "126.96585251169097", "url": "/info/%EC%A6%90%EA%B1%B0%EC%9A%B4%EC%95%BD%EA%B5%AD-%EC%A0%84%EB%9D%BC%EB%B6%81%EB%8F%84-%EC%9D%B5%EC%82%B0%EC%8B%9C-%EC%8B%A0%EB%8F%99/", "workingTime": ["-", "09:30~18:00", "09:30~18:00", "09:30~18:00", "09:30~18:00", "09:30~18:00", "09:30~13:00", "-"]}, {"name": "\uc815\uc131\uc628\ub204\ub9ac\uc57d\uad6d", "lat": "35.9609873762", "lng": "126.9659365313", "url": "/info/%EC%A0%95%EC%84%B1%EC%98%A8%EB%88%84%EB%A6%AC%EC%95%BD%EA%B5%AD-%EC%A0%84%EB%9D%BC%EB%B6%81%EB%8F%84-%EC%9D%B5%EC%82%B0%EC%8B%9C-%EC%8B%A0%EB%8F%99/", "workingTime": ["-", "09:00~17:00", "09:00~17:00", "09:00~17:00", "09:00~17:00", "09:00~17:00", "-", "-"]}, {"name": "\uc2e0\ub3d9\ud0dc\ud3c9\uc591\uc57d\uad6d", "lat": "35.9634375032058", "lng": "126.960140918989", "url": "/info/%EC%8B%A0%EB%8F%99%ED%83%9C%ED%8F%89%EC%96%91%EC%95%BD%EA%B5%AD-%EC%A0%84%EB%9D%BC%EB%B6%81%EB%8F%84-%EC%9D%B5%EC%82%B0%EC%8B%9C-%EC%8B%A0%EB%8F%99/", "workingTime": ["-", "08:30~19:00", "08:30~19:00", "08:30~19:00", "08:30~19:00", "08:30~19:00", "-", "-"]}, {"name": "\uccad\ub144\uc57d\uad6d", "lat": "35.9618621360075", "lng": "126.958023806104", "url": "/info/%EC%B2%AD%EB%85%84%EC%95%BD%EA%B5%AD-%EC%A0%84%EB%9D%BC%EB%B6%81%EB%8F%84-%EC%9D%B5%EC%82%B0%EC%8B%9C-%EC%8B%A0%EB%8F%99/", "workingTime": ["1,2,3,4,5\uc9f8\uc8fc12:00~21:00", "12:00~21:00", "12:00~21:00", "12:00~21:00", "12:00~21:00", "12:00~21:00", "12:00~21:00", "12:00~21:00"]}, {"name": "\uc639\uae30\ud55c\uc57d\uad6d", "lat": "35.9641434910868", "lng": "126.956142204616", "url": "/info/%EC%98%B9%EA%B8%B0%ED%95%9C%EC%95%BD%EA%B5%AD-%EC%A0%84%EB%9D%BC%EB%B6%81%EB%8F%84-%EC%9D%B5%EC%82%B0%EC%8B%9C-%EC%8B%A0%EB%8F%99/", "workingTime": ["-", "09:00~18:00", "09:00~18:00", "09:00~18:00", "09:00~18:00", "09:00~18:00", "-", "-"]}, {"name": "\uc0d8\ubb3c\uc57d\uad6d", "lat": "35.9597908115", "lng": "126.9669435917", "url": "/info/%EC%83%98%EB%AC%BC%EC%95%BD%EA%B5%AD-%EC%A0%84%EB%9D%BC%EB%B6%81%EB%8F%84-%EC%9D%B5%EC%82%B0%EC%8B%9C-%EC%8B%A0%EB%8F%99/", "workingTime": ["-", "08:30~13:00", "08:30~13:00", "08:30~13:00", "08:30~13:00", "08:30~13:00", "-", "-"]}]