[{"name": "\ubcf4\uc131\uc57d\uad6d", "lat": "34.76752393307432", "lng": "127.08181714912365", "url": "/info/%EB%B3%B4%EC%84%B1%EC%95%BD%EA%B5%AD-%EC%A0%84%EB%9D%BC%EB%82%A8%EB%8F%84-%EB%B3%B4%EC%84%B1%EA%B5%B0-%EB%B3%B4%EC%84%B1%EC%9D%8D/", "workingTime": ["-", "08:00~20:00", "08:00~20:00", "08:00~20:00", "08:00~20:00", "08:00~20:00", "08:00~15:00", "-"]}, {"name": "\uc6b0\ub9ac\ub4e4\uc57d\uad6d", "lat": "34.76441352081574", "lng": "127.07601502015451", "url": "/info/%EC%9A%B0%EB%A6%AC%EB%93%A4%EC%95%BD%EA%B5%AD-%EC%A0%84%EB%9D%BC%EB%82%A8%EB%8F%84-%EB%B3%B4%EC%84%B1%EA%B5%B0-%EB%B3%B4%EC%84%B1%EC%9D%8D/", "workingTime": ["-", "07:00~19:00", "07:00~19:00", "07:00~19:00", "07:00~19:00", "07:00~19:00", "07:00~12:00", "-"]}, {"name": "\uc2e0\ub3d9\uc544\uc57d\uad6d", "lat": "34.767944444444446", "lng": "127.084586111111108", "url": "/info/%EC%8B%A0%EB%8F%99%EC%95%84%EC%95%BD%EA%B5%AD-%EC%A0%84%EB%9D%BC%EB%82%A8%EB%8F%84-%EB%B3%B4%EC%84%B1%EA%B5%B0-%EB%B3%B4%EC%84%B1%EC%9D%8D/", "workingTime": ["-", "08:00~12:30", "08:00~12:30", "08:00~12:30", "08:00~12:30", "08:00~12:30", "08:00~13:00", "-"]}, {"name": "\uc870\uc740\uc57d\uad6d", "lat": "34.76770499229845", "lng": "127.08242350864633", "url": "/info/%EC%A1%B0%EC%9D%80%EC%95%BD%EA%B5%AD-%EC%A0%84%EB%9D%BC%EB%82%A8%EB%8F%84-%EB%B3%B4%EC%84%B1%EA%B5%B0-%EB%B3%B4%EC%84%B1%EC%9D%8D/", "workingTime": ["-", "08:00~18:00", "08:00~18:00", "08:00~18:00", "08:00~18:00", "08:00~18:00", "08:00~13:00", "-"]}, {"name": "\uc81c\uc77c\uc57d\uad6d", "lat": "34.767532631456554", "lng": "127.08134847227998", "url": "/info/%EC%A0%9C%EC%9D%BC%EC%95%BD%EA%B5%AD-%EC%A0%84%EB%9D%BC%EB%82%A8%EB%8F%84-%EB%B3%B4%EC%84%B1%EA%B5%B0-%EB%B3%B4%EC%84%B1%EC%9D%8D/", "workingTime": ["-", "08:00~17:00", "08:00~17:00", "08:00~17:00", "08:00~17:00", "08:00~17:00", "08:00~13:00", "-"]}, {"name": "\ubc14\ub85c\ub098\uc628\ub204\ub9ac\uc57d\uad6d", "lat": "34.764366666666668", "lng": "127.076036111111108", "url": "/info/%EB%B0%94%EB%A1%9C%EB%82%98%EC%98%A8%EB%88%84%EB%A6%AC%EC%95%BD%EA%B5%AD-%EC%A0%84%EB%9D%BC%EB%82%A8%EB%8F%84-%EB%B3%B4%EC%84%B1%EA%B5%B0-%EB%B3%B4%EC%84%B1%EC%9D%8D/", "workingTime": ["-", "08:00~17:00", "08:00~17:00", "08:00~17:00", "08:00~17:00", "08:00~17:00", "08:00~12:30", "-"]}, {"name": "\uc6b0\ub9ac\uc57d\uad6d", "lat": "34.76790453816509", "lng": "127.08284433967216", "url": "/info/%EC%9A%B0%EB%A6%AC%EC%95%BD%EA%B5%AD-%EC%A0%84%EB%9D%BC%EB%82%A8%EB%8F%84-%EB%B3%B4%EC%84%B1%EA%B5%B0-%EB%B3%B4%EC%84%B1%EC%9D%8D/", "workingTime": ["-", "08:00~18:00", "08:00~18:00", "08:00~18:00", "08:00~18:00", "08:00~18:00", "08:00~13:00", "-"]}, {"name": "\ubcf4\uc77c\uc57d\uad6d", "lat": "34.768572222222225", "lng": "127.083227777777779", "url": "/info/%EB%B3%B4%EC%9D%BC%EC%95%BD%EA%B5%AD-%EC%A0%84%EB%9D%BC%EB%82%A8%EB%8F%84-%EB%B3%B4%EC%84%B1%EA%B5%B0-%EB%B3%B4%EC%84%B1%EC%9D%8D/", "workingTime": ["-", "09:00~13:00", "09:00~13:00", "09:00~13:00", "09:00~13:00", "09:00~13:00", "08:00~13:00", "-"]}]