[{"name": "\ud558\ub298\uc57d\uad6d", "lat": "35.96212165248576", "lng": "127.12632196806177", "url": "/info/%ED%95%98%EB%8A%98%EC%95%BD%EA%B5%AD-%EC%A0%84%EB%9D%BC%EB%B6%81%EB%8F%84-%EC%99%84%EC%A3%BC%EA%B5%B0-%EB%B4%89%EB%8F%99%EC%9D%8D/", "workingTime": ["-", "08:30~19:00", "08:30~19:00", "08:30~19:00", "08:30~19:00", "08:30~19:00", "08:30~13:00", "-"]}, {"name": "\uc11c\uc6b8\uc57d\uad6d", "lat": "35.93863610101539", "lng": "127.16805665418167", "url": "/info/%EC%84%9C%EC%9A%B8%EC%95%BD%EA%B5%AD-%EC%A0%84%EB%9D%BC%EB%B6%81%EB%8F%84-%EC%99%84%EC%A3%BC%EA%B5%B0-%EB%B4%89%EB%8F%99%EC%9D%8D/", "workingTime": ["-", "08:00~19:30", "08:00~19:30", "08:00~19:30", "08:00~19:30", "08:00~19:30", "08:00~17:00", "-"]}, {"name": "\ud574\ub9d1\uc740\uc57d\uad6d", "lat": "35.96113764622489", "lng": "127.1269681239213", "url": "/info/%ED%95%B4%EB%A7%91%EC%9D%80%EC%95%BD%EA%B5%AD-%EC%A0%84%EB%9D%BC%EB%B6%81%EB%8F%84-%EC%99%84%EC%A3%BC%EA%B5%B0-%EB%B4%89%EB%8F%99%EC%9D%8D/", "workingTime": ["-", "08:30~19:00", "08:30~19:00", "08:30~19:00", "08:30~19:00", "08:30~19:00", "08:30~13:00", "-"]}, {"name": "\uc2a4\uce74\uc774\uc57d\uad6d", "lat": "35.96057070160866", "lng": "127.12796566539524", "url": "/info/%EC%8A%A4%EC%B9%B4%EC%9D%B4%EC%95%BD%EA%B5%AD-%EC%A0%84%EB%9D%BC%EB%B6%81%EB%8F%84-%EC%99%84%EC%A3%BC%EA%B5%B0-%EB%B4%89%EB%8F%99%EC%9D%8D/", "workingTime": ["-", "09:00~19:00", "09:00~19:00", "09:00~19:00", "09:00~19:00", "09:00~19:00", "09:00~15:00", "-"]}, {"name": "\ubd09\ub3d9\uc57d\uad6d", "lat": "35.938069444444444", "lng": "127.167994444444446", "url": "/info/%EB%B4%89%EB%8F%99%EC%95%BD%EA%B5%AD-%EC%A0%84%EB%9D%BC%EB%B6%81%EB%8F%84-%EC%99%84%EC%A3%BC%EA%B5%B0-%EB%B4%89%EB%8F%99%EC%9D%8D/", "workingTime": ["3\uc9f8\uc8fc08:00~19:00", "08:00~19:00", "08:00~19:00", "08:00~19:00", "08:00~19:00", "08:00~19:00", "08:00~18:00", "09:00~19:00"]}, {"name": "\ud589\ubcf5\ud50c\ub7ec\uc2a4\uc57d\uad6d", "lat": "35.96208083400531", "lng": "127.12657132965006", "url": "/info/%ED%96%89%EB%B3%B5%ED%94%8C%EB%9F%AC%EC%8A%A4%EC%95%BD%EA%B5%AD-%EC%A0%84%EB%9D%BC%EB%B6%81%EB%8F%84-%EC%99%84%EC%A3%BC%EA%B5%B0-%EB%B4%89%EB%8F%99%EC%9D%8D/", "workingTime": ["-", "08:30~19:00", "08:30~19:00", "08:30~19:00", "08:30~19:00", "08:30~19:00", "08:30~12:30", "-"]}, {"name": "\uc2a4\ub9c8\uc77c\uc57d\uad6d", "lat": "35.9619066688984", "lng": "127.12231341822235", "url": "/info/%EC%8A%A4%EB%A7%88%EC%9D%BC%EC%95%BD%EA%B5%AD-%EC%A0%84%EB%9D%BC%EB%B6%81%EB%8F%84-%EC%99%84%EC%A3%BC%EA%B5%B0-%EB%B4%89%EB%8F%99%EC%9D%8D/", "workingTime": ["-", "08:30~19:00", "08:30~19:00", "08:30~19:00", "08:30~19:00", "08:30~19:00", "08:30~13:00", "-"]}, {"name": "\ubd09\ub3d9\uc885\ub85c\uc57d\uad6d", "lat": "35.93913402424767", "lng": "127.167738527539", "url": "/info/%EB%B4%89%EB%8F%99%EC%A2%85%EB%A1%9C%EC%95%BD%EA%B5%AD-%EC%A0%84%EB%9D%BC%EB%B6%81%EB%8F%84-%EC%99%84%EC%A3%BC%EA%B5%B0-%EB%B4%89%EB%8F%99%EC%9D%8D/", "workingTime": ["-", "09:00~19:00", "09:00~19:00", "09:00~19:00", "09:00~19:00", "09:00~19:00", "09:00~13:00", "-"]}, {"name": "\uc2dc\uc628\uc57d\uad6d", "lat": "35.8180743936", "lng": "127.1225003683", "url": "/info/%EC%8B%9C%EC%98%A8%EC%95%BD%EA%B5%AD-%EC%A0%84%EB%9D%BC%EB%B6%81%EB%8F%84-%EC%99%84%EC%A3%BC%EA%B5%B0-%EB%B4%89%EB%8F%99%EC%9D%8D/", "workingTime": ["-", "08:30~18:40", "08:30~18:40", "08:30~18:40", "08:30~18:40", "08:30~18:40", "08:30~13:00", "-"]}, {"name": "\uac00\uc871\uc0ac\ub791\uc57d\uad6d", "lat": "35.93709311563736", "lng": "127.16810661049587", "url": "/info/%EA%B0%80%EC%A1%B1%EC%82%AC%EB%9E%91%EC%95%BD%EA%B5%AD-%EC%A0%84%EB%9D%BC%EB%B6%81%EB%8F%84-%EC%99%84%EC%A3%BC%EA%B5%B0-%EB%B4%89%EB%8F%99%EC%9D%8D/", "workingTime": ["-", "08:00~19:30", "08:00~19:30", "08:00~19:30", "08:00~19:30", "08:00~19:30", "08:00~13:00", "-"]}, {"name": "\uc6b0\ub9ac\ub4e4\uc57d\uad6d", "lat": "35.93746643943438", "lng": "127.16817892820484", "url": "/info/%EC%9A%B0%EB%A6%AC%EB%93%A4%EC%95%BD%EA%B5%AD-%EC%A0%84%EB%9D%BC%EB%B6%81%EB%8F%84-%EC%99%84%EC%A3%BC%EA%B5%B0-%EB%B4%89%EB%8F%99%EC%9D%8D/", "workingTime": ["-", "08:30~19:30", "08:30~19:30", "08:30~19:30", "08:30~19:30", "08:30~19:30", "08:30~13:00", "-"]}, {"name": "\uc628\ub204\ub9ac\uc0bc\uc6b0\uc57d\uad6d", "lat": "35.936451258847875", "lng": "127.16823381419248", "url": "/info/%EC%98%A8%EB%88%84%EB%A6%AC%EC%82%BC%EC%9A%B0%EC%95%BD%EA%B5%AD-%EC%A0%84%EB%9D%BC%EB%B6%81%EB%8F%84-%EC%99%84%EC%A3%BC%EA%B5%B0-%EB%B4%89%EB%8F%99%EC%9D%8D/", "workingTime": ["-", "08:00~18:00", "08:00~18:00", "08:00~12:30", "08:00~18:00", "08:00~18:00", "08:00~12:30", "-"]}, {"name": "\ub098\uc744\uc57d\uad6d", "lat": "35.93570089896284", "lng": "127.16818405386371", "url": "/info/%EB%82%98%EC%9D%84%EC%95%BD%EA%B5%AD-%EC%A0%84%EB%9D%BC%EB%B6%81%EB%8F%84-%EC%99%84%EC%A3%BC%EA%B5%B0-%EB%B4%89%EB%8F%99%EC%9D%8D/", "workingTime": ["-", "09:00~18:00", "09:00~18:00", "09:00~18:00", "09:00~18:00", "09:00~18:00", "09:00~12:00", "-"]}]