[{"name": "\uac15\ubcc0\uc57d\uad6d", "lat": "35.0405901874981", "lng": "126.850165551415", "url": "/info/%EA%B0%95%EB%B3%80%EC%95%BD%EA%B5%AD-%EC%A0%84%EB%9D%BC%EB%82%A8%EB%8F%84-%EB%82%98%EC%A3%BC%EC%8B%9C-%EB%82%A8%ED%8F%89%EC%9D%8D/", "workingTime": ["1,2,3,4,5\uc9f8\uc8fc09:00~17:00", "09:00~21:00", "09:00~21:00", "09:00~21:00", "09:00~21:00", "09:00~21:00", "09:00~17:00", "09:00~17:00"]}, {"name": "\uc194\uc57d\uad6d", "lat": "35.046919853214746", "lng": "126.84016958850105", "url": "/info/%EC%86%94%EC%95%BD%EA%B5%AD-%EC%A0%84%EB%9D%BC%EB%82%A8%EB%8F%84-%EB%82%98%EC%A3%BC%EC%8B%9C-%EB%82%A8%ED%8F%89%EC%9D%8D/", "workingTime": ["-", "08:00~20:00", "08:00~20:00", "08:00~20:00", "08:00~20:00", "08:00~20:00", "08:00~19:00", "09:00~14:00"]}, {"name": "\uc720\ud55c\uc57d\uad6d", "lat": "35.046729453105314", "lng": "126.84138329139907", "url": "/info/%EC%9C%A0%ED%95%9C%EC%95%BD%EA%B5%AD-%EC%A0%84%EB%9D%BC%EB%82%A8%EB%8F%84-%EB%82%98%EC%A3%BC%EC%8B%9C-%EB%82%A8%ED%8F%89%EC%9D%8D/", "workingTime": ["-", "10:00~17:00", "10:00~17:00", "10:00~17:00", "10:00~17:00", "10:00~17:00", "10:00~13:00", "09:00~17:00"]}, {"name": "\uac74\uac15\uc57d\uad6d", "lat": "35.0434020902626", "lng": "126.84315209195664", "url": "/info/%EA%B1%B4%EA%B0%95%EC%95%BD%EA%B5%AD-%EC%A0%84%EB%9D%BC%EB%82%A8%EB%8F%84-%EB%82%98%EC%A3%BC%EC%8B%9C-%EB%82%A8%ED%8F%89%EC%9D%8D/", "workingTime": ["-", "08:30~17:30", "08:30~17:00", "08:30~16:30", "08:30~17:00", "08:30~17:00", "08:30~12:30", "-"]}, {"name": "\uc131\ubaa8\uc57d\uad6d", "lat": "35.04677424808698", "lng": "126.84065843855481", "url": "/info/%EC%84%B1%EB%AA%A8%EC%95%BD%EA%B5%AD-%EC%A0%84%EB%9D%BC%EB%82%A8%EB%8F%84-%EB%82%98%EC%A3%BC%EC%8B%9C-%EB%82%A8%ED%8F%89%EC%9D%8D/", "workingTime": ["-", "08:30~20:30", "08:30~20:30", "08:30~20:30", "08:30~20:30", "08:30~20:30", "08:30~19:00", "09:00~12:00"]}, {"name": "\ud55c\uc194\uc57d\uad6d", "lat": "35.04765485735833", "lng": "126.84357582783607", "url": "/info/%ED%95%9C%EC%86%94%EC%95%BD%EA%B5%AD-%EC%A0%84%EB%9D%BC%EB%82%A8%EB%8F%84-%EB%82%98%EC%A3%BC%EC%8B%9C-%EB%82%A8%ED%8F%89%EC%9D%8D/", "workingTime": ["-", "08:00~17:30", "08:00~17:30", "08:00~17:30", "08:00~17:30", "08:00~17:30", "08:00~13:00", "-"]}, {"name": "\ub0a8\ud3c9\uc57d\uad6d", "lat": "35.0466394572", "lng": "126.8401032607", "url": "/info/%EB%82%A8%ED%8F%89%EC%95%BD%EA%B5%AD-%EC%A0%84%EB%9D%BC%EB%82%A8%EB%8F%84-%EB%82%98%EC%A3%BC%EC%8B%9C-%EB%82%A8%ED%8F%89%EC%9D%8D/", "workingTime": ["-", "08:00~19:00", "08:00~19:00", "08:00~19:00", "08:00~19:00", "08:00~19:00", "-", "-"]}]