[{"name": "\ud558\ub098\uc57d\uad6d", "lat": "34.84691310831878", "lng": "127.35131331732518", "url": "/info/%ED%95%98%EB%82%98%EC%95%BD%EA%B5%AD-%EC%A0%84%EB%9D%BC%EB%82%A8%EB%8F%84-%EB%B3%B4%EC%84%B1%EA%B5%B0-%EB%B2%8C%EA%B5%90%EC%9D%8D/", "workingTime": ["-", "08:00~20:00", "08:00~20:00", "08:00~20:00", "08:00~20:00", "08:00~20:00", "08:00~20:00", "08:00~20:00"]}, {"name": "\uc138\uc885\uc57d\uad6d", "lat": "34.84600473903207", "lng": "127.34362523516427", "url": "/info/%EC%84%B8%EC%A2%85%EC%95%BD%EA%B5%AD-%EC%A0%84%EB%9D%BC%EB%82%A8%EB%8F%84-%EB%B3%B4%EC%84%B1%EA%B5%B0-%EB%B2%8C%EA%B5%90%EC%9D%8D/", "workingTime": ["-", "09:00~21:00", "09:00~21:00", "09:00~21:00", "09:00~21:00", "09:00~21:00", "09:00~18:00", "-"]}, {"name": "\ud604\ub300\uc57d\uad6d", "lat": "34.844059702081935", "lng": "127.34420322005437", "url": "/info/%ED%98%84%EB%8C%80%EC%95%BD%EA%B5%AD-%EC%A0%84%EB%9D%BC%EB%82%A8%EB%8F%84-%EB%B3%B4%EC%84%B1%EA%B5%B0-%EB%B2%8C%EA%B5%90%EC%9D%8D/", "workingTime": ["-", "09:00~19:00", "09:00~19:00", "09:00~19:00", "09:00~19:00", "09:00~19:00", "09:00~12:00", "-"]}, {"name": "\uad6c\uc138\uc57d\uad6d", "lat": "34.842638070303806", "lng": "127.34456905882945", "url": "/info/%EA%B5%AC%EC%84%B8%EC%95%BD%EA%B5%AD-%EC%A0%84%EB%9D%BC%EB%82%A8%EB%8F%84-%EB%B3%B4%EC%84%B1%EA%B5%B0-%EB%B2%8C%EA%B5%90%EC%9D%8D/", "workingTime": ["-", "07:00~18:00", "07:00~18:00", "07:00~18:00", "07:00~18:00", "07:00~18:00", "07:00~13:00", "-"]}, {"name": "\ub300\uc6d0\uc57d\uad6d", "lat": "34.842399430455536", "lng": "127.34352722097049", "url": "/info/%EB%8C%80%EC%9B%90%EC%95%BD%EA%B5%AD-%EC%A0%84%EB%9D%BC%EB%82%A8%EB%8F%84-%EB%B3%B4%EC%84%B1%EA%B5%B0-%EB%B2%8C%EA%B5%90%EC%9D%8D/", "workingTime": ["-", "08:00~18:30", "08:00~18:30", "08:00~15:00", "08:00~18:30", "08:00~18:30", "08:00~15:00", "-"]}, {"name": "\uac74\uac15\uc57d\uad6d", "lat": "34.83684674678198", "lng": "127.34227106044742", "url": "/info/%EA%B1%B4%EA%B0%95%EC%95%BD%EA%B5%AD-%EC%A0%84%EB%9D%BC%EB%82%A8%EB%8F%84-%EB%B3%B4%EC%84%B1%EA%B5%B0-%EB%B2%8C%EA%B5%90%EC%9D%8D/", "workingTime": ["-", "09:00~18:30", "09:00~18:30", "09:00~18:30", "09:00~18:30", "09:00~18:30", "09:00~13:00", "-"]}, {"name": "\ubc8c\uad50\ud76c\ub9dd\uc57d\uad6d", "lat": "34.8425935449", "lng": "127.3442884821", "url": "/info/%EB%B2%8C%EA%B5%90%ED%9D%AC%EB%A7%9D%EC%95%BD%EA%B5%AD-%EC%A0%84%EB%9D%BC%EB%82%A8%EB%8F%84-%EB%B3%B4%EC%84%B1%EA%B5%B0-%EB%B2%8C%EA%B5%90%EC%9D%8D/", "workingTime": ["-", "07:30~17:30", "07:30~17:30", "07:30~17:30", "07:30~17:30", "07:30~17:30", "07:30~12:30", "-"]}, {"name": "\uc815\uc57d\uad6d", "lat": "34.84384726480152", "lng": "127.34465232243151", "url": "/info/%EC%A0%95%EC%95%BD%EA%B5%AD-%EC%A0%84%EB%9D%BC%EB%82%A8%EB%8F%84-%EB%B3%B4%EC%84%B1%EA%B5%B0-%EB%B2%8C%EA%B5%90%EC%9D%8D/", "workingTime": ["-", "08:00~13:00", "08:00~13:00", "08:00~13:00", "08:00~13:00", "08:00~13:00", "07:00~13:00", "-"]}, {"name": "\ud55c\ub9c8\uc74c\uc57d\uad6d", "lat": "34.834352132403104", "lng": "127.34467461169922", "url": "/info/%ED%95%9C%EB%A7%88%EC%9D%8C%EC%95%BD%EA%B5%AD-%EC%A0%84%EB%9D%BC%EB%82%A8%EB%8F%84-%EB%B3%B4%EC%84%B1%EA%B5%B0-%EB%B2%8C%EA%B5%90%EC%9D%8D/", "workingTime": ["-", "08:00~13:00", "08:00~13:00", "08:00~13:00", "08:00~13:00", "08:00~13:00", "08:00~13:00", "-"]}, {"name": "\ud6a8\uc131\uc628\ub204\ub9ac\uc57d\uad6d", "lat": "34.842541620808554", "lng": "127.34552641482681", "url": "/info/%ED%9A%A8%EC%84%B1%EC%98%A8%EB%88%84%EB%A6%AC%EC%95%BD%EA%B5%AD-%EC%A0%84%EB%9D%BC%EB%82%A8%EB%8F%84-%EB%B3%B4%EC%84%B1%EA%B5%B0-%EB%B2%8C%EA%B5%90%EC%9D%8D/", "workingTime": ["-", "07:00~18:00", "07:00~18:00", "07:00~18:00", "07:00~18:00", "07:00~18:00", "07:00~13:00", "-"]}, {"name": "\uc0bc\uc131\uc57d\uad6d", "lat": "34.84348343213945", "lng": "127.34706493100412", "url": "/info/%EC%82%BC%EC%84%B1%EC%95%BD%EA%B5%AD-%EC%A0%84%EB%9D%BC%EB%82%A8%EB%8F%84-%EB%B3%B4%EC%84%B1%EA%B5%B0-%EB%B2%8C%EA%B5%90%EC%9D%8D/", "workingTime": ["-", "08:00~12:00", "08:00~12:00", "08:00~12:00", "08:00~12:00", "08:00~12:00", "08:00~13:00", "-"]}]