[{"name": "\uc138\ud654\uc57d\uad6d", "lat": "33.52084250494972", "lng": "126.85880651764676", "url": "/info/%EC%84%B8%ED%99%94%EC%95%BD%EA%B5%AD-%EC%A0%9C%EC%A3%BC%ED%8A%B9%EB%B3%84%EC%9E%90%EC%B9%98%EB%8F%84-%EC%A0%9C%EC%A3%BC%EC%8B%9C-%EA%B5%AC%EC%A2%8C%EC%9D%8D/", "workingTime": ["-", "08:00~19:00", "08:00~23:00", "08:00~23:00", "08:00~23:00", "08:00~19:00", "08:00~15:00", "08:00~12:00"]}, {"name": "\uc6d4\uc815\uc628\ub204\ub9ac\uc57d\uad6d", "lat": "33.554627662563746", "lng": "126.79869532060299", "url": "/info/%EC%9B%94%EC%A0%95%EC%98%A8%EB%88%84%EB%A6%AC%EC%95%BD%EA%B5%AD-%EC%A0%9C%EC%A3%BC%ED%8A%B9%EB%B3%84%EC%9E%90%EC%B9%98%EB%8F%84-%EC%A0%9C%EC%A3%BC%EC%8B%9C-%EA%B5%AC%EC%A2%8C%EC%9D%8D/", "workingTime": ["-", "10:00~19:00", "10:00~19:00", "10:00~19:00", "10:00~19:00", "10:00~19:00", "10:00~19:00", "10:00~19:00"]}, {"name": "\uba54\ub514\ud31c\uac10\ucd08\ub2f9\uc57d\uad6d", "lat": "33.52328063373709", "lng": "126.85588749830427", "url": "/info/%EB%A9%94%EB%94%94%ED%8C%9C%EA%B0%90%EC%B4%88%EB%8B%B9%EC%95%BD%EA%B5%AD-%EC%A0%9C%EC%A3%BC%ED%8A%B9%EB%B3%84%EC%9E%90%EC%B9%98%EB%8F%84-%EC%A0%9C%EC%A3%BC%EC%8B%9C-%EA%B5%AC%EC%A2%8C%EC%9D%8D/", "workingTime": ["1,2,3,4,5\uc9f8\uc8fc08:30~19:00", "08:05~19:00", "08:05~19:00", "08:05~19:00", "08:05~19:00", "08:05~19:00", "08:30~19:00", "08:30~19:00"]}, {"name": "\uad6c\uc88c\uc57d\uad6d", "lat": "33.523273896211926", "lng": "126.8556735111426", "url": "/info/%EA%B5%AC%EC%A2%8C%EC%95%BD%EA%B5%AD-%EC%A0%9C%EC%A3%BC%ED%8A%B9%EB%B3%84%EC%9E%90%EC%B9%98%EB%8F%84-%EC%A0%9C%EC%A3%BC%EC%8B%9C-%EA%B5%AC%EC%A2%8C%EC%9D%8D/", "workingTime": ["-", "08:00~20:00", "08:00~20:00", "08:00~20:00", "08:00~20:00", "08:00~20:00", "08:00~20:00", "-"]}, {"name": "\uc81c\uc77c\uc57d\uad6d", "lat": "33.523310302001576", "lng": "126.85658498678843", "url": "/info/%EC%A0%9C%EC%9D%BC%EC%95%BD%EA%B5%AD-%EC%A0%9C%EC%A3%BC%ED%8A%B9%EB%B3%84%EC%9E%90%EC%B9%98%EB%8F%84-%EC%A0%9C%EC%A3%BC%EC%8B%9C-%EA%B5%AC%EC%A2%8C%EC%9D%8D/", "workingTime": ["1\uc9f8\uc8fc07:00~12:00", "08:30~18:00", "08:30~18:00", "08:30~18:00", "08:30~18:00", "08:30~18:00", "08:30~14:00", "-"]}, {"name": "\uae40\ub155\uc57d\uad6d", "lat": "33.55455535850815", "lng": "126.75021492801767", "url": "/info/%EA%B9%80%EB%85%95%EC%95%BD%EA%B5%AD-%EC%A0%9C%EC%A3%BC%ED%8A%B9%EB%B3%84%EC%9E%90%EC%B9%98%EB%8F%84-%EC%A0%9C%EC%A3%BC%EC%8B%9C-%EA%B5%AC%EC%A2%8C%EC%9D%8D/", "workingTime": ["-", "08:00~18:30", "08:00~18:30", "08:00~18:30", "08:00~18:30", "08:00~18:30", "08:00~12:00", "-"]}, {"name": "\uac74\uac15\uc57d\uad6d", "lat": "33.52084304416475", "lng": "126.85927583468728", "url": "/info/%EA%B1%B4%EA%B0%95%EC%95%BD%EA%B5%AD-%EC%A0%9C%EC%A3%BC%ED%8A%B9%EB%B3%84%EC%9E%90%EC%B9%98%EB%8F%84-%EC%A0%9C%EC%A3%BC%EC%8B%9C-%EA%B5%AC%EC%A2%8C%EC%9D%8D/", "workingTime": ["-", "08:00~18:30", "08:00~18:30", "08:00~18:30", "08:00~18:30", "08:00~18:30", "08:00~13:00", "-"]}]