[{"name": "\uc608\uc0ac\ub791\uc57d\uad6d", "lat": "33.4827946685932", "lng": "126.477721185489", "url": "/info/%EC%98%88%EC%82%AC%EB%9E%91%EC%95%BD%EA%B5%AD-%EC%A0%9C%EC%A3%BC%ED%8A%B9%EB%B3%84%EC%9E%90%EC%B9%98%EB%8F%84-%EC%A0%9C%EC%A3%BC%EC%8B%9C-%EB%85%B8%ED%98%95%EB%8F%99/", "workingTime": ["-", "08:30~18:00", "08:30~18:00", "08:30~18:00", "08:30~18:00", "08:30~18:00", "08:30~18:00", "-"]}, {"name": "\ub450\ub9ac\uc57d\uad6d", "lat": "33.4861483341127", "lng": "126.472784599759", "url": "/info/%EB%91%90%EB%A6%AC%EC%95%BD%EA%B5%AD-%EC%A0%9C%EC%A3%BC%ED%8A%B9%EB%B3%84%EC%9E%90%EC%B9%98%EB%8F%84-%EC%A0%9C%EC%A3%BC%EC%8B%9C-%EB%85%B8%ED%98%95%EB%8F%99/", "workingTime": ["1,2,3,4,5\uc9f8\uc8fc08:30~21:00", "08:30~21:00", "08:30~21:00", "08:30~21:00", "08:30~21:00", "08:30~21:00", "08:30~21:00", "08:30~21:00"]}, {"name": "\ub354\uac74\uac15\ud55c\uc57d\uad6d", "lat": "33.476496001015455", "lng": "126.47862977959183", "url": "/info/%EB%8D%94%EA%B1%B4%EA%B0%95%ED%95%9C%EC%95%BD%EA%B5%AD-%EC%A0%9C%EC%A3%BC%ED%8A%B9%EB%B3%84%EC%9E%90%EC%B9%98%EB%8F%84-%EC%A0%9C%EC%A3%BC%EC%8B%9C-%EB%85%B8%ED%98%95%EB%8F%99/", "workingTime": ["1,2,3,4,5\uc9f8\uc8fc12:00~21:30", "12:00~21:30", "12:00~21:30", "-", "12:00~21:30", "12:00~21:30", "12:00~21:30", "12:00~21:30"]}, {"name": "\uc815\uc874\uc57d\uad6d", "lat": "33.480291682172755", "lng": "126.47223338999244", "url": "/info/%EC%A0%95%EC%A1%B4%EC%95%BD%EA%B5%AD-%EC%A0%9C%EC%A3%BC%ED%8A%B9%EB%B3%84%EC%9E%90%EC%B9%98%EB%8F%84-%EC%A0%9C%EC%A3%BC%EC%8B%9C-%EB%85%B8%ED%98%95%EB%8F%99/", "workingTime": ["2,3,4\uc9f8\uc8fc13:00~20:00", "08:40~21:00", "08:40~21:00", "08:40~21:00", "08:40~21:00", "08:40~21:00", "08:40~20:00", "13:00~20:00"]}, {"name": "\uc815\uc57d\uad6d", "lat": "33.48622324923168", "lng": "126.47822812108024", "url": "/info/%EC%A0%95%EC%95%BD%EA%B5%AD-%EC%A0%9C%EC%A3%BC%ED%8A%B9%EB%B3%84%EC%9E%90%EC%B9%98%EB%8F%84-%EC%A0%9C%EC%A3%BC%EC%8B%9C-%EB%85%B8%ED%98%95%EB%8F%99/", "workingTime": ["-", "08:30~18:30", "08:30~18:30", "08:30~18:30", "08:30~18:30", "08:30~18:30", "08:30~16:00", "09:00~12:00"]}, {"name": "\uc601\uc81c\uc57d\uad6d", "lat": "33.484444548773055", "lng": "126.47779886606185", "url": "/info/%EC%98%81%EC%A0%9C%EC%95%BD%EA%B5%AD-%EC%A0%9C%EC%A3%BC%ED%8A%B9%EB%B3%84%EC%9E%90%EC%B9%98%EB%8F%84-%EC%A0%9C%EC%A3%BC%EC%8B%9C-%EB%85%B8%ED%98%95%EB%8F%99/", "workingTime": ["-", "08:20~20:00", "08:20~19:30", "08:20~19:30", "08:20~19:30", "08:20~20:00", "08:20~17:00", "-"]}, {"name": "\uc2a4\ub9c8\ud2b8\uc57d\uad6d", "lat": "33.48244556473414", "lng": "126.48184344885179", "url": "/info/%EC%8A%A4%EB%A7%88%ED%8A%B8%EC%95%BD%EA%B5%AD-%EC%A0%9C%EC%A3%BC%ED%8A%B9%EB%B3%84%EC%9E%90%EC%B9%98%EB%8F%84-%EC%A0%9C%EC%A3%BC%EC%8B%9C-%EB%85%B8%ED%98%95%EB%8F%99/", "workingTime": ["1,2,3,4,5\uc9f8\uc8fc10:00~21:30", "10:00~21:30", "10:00~21:30", "10:00~21:30", "10:00~21:30", "10:00~21:30", "10:00~21:30", "10:00~21:30"]}, {"name": "\uc232\uc18d\uc628\ub204\ub9ac\uc57d\uad6d", "lat": "33.4698115556214", "lng": "126.485332189237", "url": "/info/%EC%88%B2%EC%86%8D%EC%98%A8%EB%88%84%EB%A6%AC%EC%95%BD%EA%B5%AD-%EC%A0%9C%EC%A3%BC%ED%8A%B9%EB%B3%84%EC%9E%90%EC%B9%98%EB%8F%84-%EC%A0%9C%EC%A3%BC%EC%8B%9C-%EB%85%B8%ED%98%95%EB%8F%99/", "workingTime": ["-", "10:00~19:00", "10:00~19:00", "10:00~19:00", "10:00~19:00", "10:00~21:00", "10:00~15:00", "-"]}, {"name": "\ubc1d\uc740\uc0ac\ub791\uc57d\uad6d", "lat": "33.485821410903", "lng": "126.478301044424", "url": "/info/%EB%B0%9D%EC%9D%80%EC%82%AC%EB%9E%91%EC%95%BD%EA%B5%AD-%EC%A0%9C%EC%A3%BC%ED%8A%B9%EB%B3%84%EC%9E%90%EC%B9%98%EB%8F%84-%EC%A0%9C%EC%A3%BC%EC%8B%9C-%EB%85%B8%ED%98%95%EB%8F%99/", "workingTime": ["-", "09:00~19:00", "09:00~19:00", "09:00~18:00", "09:00~19:00", "09:00~19:00", "08:30~16:00", "-"]}, {"name": "\ub9e4\uc77c\uc57d\uad6d", "lat": "33.4862525129398", "lng": "126.48324107057677", "url": "/info/%EB%A7%A4%EC%9D%BC%EC%95%BD%EA%B5%AD-%EC%A0%9C%EC%A3%BC%ED%8A%B9%EB%B3%84%EC%9E%90%EC%B9%98%EB%8F%84-%EC%A0%9C%EC%A3%BC%EC%8B%9C-%EB%85%B8%ED%98%95%EB%8F%99/", "workingTime": ["-", "08:00~20:00", "08:00~20:00", "08:00~20:00", "08:00~20:00", "08:00~20:00", "08:00~21:00", "08:00~21:00"]}, {"name": "\ub178\ud615\uc628\ub204\ub9ac\uc57d\uad6d", "lat": "33.48646339297591", "lng": "126.47848398547947", "url": "/info/%EB%85%B8%ED%98%95%EC%98%A8%EB%88%84%EB%A6%AC%EC%95%BD%EA%B5%AD-%EC%A0%9C%EC%A3%BC%ED%8A%B9%EB%B3%84%EC%9E%90%EC%B9%98%EB%8F%84-%EC%A0%9C%EC%A3%BC%EC%8B%9C-%EB%85%B8%ED%98%95%EB%8F%99/", "workingTime": ["-", "08:30~20:00", "08:30~20:00", "08:30~20:00", "08:30~20:00", "08:30~20:00", "09:00~19:00", "-"]}, {"name": "\uc0c8\ubd04\uc57d\uad6d", "lat": "33.48361775319662", "lng": "126.48014938750705", "url": "/info/%EC%83%88%EB%B4%84%EC%95%BD%EA%B5%AD-%EC%A0%9C%EC%A3%BC%ED%8A%B9%EB%B3%84%EC%9E%90%EC%B9%98%EB%8F%84-%EC%A0%9C%EC%A3%BC%EC%8B%9C-%EB%85%B8%ED%98%95%EB%8F%99/", "workingTime": ["-", "08:30~19:00", "08:30~19:00", "08:30~19:00", "08:30~19:00", "08:30~19:00", "08:30~15:00", "-"]}, {"name": "\uc9c4\uc57d\uad6d", "lat": "33.48172148919746", "lng": "126.48436030625981", "url": "/info/%EC%A7%84%EC%95%BD%EA%B5%AD-%EC%A0%9C%EC%A3%BC%ED%8A%B9%EB%B3%84%EC%9E%90%EC%B9%98%EB%8F%84-%EC%A0%9C%EC%A3%BC%EC%8B%9C-%EB%85%B8%ED%98%95%EB%8F%99/", "workingTime": ["-", "08:50~19:10", "08:50~19:10", "08:50~19:10", "08:50~19:10", "08:50~19:10", "09:00~15:00", "-"]}, {"name": "\uc2e0\uc9c4\ud31c\uc57d\uad6d", "lat": "33.4816687229", "lng": "126.4849510307", "url": "/info/%EC%8B%A0%EC%A7%84%ED%8C%9C%EC%95%BD%EA%B5%AD-%EC%A0%9C%EC%A3%BC%ED%8A%B9%EB%B3%84%EC%9E%90%EC%B9%98%EB%8F%84-%EC%A0%9C%EC%A3%BC%EC%8B%9C-%EB%85%B8%ED%98%95%EB%8F%99/", "workingTime": ["-", "08:30~21:00", "08:30~21:00", "08:30~21:00", "08:30~21:00", "08:30~21:00", "09:00~18:00", "09:00~13:00"]}, {"name": "\uc740\uc6b0\uc57d\uad6d", "lat": "33.479405200121135", "lng": "126.48179699639986", "url": "/info/%EC%9D%80%EC%9A%B0%EC%95%BD%EA%B5%AD-%EC%A0%9C%EC%A3%BC%ED%8A%B9%EB%B3%84%EC%9E%90%EC%B9%98%EB%8F%84-%EC%A0%9C%EC%A3%BC%EC%8B%9C-%EB%85%B8%ED%98%95%EB%8F%99/", "workingTime": ["-", "09:00~20:00", "09:00~20:00", "09:00~20:00", "09:00~20:00", "09:00~20:00", "09:00~16:00", "-"]}, {"name": "\uc73c\ub738\uc57d\uad6d", "lat": "33.483402409354866", "lng": "126.47611373872998", "url": "/info/%EC%9C%BC%EB%9C%B8%EC%95%BD%EA%B5%AD-%EC%A0%9C%EC%A3%BC%ED%8A%B9%EB%B3%84%EC%9E%90%EC%B9%98%EB%8F%84-%EC%A0%9C%EC%A3%BC%EC%8B%9C-%EB%85%B8%ED%98%95%EB%8F%99/", "workingTime": ["1,2,3,4,5\uc9f8\uc8fc09:00~22:30", "09:00~22:30", "09:00~22:30", "09:00~22:30", "09:00~22:30", "09:00~22:30", "09:00~22:30", "09:00~22:30"]}, {"name": "\uc0dd\uc0dd\uc57d\uad6d", "lat": "33.4840060787", "lng": "126.4807323844", "url": "/info/%EC%83%9D%EC%83%9D%EC%95%BD%EA%B5%AD-%EC%A0%9C%EC%A3%BC%ED%8A%B9%EB%B3%84%EC%9E%90%EC%B9%98%EB%8F%84-%EC%A0%9C%EC%A3%BC%EC%8B%9C-%EB%85%B8%ED%98%95%EB%8F%99/", "workingTime": ["1,2,3,4,5\uc9f8\uc8fc09:00~19:00", "09:00~20:00", "09:00~20:00", "09:00~20:00", "09:00~20:00", "09:00~20:00", "09:00~19:00", "-"]}, {"name": "\uac00\uae4c\uc6b4\uc57d\uad6d", "lat": "33.4842475132455", "lng": "126.481741909052", "url": "/info/%EA%B0%80%EA%B9%8C%EC%9A%B4%EC%95%BD%EA%B5%AD-%EC%A0%9C%EC%A3%BC%ED%8A%B9%EB%B3%84%EC%9E%90%EC%B9%98%EB%8F%84-%EC%A0%9C%EC%A3%BC%EC%8B%9C-%EB%85%B8%ED%98%95%EB%8F%99/", "workingTime": ["1,2,3,4,5\uc9f8\uc8fc13:00~22:00", "09:00~22:00", "09:00~22:00", "09:00~22:00", "09:00~22:00", "09:00~22:00", "10:00~22:00", "13:00~22:00"]}, {"name": "\uc5f4\ub9b0\uc57d\uad6d", "lat": "33.49091715156635", "lng": "126.47871209008767", "url": "/info/%EC%97%B4%EB%A6%B0%EC%95%BD%EA%B5%AD-%EC%A0%9C%EC%A3%BC%ED%8A%B9%EB%B3%84%EC%9E%90%EC%B9%98%EB%8F%84-%EC%A0%9C%EC%A3%BC%EC%8B%9C-%EB%85%B8%ED%98%95%EB%8F%99/", "workingTime": ["-", "08:00~21:00", "08:00~21:00", "08:00~21:00", "08:00~21:00", "08:00~21:00", "08:00~20:00", "-"]}, {"name": "\uc0bc\uc131\uc57d\uad6d", "lat": "33.486303967117486", "lng": "126.47855473172152", "url": "/info/%EC%82%BC%EC%84%B1%EC%95%BD%EA%B5%AD-%EC%A0%9C%EC%A3%BC%ED%8A%B9%EB%B3%84%EC%9E%90%EC%B9%98%EB%8F%84-%EC%A0%9C%EC%A3%BC%EC%8B%9C-%EB%85%B8%ED%98%95%EB%8F%99/", "workingTime": ["-", "08:30~18:10", "08:30~18:10", "08:30~18:10", "08:30~18:10", "08:30~18:10", "08:30~13:00", "-"]}, {"name": "\ucc9c\uc9c0\uc57d\uad6d", "lat": "33.48483802362187", "lng": "126.4796041176091", "url": "/info/%EC%B2%9C%EC%A7%80%EC%95%BD%EA%B5%AD-%EC%A0%9C%EC%A3%BC%ED%8A%B9%EB%B3%84%EC%9E%90%EC%B9%98%EB%8F%84-%EC%A0%9C%EC%A3%BC%EC%8B%9C-%EB%85%B8%ED%98%95%EB%8F%99/", "workingTime": ["-", "09:00~19:00", "09:00~20:30", "09:00~19:00", "09:00~20:30", "09:00~19:00", "09:00~14:00", "-"]}, {"name": "\ubbfc\ud2b8\uc57d\uad6d", "lat": "33.4842953208458", "lng": "126.47713256299", "url": "/info/%EB%AF%BC%ED%8A%B8%EC%95%BD%EA%B5%AD-%EC%A0%9C%EC%A3%BC%ED%8A%B9%EB%B3%84%EC%9E%90%EC%B9%98%EB%8F%84-%EC%A0%9C%EC%A3%BC%EC%8B%9C-%EB%85%B8%ED%98%95%EB%8F%99/", "workingTime": ["-", "08:30~19:00", "08:30~19:00", "08:30~19:00", "08:30~19:00", "08:30~19:00", "08:30~14:00", "-"]}, {"name": "\uc0c8\uc21c\uc57d\uad6d", "lat": "33.4844241345135", "lng": "126.470607092953", "url": "/info/%EC%83%88%EC%88%9C%EC%95%BD%EA%B5%AD-%EC%A0%9C%EC%A3%BC%ED%8A%B9%EB%B3%84%EC%9E%90%EC%B9%98%EB%8F%84-%EC%A0%9C%EC%A3%BC%EC%8B%9C-%EB%85%B8%ED%98%95%EB%8F%99/", "workingTime": ["-", "08:30~19:00", "08:30~19:00", "08:30~19:00", "08:30~19:00", "08:30~19:00", "08:30~14:00", "-"]}, {"name": "\ud589\ubcf5\ub098\ub214\uc57d\uad6d", "lat": "33.49021994286531", "lng": "126.4741754670276", "url": "/info/%ED%96%89%EB%B3%B5%EB%82%98%EB%88%94%EC%95%BD%EA%B5%AD-%EC%A0%9C%EC%A3%BC%ED%8A%B9%EB%B3%84%EC%9E%90%EC%B9%98%EB%8F%84-%EC%A0%9C%EC%A3%BC%EC%8B%9C-%EB%85%B8%ED%98%95%EB%8F%99/", "workingTime": ["-", "08:30~20:00", "08:30~20:00", "08:30~20:00", "08:30~20:00", "08:30~20:00", "08:30~14:00", "-"]}, {"name": "\ucd08\ub85d\uc57d\uad6d", "lat": "33.4886649230919", "lng": "126.475307220929", "url": "/info/%EC%B4%88%EB%A1%9D%EC%95%BD%EA%B5%AD-%EC%A0%9C%EC%A3%BC%ED%8A%B9%EB%B3%84%EC%9E%90%EC%B9%98%EB%8F%84-%EC%A0%9C%EC%A3%BC%EC%8B%9C-%EB%85%B8%ED%98%95%EB%8F%99/", "workingTime": ["-", "08:30~19:30", "08:30~19:30", "08:30~19:30", "08:30~19:30", "08:30~19:30", "08:30~13:00", "08:30~13:00"]}, {"name": "\uc720\uc131\uc57d\uad6d", "lat": "33.486767709643274", "lng": "126.47991628707834", "url": "/info/%EC%9C%A0%EC%84%B1%EC%95%BD%EA%B5%AD-%EC%A0%9C%EC%A3%BC%ED%8A%B9%EB%B3%84%EC%9E%90%EC%B9%98%EB%8F%84-%EC%A0%9C%EC%A3%BC%EC%8B%9C-%EB%85%B8%ED%98%95%EB%8F%99/", "workingTime": ["-", "09:00~19:00", "09:00~19:00", "09:00~19:00", "09:00~19:00", "09:00~19:00", "09:00~14:00", "-"]}, {"name": "\uc608\uc740\uc628\ub204\ub9ac\uc57d\uad6d", "lat": "33.4840011762", "lng": "126.4778488685", "url": "/info/%EC%98%88%EC%9D%80%EC%98%A8%EB%88%84%EB%A6%AC%EC%95%BD%EA%B5%AD-%EC%A0%9C%EC%A3%BC%ED%8A%B9%EB%B3%84%EC%9E%90%EC%B9%98%EB%8F%84-%EC%A0%9C%EC%A3%BC%EC%8B%9C-%EB%85%B8%ED%98%95%EB%8F%99/", "workingTime": ["-", "08:30~19:00", "08:30~19:00", "08:30~19:00", "08:30~19:00", "08:30~19:00", "-", "-"]}, {"name": "\uc138\uc6d0\uc57d\uad6d", "lat": "33.4874245109", "lng": "126.4780607399", "url": "/info/%EC%84%B8%EC%9B%90%EC%95%BD%EA%B5%AD-%EC%A0%9C%EC%A3%BC%ED%8A%B9%EB%B3%84%EC%9E%90%EC%B9%98%EB%8F%84-%EC%A0%9C%EC%A3%BC%EC%8B%9C-%EB%85%B8%ED%98%95%EB%8F%99/", "workingTime": ["-", "09:00~20:00", "09:00~20:00", "09:00~20:00", "09:00~20:00", "09:00~20:00", "09:00~12:00", "08:30~12:00"]}, {"name": "\ubbf8\uc18c\uc57d\uad6d", "lat": "33.48879522851938", "lng": "126.47667612440421", "url": "/info/%EB%AF%B8%EC%86%8C%EC%95%BD%EA%B5%AD-%EC%A0%9C%EC%A3%BC%ED%8A%B9%EB%B3%84%EC%9E%90%EC%B9%98%EB%8F%84-%EC%A0%9C%EC%A3%BC%EC%8B%9C-%EB%85%B8%ED%98%95%EB%8F%99/", "workingTime": ["-", "08:30~18:30", "08:30~18:30", "08:30~15:00", "08:30~18:30", "08:30~18:30", "08:30~13:00", "-"]}, {"name": "\uba54\ub514\ud31c\uc6d4\ub791\uc57d\uad6d", "lat": "33.489028717986045", "lng": "126.4756073176196", "url": "/info/%EB%A9%94%EB%94%94%ED%8C%9C%EC%9B%94%EB%9E%91%EC%95%BD%EA%B5%AD-%EC%A0%9C%EC%A3%BC%ED%8A%B9%EB%B3%84%EC%9E%90%EC%B9%98%EB%8F%84-%EC%A0%9C%EC%A3%BC%EC%8B%9C-%EB%85%B8%ED%98%95%EB%8F%99/", "workingTime": ["-", "08:30~20:30", "08:30~20:30", "08:30~20:30", "08:30~19:00", "08:30~20:30", "08:30~13:00", "08:30~13:00"]}, {"name": "\ub9c8\ud2b8\uc874\uc57d\uad6d", "lat": "33.4830200035135", "lng": "126.481205117721", "url": "/info/%EB%A7%88%ED%8A%B8%EC%A1%B4%EC%95%BD%EA%B5%AD-%EC%A0%9C%EC%A3%BC%ED%8A%B9%EB%B3%84%EC%9E%90%EC%B9%98%EB%8F%84-%EC%A0%9C%EC%A3%BC%EC%8B%9C-%EB%85%B8%ED%98%95%EB%8F%99/", "workingTime": ["-", "09:00~19:30", "09:00~19:30", "09:00~19:30", "09:00~19:30", "09:00~19:30", "09:00~14:00", "-"]}, {"name": "\ub300\uc815\uc57d\uad6d", "lat": "33.48127697439554", "lng": "126.48637022501629", "url": "/info/%EB%8C%80%EC%A0%95%EC%95%BD%EA%B5%AD-%EC%A0%9C%EC%A3%BC%ED%8A%B9%EB%B3%84%EC%9E%90%EC%B9%98%EB%8F%84-%EC%A0%9C%EC%A3%BC%EC%8B%9C-%EB%85%B8%ED%98%95%EB%8F%99/", "workingTime": ["-", "08:30~18:30", "08:30~18:30", "08:30~18:30", "08:30~18:30", "08:30~18:30", "09:00~13:00", "09:00~13:00"]}, {"name": "\ub178\ud615\ud55c\ub9c8\uc74c\uc57d\uad6d", "lat": "33.48663471256928", "lng": "126.48002037788811", "url": "/info/%EB%85%B8%ED%98%95%ED%95%9C%EB%A7%88%EC%9D%8C%EC%95%BD%EA%B5%AD-%EC%A0%9C%EC%A3%BC%ED%8A%B9%EB%B3%84%EC%9E%90%EC%B9%98%EB%8F%84-%EC%A0%9C%EC%A3%BC%EC%8B%9C-%EB%85%B8%ED%98%95%EB%8F%99/", "workingTime": ["-", "08:30~18:30", "08:30~18:30", "08:30~18:30", "08:30~18:30", "08:30~18:30", "08:30~13:00", "-"]}, {"name": "\ub178\ud615\ud0c0\uc6cc\uc57d\uad6d", "lat": "33.485826760533996", "lng": "126.47827784718031", "url": "/info/%EB%85%B8%ED%98%95%ED%83%80%EC%9B%8C%EC%95%BD%EA%B5%AD-%EC%A0%9C%EC%A3%BC%ED%8A%B9%EB%B3%84%EC%9E%90%EC%B9%98%EB%8F%84-%EC%A0%9C%EC%A3%BC%EC%8B%9C-%EB%85%B8%ED%98%95%EB%8F%99/", "workingTime": ["-", "09:30~17:00", "09:30~17:00", "09:30~17:00", "09:30~17:00", "09:30~17:00", "09:30~13:00", "-"]}, {"name": "\uadf8\ub9b0\uc628\ub204\ub9ac\uc57d\uad6d", "lat": "33.4823639241295", "lng": "126.480475567709", "url": "/info/%EA%B7%B8%EB%A6%B0%EC%98%A8%EB%88%84%EB%A6%AC%EC%95%BD%EA%B5%AD-%EC%A0%9C%EC%A3%BC%ED%8A%B9%EB%B3%84%EC%9E%90%EC%B9%98%EB%8F%84-%EC%A0%9C%EC%A3%BC%EC%8B%9C-%EB%85%B8%ED%98%95%EB%8F%99/", "workingTime": ["-", "09:00~20:00", "09:00~20:00", "09:00~20:00", "09:00~20:00", "09:00~20:00", "09:00~14:00", "-"]}, {"name": "\uac74\uac15\ub4dc\ub9bc\uc57d\uad6d", "lat": "33.4868131243454", "lng": "126.47932115718618", "url": "/info/%EA%B1%B4%EA%B0%95%EB%93%9C%EB%A6%BC%EC%95%BD%EA%B5%AD-%EC%A0%9C%EC%A3%BC%ED%8A%B9%EB%B3%84%EC%9E%90%EC%B9%98%EB%8F%84-%EC%A0%9C%EC%A3%BC%EC%8B%9C-%EB%85%B8%ED%98%95%EB%8F%99/", "workingTime": ["-", "08:30~18:30", "08:30~18:30", "08:30~18:30", "08:30~18:30", "08:30~18:30", "08:30~13:00", "-"]}, {"name": "\uc2f1\uc2f1\uc57d\uad6d", "lat": "33.48417300747854", "lng": "126.47694070193785", "url": "/info/%EC%8B%B1%EC%8B%B1%EC%95%BD%EA%B5%AD-%EC%A0%9C%EC%A3%BC%ED%8A%B9%EB%B3%84%EC%9E%90%EC%B9%98%EB%8F%84-%EC%A0%9C%EC%A3%BC%EC%8B%9C-%EB%85%B8%ED%98%95%EB%8F%99/", "workingTime": ["-", "09:00~19:00", "09:00~19:00", "09:00~20:00", "09:00~19:00", "09:00~19:00", "09:00~13:00", "-"]}, {"name": "\uc2e0\ud589\ubcf5\uc57d\uad6d", "lat": "33.484327243022406", "lng": "126.4773476694929", "url": "/info/%EC%8B%A0%ED%96%89%EB%B3%B5%EC%95%BD%EA%B5%AD-%EC%A0%9C%EC%A3%BC%ED%8A%B9%EB%B3%84%EC%9E%90%EC%B9%98%EB%8F%84-%EC%A0%9C%EC%A3%BC%EC%8B%9C-%EB%85%B8%ED%98%95%EB%8F%99/", "workingTime": ["-", "08:30~19:00", "08:30~19:00", "08:30~19:00", "08:30~19:00", "08:30~19:00", "08:30~14:00", "-"]}, {"name": "\uc232\uc57d\uad6d", "lat": "33.476084711418366", "lng": "126.48140040502855", "url": "/info/%EC%88%B2%EC%95%BD%EA%B5%AD-%EC%A0%9C%EC%A3%BC%ED%8A%B9%EB%B3%84%EC%9E%90%EC%B9%98%EB%8F%84-%EC%A0%9C%EC%A3%BC%EC%8B%9C-%EB%85%B8%ED%98%95%EB%8F%99/", "workingTime": ["-", "08:30~20:00", "08:30~20:00", "08:30~20:00", "08:30~20:00", "08:30~20:00", "08:30~13:00", "-"]}, {"name": "\uad7f\ubaa8\ub2dd\uc57d\uad6d", "lat": "33.48163185986134", "lng": "126.48562692709046", "url": "/info/%EA%B5%BF%EB%AA%A8%EB%8B%9D%EC%95%BD%EA%B5%AD-%EC%A0%9C%EC%A3%BC%ED%8A%B9%EB%B3%84%EC%9E%90%EC%B9%98%EB%8F%84-%EC%A0%9C%EC%A3%BC%EC%8B%9C-%EB%85%B8%ED%98%95%EB%8F%99/", "workingTime": ["-", "09:00~20:00", "09:00~20:00", "09:00~20:00", "09:00~20:00", "09:00~20:00", "09:00~14:00", "-"]}]