[{"name": "\uc885\ub85c\uc57d\uad6d", "lat": "33.2482836314201", "lng": "126.562702400565", "url": "/info/%EC%A2%85%EB%A1%9C%EC%95%BD%EA%B5%AD-%EC%A0%9C%EC%A3%BC%ED%8A%B9%EB%B3%84%EC%9E%90%EC%B9%98%EB%8F%84-%EC%84%9C%EA%B7%80%ED%8F%AC%EC%8B%9C-%EC%84%9C%EA%B7%80%EB%8F%99/", "workingTime": ["-", "09:00~19:00", "09:00~19:00", "09:00~19:00", "09:00~19:00", "09:00~19:00", "09:00~16:00", "09:00~14:00"]}, {"name": "\uc624\ub984\uc57d\uad6d", "lat": "33.50641428432528", "lng": "126.5387454485551", "url": "/info/%EC%98%A4%EB%A6%84%EC%95%BD%EA%B5%AD-%EC%A0%9C%EC%A3%BC%ED%8A%B9%EB%B3%84%EC%9E%90%EC%B9%98%EB%8F%84-%EC%84%9C%EA%B7%80%ED%8F%AC%EC%8B%9C-%EC%84%9C%EA%B7%80%EB%8F%99/", "workingTime": ["-", "08:30~20:00", "08:30~20:00", "08:30~20:00", "08:30~20:00", "08:30~20:00", "08:30~20:00", "-"]}, {"name": "\uc0bc\uc77c\uc57d\uad6d", "lat": "33.247940869095515", "lng": "126.5616415811377", "url": "/info/%EC%82%BC%EC%9D%BC%EC%95%BD%EA%B5%AD-%EC%A0%9C%EC%A3%BC%ED%8A%B9%EB%B3%84%EC%9E%90%EC%B9%98%EB%8F%84-%EC%84%9C%EA%B7%80%ED%8F%AC%EC%8B%9C-%EC%84%9C%EA%B7%80%EB%8F%99/", "workingTime": ["-", "08:30~21:00", "08:30~21:00", "08:30~21:00", "08:30~21:00", "08:30~21:00", "08:30~21:00", "-"]}, {"name": "\ub298\ud478\ub978\uc57d\uad6d", "lat": "33.247414767760986", "lng": "126.56170133668966", "url": "/info/%EB%8A%98%ED%91%B8%EB%A5%B8%EC%95%BD%EA%B5%AD-%EC%A0%9C%EC%A3%BC%ED%8A%B9%EB%B3%84%EC%9E%90%EC%B9%98%EB%8F%84-%EC%84%9C%EA%B7%80%ED%8F%AC%EC%8B%9C-%EC%84%9C%EA%B7%80%EB%8F%99/", "workingTime": ["1,2,3,4,5\uc9f8\uc8fc08:30~12:30", "08:30~20:00", "08:30~20:00", "08:30~20:00", "08:30~18:00", "08:30~20:00", "08:30~16:00", "08:30~12:30"]}, {"name": "\uc5f4\ubc29\uc57d\uad6d", "lat": "33.253037548841135", "lng": "126.56182645399889", "url": "/info/%EC%97%B4%EB%B0%A9%EC%95%BD%EA%B5%AD-%EC%A0%9C%EC%A3%BC%ED%8A%B9%EB%B3%84%EC%9E%90%EC%B9%98%EB%8F%84-%EC%84%9C%EA%B7%80%ED%8F%AC%EC%8B%9C-%EC%84%9C%EA%B7%80%EB%8F%99/", "workingTime": ["-", "08:30~19:00", "08:30~19:00", "08:30~19:00", "08:30~19:00", "08:30~19:00", "08:30~15:00", "08:30~15:00"]}, {"name": "\uc11c\uadc0\ud3ec\uc57d\uad6d", "lat": "33.2525608537975", "lng": "126.56038639057202", "url": "/info/%EC%84%9C%EA%B7%80%ED%8F%AC%EC%95%BD%EA%B5%AD-%EC%A0%9C%EC%A3%BC%ED%8A%B9%EB%B3%84%EC%9E%90%EC%B9%98%EB%8F%84-%EC%84%9C%EA%B7%80%ED%8F%AC%EC%8B%9C-%EC%84%9C%EA%B7%80%EB%8F%99/", "workingTime": ["1,2,3,4,5\uc9f8\uc8fc07:00~21:30", "07:00~21:30", "07:00~21:30", "07:00~21:30", "07:00~21:30", "07:00~21:30", "07:00~21:30", "07:00~21:30"]}, {"name": "\uac10\uade4\uc57d\uad6d", "lat": "33.2490218148027", "lng": "126.566881751223", "url": "/info/%EA%B0%90%EA%B7%A4%EC%95%BD%EA%B5%AD-%EC%A0%9C%EC%A3%BC%ED%8A%B9%EB%B3%84%EC%9E%90%EC%B9%98%EB%8F%84-%EC%84%9C%EA%B7%80%ED%8F%AC%EC%8B%9C-%EC%84%9C%EA%B7%80%EB%8F%99/", "workingTime": ["-", "08:30~18:30", "08:30~18:30", "08:30~18:30", "08:30~13:30", "08:30~18:30", "08:30~13:30", "-"]}, {"name": "\uc911\uc559\uc57d\uad6d", "lat": "33.24809115180018", "lng": "126.56335342633889", "url": "/info/%EC%A4%91%EC%95%99%EC%95%BD%EA%B5%AD-%EC%A0%9C%EC%A3%BC%ED%8A%B9%EB%B3%84%EC%9E%90%EC%B9%98%EB%8F%84-%EC%84%9C%EA%B7%80%ED%8F%AC%EC%8B%9C-%EC%84%9C%EA%B7%80%EB%8F%99/", "workingTime": ["-", "08:30~18:00", "08:30~18:00", "08:30~18:00", "08:30~18:00", "08:30~18:00", "08:30~14:00", "-"]}, {"name": "\uc740\uc131\uc57d\uad6d", "lat": "33.24928909186374", "lng": "126.56634330951891", "url": "/info/%EC%9D%80%EC%84%B1%EC%95%BD%EA%B5%AD-%EC%A0%9C%EC%A3%BC%ED%8A%B9%EB%B3%84%EC%9E%90%EC%B9%98%EB%8F%84-%EC%84%9C%EA%B7%80%ED%8F%AC%EC%8B%9C-%EC%84%9C%EA%B7%80%EB%8F%99/", "workingTime": ["-", "08:30~19:00", "08:30~19:00", "08:30~19:00", "08:30~19:00", "08:30~19:00", "08:30~12:30", "08:30~12:00"]}, {"name": "\uc720\uc120\uc57d\uad6d", "lat": "33.248465620819424", "lng": "126.56394803780081", "url": "/info/%EC%9C%A0%EC%84%A0%EC%95%BD%EA%B5%AD-%EC%A0%9C%EC%A3%BC%ED%8A%B9%EB%B3%84%EC%9E%90%EC%B9%98%EB%8F%84-%EC%84%9C%EA%B7%80%ED%8F%AC%EC%8B%9C-%EC%84%9C%EA%B7%80%EB%8F%99/", "workingTime": ["-", "09:00~18:00", "09:00~18:00", "09:00~18:00", "09:00~18:00", "09:00~18:00", "09:00~13:00", "-"]}, {"name": "\uc218\uc815\uc57d\uad6d", "lat": "33.245131687154874", "lng": "126.56556987255416", "url": "/info/%EC%88%98%EC%A0%95%EC%95%BD%EA%B5%AD-%EC%A0%9C%EC%A3%BC%ED%8A%B9%EB%B3%84%EC%9E%90%EC%B9%98%EB%8F%84-%EC%84%9C%EA%B7%80%ED%8F%AC%EC%8B%9C-%EC%84%9C%EA%B7%80%EB%8F%99/", "workingTime": ["-", "09:00~19:00", "09:00~19:00", "09:00~19:00", "09:00~19:00", "09:00~19:00", "09:00~13:00", "-"]}, {"name": "\uc0c8\ud604\ub300\uc57d\uad6d", "lat": "33.2478904391887", "lng": "126.561659001733", "url": "/info/%EC%83%88%ED%98%84%EB%8C%80%EC%95%BD%EA%B5%AD-%EC%A0%9C%EC%A3%BC%ED%8A%B9%EB%B3%84%EC%9E%90%EC%B9%98%EB%8F%84-%EC%84%9C%EA%B7%80%ED%8F%AC%EC%8B%9C-%EC%84%9C%EA%B7%80%EB%8F%99/", "workingTime": ["-", "09:00~19:00", "09:00~19:00", "09:00~19:00", "09:00~19:00", "09:00~19:00", "08:30~14:00", "-"]}, {"name": "\ub3d9\uc758\ub2f9\uc57d\uad6d", "lat": "33.24797545025408", "lng": "126.56429828873912", "url": "/info/%EB%8F%99%EC%9D%98%EB%8B%B9%EC%95%BD%EA%B5%AD-%EC%A0%9C%EC%A3%BC%ED%8A%B9%EB%B3%84%EC%9E%90%EC%B9%98%EB%8F%84-%EC%84%9C%EA%B7%80%ED%8F%AC%EC%8B%9C-%EC%84%9C%EA%B7%80%EB%8F%99/", "workingTime": ["-", "09:00~18:30", "09:00~18:30", "09:00~18:30", "09:00~18:30", "09:00~18:30", "09:00~13:00", "-"]}, {"name": "\ub3d9\uc0b0\ud504\ub77c\uc790\uc57d\uad6d", "lat": "33.2522711795", "lng": "126.5613194806", "url": "/info/%EB%8F%99%EC%82%B0%ED%94%84%EB%9D%BC%EC%9E%90%EC%95%BD%EA%B5%AD-%EC%A0%9C%EC%A3%BC%ED%8A%B9%EB%B3%84%EC%9E%90%EC%B9%98%EB%8F%84-%EC%84%9C%EA%B7%80%ED%8F%AC%EC%8B%9C-%EC%84%9C%EA%B7%80%EB%8F%99/", "workingTime": ["-", "09:00~19:00", "09:00~19:00", "09:00~19:00", "09:00~19:00", "09:00~19:00", "09:00~13:00", "-"]}, {"name": "\ub3d9\ubb38\uc57d\uad6d", "lat": "33.248832849858296", "lng": "126.56815705432036", "url": "/info/%EB%8F%99%EB%AC%B8%EC%95%BD%EA%B5%AD-%EC%A0%9C%EC%A3%BC%ED%8A%B9%EB%B3%84%EC%9E%90%EC%B9%98%EB%8F%84-%EC%84%9C%EA%B7%80%ED%8F%AC%EC%8B%9C-%EC%84%9C%EA%B7%80%EB%8F%99/", "workingTime": ["-", "08:30~19:00", "08:30~19:00", "08:30~19:00", "08:30~19:00", "08:30~19:00", "08:30~13:00", "-"]}, {"name": "\ub2e4\ub098\uc57d\uad6d", "lat": "33.253078089180626", "lng": "126.56168916112524", "url": "/info/%EB%8B%A4%EB%82%98%EC%95%BD%EA%B5%AD-%EC%A0%9C%EC%A3%BC%ED%8A%B9%EB%B3%84%EC%9E%90%EC%B9%98%EB%8F%84-%EC%84%9C%EA%B7%80%ED%8F%AC%EC%8B%9C-%EC%84%9C%EA%B7%80%EB%8F%99/", "workingTime": ["-", "08:30~18:00", "08:30~18:00", "08:30~18:00", "08:30~18:00", "08:30~18:00", "08:30~13:00", "-"]}, {"name": "\uad11\uc9c4\ub2f9\uc57d\uad6d", "lat": "33.24780807024498", "lng": "126.56361652244152", "url": "/info/%EA%B4%91%EC%A7%84%EB%8B%B9%EC%95%BD%EA%B5%AD-%EC%A0%9C%EC%A3%BC%ED%8A%B9%EB%B3%84%EC%9E%90%EC%B9%98%EB%8F%84-%EC%84%9C%EA%B7%80%ED%8F%AC%EC%8B%9C-%EC%84%9C%EA%B7%80%EB%8F%99/", "workingTime": ["-", "08:30~18:00", "08:30~18:00", "08:30~18:00", "08:30~18:00", "08:30~18:00", "08:30~12:00", "08:30~12:00"]}, {"name": "\ud604\uac15\uc57d\uad6d", "lat": "33.252345971127674", "lng": "126.56207457403197", "url": "/info/%ED%98%84%EA%B0%95%EC%95%BD%EA%B5%AD-%EC%A0%9C%EC%A3%BC%ED%8A%B9%EB%B3%84%EC%9E%90%EC%B9%98%EB%8F%84-%EC%84%9C%EA%B7%80%ED%8F%AC%EC%8B%9C-%EC%84%9C%EA%B7%80%EB%8F%99/", "workingTime": ["-", "08:00~18:30", "08:00~18:30", "08:00~18:30", "08:00~18:30", "08:00~18:30", "08:00~13:00", "-"]}, {"name": "\ubbfc\uc81c\uc57d\uad6d", "lat": "33.247789750995366", "lng": "126.56353506220893", "url": "/info/%EB%AF%BC%EC%A0%9C%EC%95%BD%EA%B5%AD-%EC%A0%9C%EC%A3%BC%ED%8A%B9%EB%B3%84%EC%9E%90%EC%B9%98%EB%8F%84-%EC%84%9C%EA%B7%80%ED%8F%AC%EC%8B%9C-%EC%84%9C%EA%B7%80%EB%8F%99/", "workingTime": ["-", "09:00~18:00", "09:00~18:00", "09:00~18:00", "09:00~18:00", "09:00~18:00", "09:00~12:00", "-"]}]