[{"name": "\uc2dc\uc6d0\ud55c\uc57d\uad6d", "lat": "33.5170678341", "lng": "126.5802878738", "url": "/info/%EC%8B%9C%EC%9B%90%ED%95%9C%EC%95%BD%EA%B5%AD-%EC%A0%9C%EC%A3%BC%ED%8A%B9%EB%B3%84%EC%9E%90%EC%B9%98%EB%8F%84-%EC%A0%9C%EC%A3%BC%EC%8B%9C-%EB%8F%84%EB%A0%A8%EC%9D%BC%EB%8F%99/", "workingTime": ["1,2,3,4,5\uc9f8\uc8fc09:00~18:00", "09:00~20:00", "09:00~20:00", "09:00~20:00", "09:00~20:00", "09:00~20:00", "09:00~18:00", "09:00~18:00"]}, {"name": "\ubcc4\uc57d\uad6d", "lat": "33.5170887510796", "lng": "126.58114025414748", "url": "/info/%EB%B3%84%EC%95%BD%EA%B5%AD-%EC%A0%9C%EC%A3%BC%ED%8A%B9%EB%B3%84%EC%9E%90%EC%B9%98%EB%8F%84-%EC%A0%9C%EC%A3%BC%EC%8B%9C-%EB%8F%84%EB%A0%A8%EC%9D%BC%EB%8F%99/", "workingTime": ["-", "08:30~21:00", "08:30~21:00", "08:30~21:00", "08:30~21:00", "08:30~21:00", "09:30~16:30", "-"]}, {"name": "\uc0bc\ud654\uc0ac\ub791\uc57d\uad6d", "lat": "33.5156204436", "lng": "126.5809880308", "url": "/info/%EC%82%BC%ED%99%94%EC%82%AC%EB%9E%91%EC%95%BD%EA%B5%AD-%EC%A0%9C%EC%A3%BC%ED%8A%B9%EB%B3%84%EC%9E%90%EC%B9%98%EB%8F%84-%EC%A0%9C%EC%A3%BC%EC%8B%9C-%EB%8F%84%EB%A0%A8%EC%9D%BC%EB%8F%99/", "workingTime": ["1,2,3,4,5\uc9f8\uc8fc09:00~21:00", "08:30~21:30", "08:30~21:30", "08:30~21:30", "08:30~21:30", "08:30~21:30", "09:00~21:00", "09:00~21:00"]}, {"name": "\uc9c4\uc601\uc57d\uad6d", "lat": "33.5167649186", "lng": "126.5802936421", "url": "/info/%EC%A7%84%EC%98%81%EC%95%BD%EA%B5%AD-%EC%A0%9C%EC%A3%BC%ED%8A%B9%EB%B3%84%EC%9E%90%EC%B9%98%EB%8F%84-%EC%A0%9C%EC%A3%BC%EC%8B%9C-%EB%8F%84%EB%A0%A8%EC%9D%BC%EB%8F%99/", "workingTime": ["-", "08:30~18:30", "08:30~18:30", "08:30~18:30", "08:30~18:30", "08:30~18:30", "08:30~14:00", "-"]}, {"name": "\ub2e4\uc815\uc628\ub204\ub9ac\uc57d\uad6d", "lat": "33.51644272632776", "lng": "126.58099698291823", "url": "/info/%EB%8B%A4%EC%A0%95%EC%98%A8%EB%88%84%EB%A6%AC%EC%95%BD%EA%B5%AD-%EC%A0%9C%EC%A3%BC%ED%8A%B9%EB%B3%84%EC%9E%90%EC%B9%98%EB%8F%84-%EC%A0%9C%EC%A3%BC%EC%8B%9C-%EB%8F%84%EB%A0%A8%EC%9D%BC%EB%8F%99/", "workingTime": ["-", "09:00~21:00", "09:00~21:00", "09:00~13:00", "09:00~21:00", "09:00~21:00", "09:00~13:00", "-"]}, {"name": "\uc124\uc57d\uad6d", "lat": "33.5167780696", "lng": "126.5809824499", "url": "/info/%EC%84%A4%EC%95%BD%EA%B5%AD-%EC%A0%9C%EC%A3%BC%ED%8A%B9%EB%B3%84%EC%9E%90%EC%B9%98%EB%8F%84-%EC%A0%9C%EC%A3%BC%EC%8B%9C-%EB%8F%84%EB%A0%A8%EC%9D%BC%EB%8F%99/", "workingTime": ["1,2,3,4,5\uc9f8\uc8fc09:00~13:00", "09:00~19:00", "09:00~20:30", "09:00~20:00", "09:00~20:30", "09:00~19:00", "-", "-"]}]