[{"name": "\uc815\ubbfc\ub2f9\uc57d\uad6d", "lat": "33.50731886495244", "lng": "126.52481911145617", "url": "/info/%EC%A0%95%EB%AF%BC%EB%8B%B9%EC%95%BD%EA%B5%AD-%EC%A0%9C%EC%A3%BC%ED%8A%B9%EB%B3%84%EC%9E%90%EC%B9%98%EB%8F%84-%EC%A0%9C%EC%A3%BC%EC%8B%9C-%EC%9D%B4%EB%8F%84%EC%9D%BC%EB%8F%99/", "workingTime": ["-", "09:00~19:00", "09:00~19:00", "09:00~19:00", "09:00~19:00", "09:00~19:00", "09:00~19:00", "-"]}, {"name": "\uc778\uc218\ub2f9\uac74\uc7ac\uc57d\uad6d", "lat": "33.51295507659386", "lng": "126.52512335010789", "url": "/info/%EC%9D%B8%EC%88%98%EB%8B%B9%EA%B1%B4%EC%9E%AC%EC%95%BD%EA%B5%AD-%EC%A0%9C%EC%A3%BC%ED%8A%B9%EB%B3%84%EC%9E%90%EC%B9%98%EB%8F%84-%EC%A0%9C%EC%A3%BC%EC%8B%9C-%EC%9D%B4%EB%8F%84%EC%9D%BC%EB%8F%99/", "workingTime": ["-", "09:30~19:00", "09:30~19:00", "09:30~19:00", "09:30~19:00", "09:30~19:00", "09:00~19:00", "-"]}, {"name": "\uc0c8\uc911\uc559\uc57d\uad6d", "lat": "33.51264432706747", "lng": "126.5247932309954", "url": "/info/%EC%83%88%EC%A4%91%EC%95%99%EC%95%BD%EA%B5%AD-%EC%A0%9C%EC%A3%BC%ED%8A%B9%EB%B3%84%EC%9E%90%EC%B9%98%EB%8F%84-%EC%A0%9C%EC%A3%BC%EC%8B%9C-%EC%9D%B4%EB%8F%84%EC%9D%BC%EB%8F%99/", "workingTime": ["-", "09:00~18:00", "09:00~18:00", "09:00~18:00", "09:00~18:00", "09:00~18:00", "09:00~16:00", "09:00~12:00"]}, {"name": "\ub3d9\ubcf4\uc57d\uad6d", "lat": "33.51173841412182", "lng": "126.52554728522618", "url": "/info/%EB%8F%99%EB%B3%B4%EC%95%BD%EA%B5%AD-%EC%A0%9C%EC%A3%BC%ED%8A%B9%EB%B3%84%EC%9E%90%EC%B9%98%EB%8F%84-%EC%A0%9C%EC%A3%BC%EC%8B%9C-%EC%9D%B4%EB%8F%84%EC%9D%BC%EB%8F%99/", "workingTime": ["-", "09:00~18:00", "09:00~18:00", "09:00~18:00", "09:00~18:00", "09:00~18:00", "09:00~17:00", "09:00~17:00"]}, {"name": "\uc5f0\uc138\uc775\uc57d\uad6d", "lat": "33.5035661285", "lng": "126.5273654488", "url": "/info/%EC%97%B0%EC%84%B8%EC%9D%B5%EC%95%BD%EA%B5%AD-%EC%A0%9C%EC%A3%BC%ED%8A%B9%EB%B3%84%EC%9E%90%EC%B9%98%EB%8F%84-%EC%A0%9C%EC%A3%BC%EC%8B%9C-%EC%9D%B4%EB%8F%84%EC%9D%BC%EB%8F%99/", "workingTime": ["-", "08:30~21:00", "08:30~21:00", "08:30~21:00", "08:30~21:00", "08:30~21:00", "08:30~21:00", "08:30~21:00"]}, {"name": "365\uac74\uac15\uc628\ub204\ub9ac\uc57d\uad6d", "lat": "33.50071307759323", "lng": "126.52820314080192", "url": "/info/365%EA%B1%B4%EA%B0%95%EC%98%A8%EB%88%84%EB%A6%AC%EC%95%BD%EA%B5%AD-%EC%A0%9C%EC%A3%BC%ED%8A%B9%EB%B3%84%EC%9E%90%EC%B9%98%EB%8F%84-%EC%A0%9C%EC%A3%BC%EC%8B%9C-%EC%9D%B4%EB%8F%84%EC%9D%BC%EB%8F%99/", "workingTime": ["-", "09:00~21:00", "09:00~21:00", "09:00~21:00", "09:00~21:00", "09:00~21:00", "09:00~21:00", "-"]}]