[{"name": "\uc81c\uc8fc\ud1a0\ub9c8\ud1a0\uc57d\uad6d", "lat": "33.490118955", "lng": "126.4859426032", "url": "/info/%EC%A0%9C%EC%A3%BC%ED%86%A0%EB%A7%88%ED%86%A0%EC%95%BD%EA%B5%AD-%EC%A0%9C%EC%A3%BC%ED%8A%B9%EB%B3%84%EC%9E%90%EC%B9%98%EB%8F%84-%EC%A0%9C%EC%A3%BC%EC%8B%9C-%EC%97%B0%EB%8F%99/", "workingTime": ["1,2,3,4,5\uc9f8\uc8fc13:00~20:00", "08:30~21:00", "08:30~21:00", "08:30~21:00", "08:30~21:00", "08:30~21:00", "09:00~20:00", "13:00~20:00"]}, {"name": "\uc790\uc5f0\uc57d\uad6d", "lat": "33.48572757355287", "lng": "126.48971723277061", "url": "/info/%EC%9E%90%EC%97%B0%EC%95%BD%EA%B5%AD-%EC%A0%9C%EC%A3%BC%ED%8A%B9%EB%B3%84%EC%9E%90%EC%B9%98%EB%8F%84-%EC%A0%9C%EC%A3%BC%EC%8B%9C-%EC%97%B0%EB%8F%99/", "workingTime": ["1,2,3,4,5\uc9f8\uc8fc09:00~22:30", "09:00~22:30", "09:00~22:30", "09:00~22:30", "09:00~22:30", "09:00~22:30", "09:00~22:30", "09:00~22:30"]}, {"name": "\uc2e0\ud55c\uc628\ub204\ub9ac\uc57d\uad6d", "lat": "33.48970118958985", "lng": "126.48631606462772", "url": "/info/%EC%8B%A0%ED%95%9C%EC%98%A8%EB%88%84%EB%A6%AC%EC%95%BD%EA%B5%AD-%EC%A0%9C%EC%A3%BC%ED%8A%B9%EB%B3%84%EC%9E%90%EC%B9%98%EB%8F%84-%EC%A0%9C%EC%A3%BC%EC%8B%9C-%EC%97%B0%EB%8F%99/", "workingTime": ["-", "08:30~20:30", "08:30~20:30", "08:30~20:30", "08:30~20:30", "08:30~20:30", "08:30~15:00", "-"]}, {"name": "\uc2e0\uc138\uacc4\uc57d\uad6d", "lat": "33.4851370508", "lng": "126.4908181795", "url": "/info/%EC%8B%A0%EC%84%B8%EA%B3%84%EC%95%BD%EA%B5%AD-%EC%A0%9C%EC%A3%BC%ED%8A%B9%EB%B3%84%EC%9E%90%EC%B9%98%EB%8F%84-%EC%A0%9C%EC%A3%BC%EC%8B%9C-%EC%97%B0%EB%8F%99/", "workingTime": ["-", "09:00~21:00", "09:00~21:00", "09:00~21:00", "09:00~21:00", "09:00~21:00", "09:00~15:00", "09:00~15:00"]}, {"name": "\uc624\ub984\uc544\ub798\uc57d\uad6d", "lat": "33.4895983510098", "lng": "126.488660583969", "url": "/info/%EC%98%A4%EB%A6%84%EC%95%84%EB%9E%98%EC%95%BD%EA%B5%AD-%EC%A0%9C%EC%A3%BC%ED%8A%B9%EB%B3%84%EC%9E%90%EC%B9%98%EB%8F%84-%EC%A0%9C%EC%A3%BC%EC%8B%9C-%EC%97%B0%EB%8F%99/", "workingTime": ["-", "09:00~24:00", "09:00~24:00", "09:00~24:00", "09:00~24:00", "09:00~24:00", "09:00~24:00", "-"]}, {"name": "\ub3d9\uc778\ud55c\uc57d\uad6d", "lat": "33.482637328305366", "lng": "126.49003754782905", "url": "/info/%EB%8F%99%EC%9D%B8%ED%95%9C%EC%95%BD%EA%B5%AD-%EC%A0%9C%EC%A3%BC%ED%8A%B9%EB%B3%84%EC%9E%90%EC%B9%98%EB%8F%84-%EC%A0%9C%EC%A3%BC%EC%8B%9C-%EC%97%B0%EB%8F%99/", "workingTime": ["1,2,3,4,5\uc9f8\uc8fc12:00~17:00", "09:00~20:00", "09:00~20:00", "09:00~20:00", "09:00~20:00", "09:00~20:00", "09:00~19:00", "09:00~20:00"]}, {"name": "\uad11\uc8fc\uc57d\uad6d", "lat": "33.48112264232817", "lng": "126.49003353557649", "url": "/info/%EA%B4%91%EC%A3%BC%EC%95%BD%EA%B5%AD-%EC%A0%9C%EC%A3%BC%ED%8A%B9%EB%B3%84%EC%9E%90%EC%B9%98%EB%8F%84-%EC%A0%9C%EC%A3%BC%EC%8B%9C-%EC%97%B0%EB%8F%99/", "workingTime": ["-", "08:30~21:00", "08:30~21:00", "08:30~21:00", "08:30~21:00", "08:30~21:00", "08:30~19:00", "-"]}, {"name": "\ud64d\uc775\ud55c\uc57d\uad6d", "lat": "33.486040292", "lng": "126.4894657725", "url": "/info/%ED%99%8D%EC%9D%B5%ED%95%9C%EC%95%BD%EA%B5%AD-%EC%A0%9C%EC%A3%BC%ED%8A%B9%EB%B3%84%EC%9E%90%EC%B9%98%EB%8F%84-%EC%A0%9C%EC%A3%BC%EC%8B%9C-%EC%97%B0%EB%8F%99/", "workingTime": ["1,2,3,4,5\uc9f8\uc8fc10:00~23:00", "09:00~23:00", "09:00~23:00", "09:00~23:00", "09:00~23:00", "09:00~23:00", "10:00~23:00", "10:00~23:00"]}, {"name": "\ub099\uc0b0\uc57d\uad6d", "lat": "33.49086369839841", "lng": "126.48725526963125", "url": "/info/%EB%82%99%EC%82%B0%EC%95%BD%EA%B5%AD-%EC%A0%9C%EC%A3%BC%ED%8A%B9%EB%B3%84%EC%9E%90%EC%B9%98%EB%8F%84-%EC%A0%9C%EC%A3%BC%EC%8B%9C-%EC%97%B0%EB%8F%99/", "workingTime": ["1,2,3,4,5\uc9f8\uc8fc08:00~23:00", "08:00~23:00", "08:00~23:00", "08:00~23:00", "08:00~23:00", "08:00~23:00", "08:00~23:00", "08:00~23:00"]}, {"name": "\uc0c8\ud55c\uc628\ub204\ub9ac\uc57d\uad6d", "lat": "33.485922650074556", "lng": "126.49617709447914", "url": "/info/%EC%83%88%ED%95%9C%EC%98%A8%EB%88%84%EB%A6%AC%EC%95%BD%EA%B5%AD-%EC%A0%9C%EC%A3%BC%ED%8A%B9%EB%B3%84%EC%9E%90%EC%B9%98%EB%8F%84-%EC%A0%9C%EC%A3%BC%EC%8B%9C-%EC%97%B0%EB%8F%99/", "workingTime": ["1,2,3,4,5\uc9f8\uc8fc16:00~20:30", "09:00~22:00", "09:00~22:00", "09:00~22:00", "09:00~22:00", "09:00~22:00", "09:00~22:00", "-"]}, {"name": "\ud558\ub098\uc57d\uad6d", "lat": "33.48207552973677", "lng": "126.49198181152539", "url": "/info/%ED%95%98%EB%82%98%EC%95%BD%EA%B5%AD-%EC%A0%9C%EC%A3%BC%ED%8A%B9%EB%B3%84%EC%9E%90%EC%B9%98%EB%8F%84-%EC%A0%9C%EC%A3%BC%EC%8B%9C-%EC%97%B0%EB%8F%99/", "workingTime": ["1,2,3,4,5\uc9f8\uc8fc09:00~23:00", "09:00~23:00", "09:00~23:00", "09:00~23:00", "09:00~23:00", "09:00~23:00", "09:00~23:00", "09:00~23:00"]}, {"name": "\ud55c\ub77c\ud504\ub77c\uc790\uc57d\uad6d", "lat": "33.48964799609363", "lng": "126.49154499487851", "url": "/info/%ED%95%9C%EB%9D%BC%ED%94%84%EB%9D%BC%EC%9E%90%EC%95%BD%EA%B5%AD-%EC%A0%9C%EC%A3%BC%ED%8A%B9%EB%B3%84%EC%9E%90%EC%B9%98%EB%8F%84-%EC%A0%9C%EC%A3%BC%EC%8B%9C-%EC%97%B0%EB%8F%99/", "workingTime": ["1,2,3,4,5\uc9f8\uc8fc17:00~21:00", "15:00~21:00", "15:00~21:00", "15:00~21:00", "15:00~21:00", "15:00~21:00", "15:00~21:00", "-"]}, {"name": "\ud76c\ub9dd\uc57d\uad6d", "lat": "33.48145559163381", "lng": "126.48944197858143", "url": "/info/%ED%9D%AC%EB%A7%9D%EC%95%BD%EA%B5%AD-%EC%A0%9C%EC%A3%BC%ED%8A%B9%EB%B3%84%EC%9E%90%EC%B9%98%EB%8F%84-%EC%A0%9C%EC%A3%BC%EC%8B%9C-%EC%97%B0%EB%8F%99/", "workingTime": ["-", "09:00~18:00", "09:00~18:00", "09:00~18:00", "09:00~18:00", "09:00~18:00", "09:00~13:00", "-"]}, {"name": "\ud55c\ub77c\uc0b0\uc57d\uad6d", "lat": "33.490958796917276", "lng": "126.48520676384273", "url": "/info/%ED%95%9C%EB%9D%BC%EC%82%B0%EC%95%BD%EA%B5%AD-%EC%A0%9C%EC%A3%BC%ED%8A%B9%EB%B3%84%EC%9E%90%EC%B9%98%EB%8F%84-%EC%A0%9C%EC%A3%BC%EC%8B%9C-%EC%97%B0%EB%8F%99/", "workingTime": ["-", "09:00~18:00", "09:00~18:00", "09:00~18:00", "09:00~18:00", "09:00~18:00", "-", "-"]}, {"name": "\ud0dc\ud3c9\uc591\uc57d\uad6d", "lat": "33.48723477532123", "lng": "126.49053045042079", "url": "/info/%ED%83%9C%ED%8F%89%EC%96%91%EC%95%BD%EA%B5%AD-%EC%A0%9C%EC%A3%BC%ED%8A%B9%EB%B3%84%EC%9E%90%EC%B9%98%EB%8F%84-%EC%A0%9C%EC%A3%BC%EC%8B%9C-%EC%97%B0%EB%8F%99/", "workingTime": ["-", "15:00~20:00", "15:00~20:00", "15:00~20:00", "15:00~20:00", "15:00~20:00", "15:00~20:00", "-"]}, {"name": "\uc2e0\uc81c\uc8fc\ub300\uc6c5\uc57d\uad6d", "lat": "33.49082030654492", "lng": "126.48485895183946", "url": "/info/%EC%8B%A0%EC%A0%9C%EC%A3%BC%EB%8C%80%EC%9B%85%EC%95%BD%EA%B5%AD-%EC%A0%9C%EC%A3%BC%ED%8A%B9%EB%B3%84%EC%9E%90%EC%B9%98%EB%8F%84-%EC%A0%9C%EC%A3%BC%EC%8B%9C-%EC%97%B0%EB%8F%99/", "workingTime": ["-", "08:00~18:00", "08:00~18:00", "08:00~18:00", "08:00~18:00", "08:00~18:00", "-", "-"]}, {"name": "\ub274\uc81c\uc8fc\uc57d\uad6d", "lat": "33.48513218867244", "lng": "126.49051263403821", "url": "/info/%EB%89%B4%EC%A0%9C%EC%A3%BC%EC%95%BD%EA%B5%AD-%EC%A0%9C%EC%A3%BC%ED%8A%B9%EB%B3%84%EC%9E%90%EC%B9%98%EB%8F%84-%EC%A0%9C%EC%A3%BC%EC%8B%9C-%EC%97%B0%EB%8F%99/", "workingTime": ["-", "09:30~20:30", "09:30~20:30", "09:30~20:30", "09:30~20:30", "09:30~20:30", "09:30~14:00", "-"]}, {"name": "\ubcf4\uac74\uc57d\uad6d", "lat": "33.48599132903174", "lng": "126.49093456761497", "url": "/info/%EB%B3%B4%EA%B1%B4%EC%95%BD%EA%B5%AD-%EC%A0%9C%EC%A3%BC%ED%8A%B9%EB%B3%84%EC%9E%90%EC%B9%98%EB%8F%84-%EC%A0%9C%EC%A3%BC%EC%8B%9C-%EC%97%B0%EB%8F%99/", "workingTime": ["-", "10:00~18:00", "10:00~18:00", "10:00~18:00", "10:00~18:00", "10:00~18:00", "-", "-"]}, {"name": "\uc81c\uc8fc\uc57d\uad6d", "lat": "33.490914736412", "lng": "126.484844218554", "url": "/info/%EC%A0%9C%EC%A3%BC%EC%95%BD%EA%B5%AD-%EC%A0%9C%EC%A3%BC%ED%8A%B9%EB%B3%84%EC%9E%90%EC%B9%98%EB%8F%84-%EC%A0%9C%EC%A3%BC%EC%8B%9C-%EC%97%B0%EB%8F%99/", "workingTime": ["-", "08:10~18:30", "08:10~18:30", "08:10~18:30", "08:10~18:30", "08:10~18:30", "-", "-"]}, {"name": "\ub9c8\uc74c\uc57d\uad6d", "lat": "33.5399190229102", "lng": "126.674462441418", "url": "/info/%EB%A7%88%EC%9D%8C%EC%95%BD%EA%B5%AD-%EC%A0%9C%EC%A3%BC%ED%8A%B9%EB%B3%84%EC%9E%90%EC%B9%98%EB%8F%84-%EC%A0%9C%EC%A3%BC%EC%8B%9C-%EC%97%B0%EB%8F%99/", "workingTime": ["-", "08:30~22:00", "08:30~22:00", "08:30~22:00", "08:30~22:00", "08:30~22:00", "-", "-"]}, {"name": "\ubd80\ubd80\uc628\ub204\ub9ac\uc57d\uad6d", "lat": "33.48677881062849", "lng": "126.49212643832976", "url": "/info/%EB%B6%80%EB%B6%80%EC%98%A8%EB%88%84%EB%A6%AC%EC%95%BD%EA%B5%AD-%EC%A0%9C%EC%A3%BC%ED%8A%B9%EB%B3%84%EC%9E%90%EC%B9%98%EB%8F%84-%EC%A0%9C%EC%A3%BC%EC%8B%9C-%EC%97%B0%EB%8F%99/", "workingTime": ["1,2,3,4,5\uc9f8\uc8fc17:00~27:00", "15:00~27:00", "15:00~27:00", "15:00~27:00", "15:00~27:00", "15:00~27:00", "17:00~27:00", "17:00~27:00"]}]