[{"name": "\ucc38\uc57d\uc0ac\ub9d1\uc740\uc57d\uad6d", "lat": "36.7831607546201", "lng": "127.153722069565", "url": "/info/%EC%B0%B8%EC%95%BD%EC%82%AC%EB%A7%91%EC%9D%80%EC%95%BD%EA%B5%AD-%EC%B6%A9%EC%B2%AD%EB%82%A8%EB%8F%84-%EC%B2%9C%EC%95%88%EC%8B%9C-%EC%B2%AD%EB%8B%B9%EB%8F%99/", "workingTime": ["-", "09:00~19:00", "09:00~19:00", "09:00~19:00", "09:00~19:00", "09:00~19:00", "09:00~14:00", "-"]}, {"name": "\ub450\ub9ac\uc57d\uad6d", "lat": "36.7811954907385", "lng": "127.15494473410087", "url": "/info/%EB%91%90%EB%A6%AC%EC%95%BD%EA%B5%AD-%EC%B6%A9%EC%B2%AD%EB%82%A8%EB%8F%84-%EC%B2%9C%EC%95%88%EC%8B%9C-%EC%B2%AD%EB%8B%B9%EB%8F%99/", "workingTime": ["-", "08:00~18:00", "08:00~18:00", "08:00~18:00", "08:00~18:00", "08:00~18:00", "08:00~13:00", "09:00~13:00"]}, {"name": "\ud55c\uc6b8\uc57d\uad6d", "lat": "36.78133342532238", "lng": "127.15285112465352", "url": "/info/%ED%95%9C%EC%9A%B8%EC%95%BD%EA%B5%AD-%EC%B6%A9%EC%B2%AD%EB%82%A8%EB%8F%84-%EC%B2%9C%EC%95%88%EC%8B%9C-%EC%B2%AD%EB%8B%B9%EB%8F%99/", "workingTime": ["-", "09:00~18:30", "09:00~18:30", "09:00~13:00", "09:00~18:30", "09:00~18:30", "09:00~13:00", "-"]}, {"name": "\ud558\ub298\uc57d\uad6d", "lat": "36.782760672", "lng": "127.1529435804", "url": "/info/%ED%95%98%EB%8A%98%EC%95%BD%EA%B5%AD-%EC%B6%A9%EC%B2%AD%EB%82%A8%EB%8F%84-%EC%B2%9C%EC%95%88%EC%8B%9C-%EC%B2%AD%EB%8B%B9%EB%8F%99/", "workingTime": ["-", "08:50~18:30", "08:50~18:30", "08:50~18:30", "08:50~18:30", "08:50~18:30", "08:50~13:00", "08:50~13:00"]}, {"name": "\uc5d8\ub9bc\uc57d\uad6d", "lat": "36.78393424157362", "lng": "127.15261105583986", "url": "/info/%EC%97%98%EB%A6%BC%EC%95%BD%EA%B5%AD-%EC%B6%A9%EC%B2%AD%EB%82%A8%EB%8F%84-%EC%B2%9C%EC%95%88%EC%8B%9C-%EC%B2%AD%EB%8B%B9%EB%8F%99/", "workingTime": ["-", "08:30~19:00", "08:30~19:00", "08:30~19:00", "08:30~19:00", "08:30~19:00", "08:30~14:30", "-"]}, {"name": "\uc138\uc885\uba54\ub514\uce7c\uc57d\uad6d", "lat": "36.7806181865", "lng": "127.142489753", "url": "/info/%EC%84%B8%EC%A2%85%EB%A9%94%EB%94%94%EC%B9%BC%EC%95%BD%EA%B5%AD-%EC%B6%A9%EC%B2%AD%EB%82%A8%EB%8F%84-%EC%B2%9C%EC%95%88%EC%8B%9C-%EC%B2%AD%EB%8B%B9%EB%8F%99/", "workingTime": ["-", "09:00~19:00", "09:00~19:00", "09:00~19:00", "09:00~19:00", "09:00~19:00", "09:00~13:00", "-"]}, {"name": "\ub298\ubd04\uc57d\uad6d", "lat": "36.783283392", "lng": "127.1528863648", "url": "/info/%EB%8A%98%EB%B4%84%EC%95%BD%EA%B5%AD-%EC%B6%A9%EC%B2%AD%EB%82%A8%EB%8F%84-%EC%B2%9C%EC%95%88%EC%8B%9C-%EC%B2%AD%EB%8B%B9%EB%8F%99/", "workingTime": ["5\uc9f8\uc8fc10:00~14:00", "09:00~21:00", "09:00~20:00", "09:00~20:00", "09:00~20:00", "09:00~21:00", "09:00~16:00", "10:00~14:00"]}]