[{"name": "\ub85c\ud0c0\ub9ac\uc57d\uad6d", "lat": "36.803472951971585", "lng": "127.1504486526641", "url": "/info/%EB%A1%9C%ED%83%80%EB%A6%AC%EC%95%BD%EA%B5%AD-%EC%B6%A9%EC%B2%AD%EB%82%A8%EB%8F%84-%EC%B2%9C%EC%95%88%EC%8B%9C-%EC%98%81%EC%84%B1%EB%8F%99/", "workingTime": ["-", "08:30~19:00", "08:30~19:00", "08:30~19:00", "08:30~19:00", "08:30~19:00", "08:30~19:00", "08:30~19:00"]}, {"name": "\uba85\ubcf4\uc57d\uad6d", "lat": "36.802906729731504", "lng": "127.15302623297035", "url": "/info/%EB%AA%85%EB%B3%B4%EC%95%BD%EA%B5%AD-%EC%B6%A9%EC%B2%AD%EB%82%A8%EB%8F%84-%EC%B2%9C%EC%95%88%EC%8B%9C-%EC%98%81%EC%84%B1%EB%8F%99/", "workingTime": ["-", "08:30~20:30", "08:30~20:30", "08:30~20:30", "08:30~20:30", "08:30~20:30", "08:30~18:30", "08:30~18:30"]}, {"name": "\uad6c\uc138\uad11\ud574\ub2f9\uc57d\uad6d", "lat": "36.805943448480136", "lng": "127.15214329834816", "url": "/info/%EA%B5%AC%EC%84%B8%EA%B4%91%ED%95%B4%EB%8B%B9%EC%95%BD%EA%B5%AD-%EC%B6%A9%EC%B2%AD%EB%82%A8%EB%8F%84-%EC%B2%9C%EC%95%88%EC%8B%9C-%EC%98%81%EC%84%B1%EB%8F%99/", "workingTime": ["-", "09:00~18:30", "09:00~18:30", "09:00~18:30", "09:00~18:30", "09:00~18:30", "09:00~13:00", "09:00~14:00"]}, {"name": "\uc2dc\ubbfc\uc57d\uad6d", "lat": "36.80115055277322", "lng": "127.15083993509412", "url": "/info/%EC%8B%9C%EB%AF%BC%EC%95%BD%EA%B5%AD-%EC%B6%A9%EC%B2%AD%EB%82%A8%EB%8F%84-%EC%B2%9C%EC%95%88%EC%8B%9C-%EC%98%81%EC%84%B1%EB%8F%99/", "workingTime": ["-", "08:30~18:00", "08:30~18:00", "08:30~18:00", "08:30~18:00", "08:30~18:00", "08:30~15:00", "-"]}, {"name": "\ub300\uba85\uc57d\uad6d", "lat": "36.79931226745189", "lng": "127.15139078058391", "url": "/info/%EB%8C%80%EB%AA%85%EC%95%BD%EA%B5%AD-%EC%B6%A9%EC%B2%AD%EB%82%A8%EB%8F%84-%EC%B2%9C%EC%95%88%EC%8B%9C-%EC%98%81%EC%84%B1%EB%8F%99/", "workingTime": ["-", "08:00~19:00", "08:00~19:00", "08:00~19:00", "08:00~19:00", "08:00~19:00", "09:00~18:00", "-"]}, {"name": "\uac74\uac15\ub204\ub9ac\uc57d\uad6d", "lat": "36.7986143037", "lng": "127.1519711286", "url": "/info/%EA%B1%B4%EA%B0%95%EB%88%84%EB%A6%AC%EC%95%BD%EA%B5%AD-%EC%B6%A9%EC%B2%AD%EB%82%A8%EB%8F%84-%EC%B2%9C%EC%95%88%EC%8B%9C-%EC%98%81%EC%84%B1%EB%8F%99/", "workingTime": ["-", "08:30~19:00", "08:30~19:00", "08:30~19:00", "08:30~19:00", "08:30~19:00", "08:30~13:30", "-"]}]