[{"name": "365\uc5f4\ub9b0\uc57d\uad6d", "lat": "36.828371553", "lng": "127.1380138171", "url": "/info/365%EC%97%B4%EB%A6%B0%EC%95%BD%EA%B5%AD-%EC%B6%A9%EC%B2%AD%EB%82%A8%EB%8F%84-%EC%B2%9C%EC%95%88%EC%8B%9C-%EC%84%B1%EC%A0%95%EB%8F%99/", "workingTime": ["1,2,3,4,5\uc9f8\uc8fc10:00~21:00", "10:00~21:00", "10:00~21:00", "10:00~21:00", "10:00~21:00", "10:00~21:00", "10:00~21:00", "10:00~21:00"]}, {"name": "\uc6b0\ub9ac\uc57d\uad6d", "lat": "36.82560373458977", "lng": "127.13768154548673", "url": "/info/%EC%9A%B0%EB%A6%AC%EC%95%BD%EA%B5%AD-%EC%B6%A9%EC%B2%AD%EB%82%A8%EB%8F%84-%EC%B2%9C%EC%95%88%EC%8B%9C-%EC%84%B1%EC%A0%95%EB%8F%99/", "workingTime": ["-", "09:00~19:00", "09:00~19:00", "09:00~19:00", "09:00~19:00", "09:00~19:00", "09:00~15:00", "-"]}, {"name": "6\ub2e8\uc9c0\uc57d\uad6d", "lat": "36.8233614195269", "lng": "127.137133126733", "url": "/info/6%EB%8B%A8%EC%A7%80%EC%95%BD%EA%B5%AD-%EC%B6%A9%EC%B2%AD%EB%82%A8%EB%8F%84-%EC%B2%9C%EC%95%88%EC%8B%9C-%EC%84%B1%EC%A0%95%EB%8F%99/", "workingTime": ["1,2,3,4,5\uc9f8\uc8fc09:00~22:00", "09:00~22:00", "09:00~22:00", "09:00~22:00", "09:00~22:00", "09:00~22:00", "09:00~22:00", "09:00~22:00"]}, {"name": "\ub098\ube44\uc57d\uad6d", "lat": "36.8261328693505", "lng": "127.138376667018", "url": "/info/%EB%82%98%EB%B9%84%EC%95%BD%EA%B5%AD-%EC%B6%A9%EC%B2%AD%EB%82%A8%EB%8F%84-%EC%B2%9C%EC%95%88%EC%8B%9C-%EC%84%B1%EC%A0%95%EB%8F%99/", "workingTime": ["1,2,3,4,5\uc9f8\uc8fc14:00~18:00", "09:00~20:30", "09:00~20:30", "09:00~21:00", "09:00~20:30", "09:00~20:30", "09:00~16:30", "09:00~16:30"]}, {"name": "\ud558\ub298\uc870\uc740\uc57d\uad6d", "lat": "36.8262862275", "lng": "127.1365932511", "url": "/info/%ED%95%98%EB%8A%98%EC%A1%B0%EC%9D%80%EC%95%BD%EA%B5%AD-%EC%B6%A9%EC%B2%AD%EB%82%A8%EB%8F%84-%EC%B2%9C%EC%95%88%EC%8B%9C-%EC%84%B1%EC%A0%95%EB%8F%99/", "workingTime": ["-", "09:00~18:30", "09:00~18:30", "09:00~18:30", "09:00~18:30", "09:00~18:30", "09:00~13:30", "-"]}, {"name": "\ub3d9\uc11c\ub2f9\uc57d\uad6d", "lat": "36.826566490008915", "lng": "127.14149034715298", "url": "/info/%EB%8F%99%EC%84%9C%EB%8B%B9%EC%95%BD%EA%B5%AD-%EC%B6%A9%EC%B2%AD%EB%82%A8%EB%8F%84-%EC%B2%9C%EC%95%88%EC%8B%9C-%EC%84%B1%EC%A0%95%EB%8F%99/", "workingTime": ["1,2,4,5\uc9f8\uc8fc14:00~20:00", "09:30~21:00", "09:30~21:00", "09:30~21:00", "09:30~21:00", "09:30~21:00", "09:30~21:00", "-"]}, {"name": "\ud1a0\ub9c8\ud1a0\uc57d\uad6d", "lat": "36.8174356365", "lng": "127.1349277441", "url": "/info/%ED%86%A0%EB%A7%88%ED%86%A0%EC%95%BD%EA%B5%AD-%EC%B6%A9%EC%B2%AD%EB%82%A8%EB%8F%84-%EC%B2%9C%EC%95%88%EC%8B%9C-%EC%84%B1%EC%A0%95%EB%8F%99/", "workingTime": ["-", "09:00~18:30", "09:00~18:30", "09:00~18:30", "09:00~18:30", "09:00~18:30", "09:00~13:00", "-"]}, {"name": "\uc131\uc815\uc57d\uad6d", "lat": "36.824520259814726", "lng": "127.14057647463127", "url": "/info/%EC%84%B1%EC%A0%95%EC%95%BD%EA%B5%AD-%EC%B6%A9%EC%B2%AD%EB%82%A8%EB%8F%84-%EC%B2%9C%EC%95%88%EC%8B%9C-%EC%84%B1%EC%A0%95%EB%8F%99/", "workingTime": ["-", "09:00~19:30", "09:00~19:30", "09:00~19:30", "09:00~19:30", "09:00~19:30", "09:00~16:00", "-"]}, {"name": "\uc218\uc57d\uad6d", "lat": "36.83178204240286", "lng": "127.14453544783181", "url": "/info/%EC%88%98%EC%95%BD%EA%B5%AD-%EC%B6%A9%EC%B2%AD%EB%82%A8%EB%8F%84-%EC%B2%9C%EC%95%88%EC%8B%9C-%EC%84%B1%EC%A0%95%EB%8F%99/", "workingTime": ["1,2,3,4,5\uc9f8\uc8fc09:00~22:00", "09:00~22:00", "09:00~22:00", "09:00~22:00", "09:00~22:00", "09:00~22:00", "09:00~22:00", "09:00~22:00"]}, {"name": "\uc2e0\uc138\uacc4\uc57d\uad6d", "lat": "36.8137898693695", "lng": "127.14101920326945", "url": "/info/%EC%8B%A0%EC%84%B8%EA%B3%84%EC%95%BD%EA%B5%AD-%EC%B6%A9%EC%B2%AD%EB%82%A8%EB%8F%84-%EC%B2%9C%EC%95%88%EC%8B%9C-%EC%84%B1%EC%A0%95%EB%8F%99/", "workingTime": ["-", "09:00~18:30", "09:00~18:30", "09:00~18:30", "09:00~18:30", "09:00~18:30", "09:00~13:00", "-"]}, {"name": "\ud558\ub298\uc57d\uad6d", "lat": "36.81407278477407", "lng": "127.13483220293267", "url": "/info/%ED%95%98%EB%8A%98%EC%95%BD%EA%B5%AD-%EC%B6%A9%EC%B2%AD%EB%82%A8%EB%8F%84-%EC%B2%9C%EC%95%88%EC%8B%9C-%EC%84%B1%EC%A0%95%EB%8F%99/", "workingTime": ["-", "09:00~22:00", "09:00~22:00", "09:00~22:00", "09:00~22:00", "09:00~22:00", "09:00~18:00", "09:00~22:00"]}, {"name": "\ub300\uc740\uc57d\uad6d", "lat": "36.82619954962913", "lng": "127.13777728134542", "url": "/info/%EB%8C%80%EC%9D%80%EC%95%BD%EA%B5%AD-%EC%B6%A9%EC%B2%AD%EB%82%A8%EB%8F%84-%EC%B2%9C%EC%95%88%EC%8B%9C-%EC%84%B1%EC%A0%95%EB%8F%99/", "workingTime": ["-", "09:00~19:00", "09:00~19:00", "09:00~19:00", "09:00~19:00", "09:00~19:00", "09:00~15:30", "-"]}, {"name": "\ud55c\uc5bc\uc57d\uad6d", "lat": "36.826307489925874", "lng": "127.13689370976217", "url": "/info/%ED%95%9C%EC%96%BC%EC%95%BD%EA%B5%AD-%EC%B6%A9%EC%B2%AD%EB%82%A8%EB%8F%84-%EC%B2%9C%EC%95%88%EC%8B%9C-%EC%84%B1%EC%A0%95%EB%8F%99/", "workingTime": ["-", "09:00~19:30", "09:00~19:00", "09:00~19:00", "09:00~19:00", "09:00~19:30", "09:00~14:00", "-"]}, {"name": "\ubd80\uad11\uc57d\uad6d", "lat": "36.823241666666668", "lng": "127.137055555555563", "url": "/info/%EB%B6%80%EA%B4%91%EC%95%BD%EA%B5%AD-%EC%B6%A9%EC%B2%AD%EB%82%A8%EB%8F%84-%EC%B2%9C%EC%95%88%EC%8B%9C-%EC%84%B1%EC%A0%95%EB%8F%99/", "workingTime": ["1,2,3,4,5\uc9f8\uc8fc09:00~21:00", "08:30~22:30", "08:30~22:30", "08:30~22:30", "08:30~22:30", "08:30~22:30", "08:30~22:30", "08:30~22:30"]}, {"name": "\uc608\uc9c4\uc57d\uad6d", "lat": "36.826289362200654", "lng": "127.14009495607905", "url": "/info/%EC%98%88%EC%A7%84%EC%95%BD%EA%B5%AD-%EC%B6%A9%EC%B2%AD%EB%82%A8%EB%8F%84-%EC%B2%9C%EC%95%88%EC%8B%9C-%EC%84%B1%EC%A0%95%EB%8F%99/", "workingTime": ["1,3,5\uc9f8\uc8fc10:00~22:00", "10:00~22:00", "10:00~22:00", "10:00~22:00", "10:00~22:00", "10:00~22:00", "10:00~22:00", "10:00~22:00"]}, {"name": "\ubaa8\ub450\uc57d\uad6d", "lat": "36.8136839324", "lng": "127.1437165598", "url": "/info/%EB%AA%A8%EB%91%90%EC%95%BD%EA%B5%AD-%EC%B6%A9%EC%B2%AD%EB%82%A8%EB%8F%84-%EC%B2%9C%EC%95%88%EC%8B%9C-%EC%84%B1%EC%A0%95%EB%8F%99/", "workingTime": ["-", "09:00~19:00", "09:00~19:00", "09:00~19:00", "09:00~19:00", "09:00~19:00", "09:00~19:00", "09:00~19:00"]}, {"name": "\uc624\ub2e8\uc9c0\uc57d\uad6d", "lat": "36.813545142877956", "lng": "127.13917069261667", "url": "/info/%EC%98%A4%EB%8B%A8%EC%A7%80%EC%95%BD%EA%B5%AD-%EC%B6%A9%EC%B2%AD%EB%82%A8%EB%8F%84-%EC%B2%9C%EC%95%88%EC%8B%9C-%EC%84%B1%EC%A0%95%EB%8F%99/", "workingTime": ["1,2,3,4,5\uc9f8\uc8fc09:00~18:00", "09:00~20:30", "09:00~20:30", "09:00~20:30", "09:00~20:30", "09:00~20:30", "09:00~18:00", "09:00~18:00"]}, {"name": "\uc131\uc8fc\uc57d\uad6d", "lat": "36.82544998880035", "lng": "127.13764144630841", "url": "/info/%EC%84%B1%EC%A3%BC%EC%95%BD%EA%B5%AD-%EC%B6%A9%EC%B2%AD%EB%82%A8%EB%8F%84-%EC%B2%9C%EC%95%88%EC%8B%9C-%EC%84%B1%EC%A0%95%EB%8F%99/", "workingTime": ["-", "09:00~18:00", "09:00~18:00", "09:00~18:00", "09:00~18:00", "09:00~18:00", "09:00~16:00", "-"]}, {"name": "\uc11c\uc9c4\uc57d\uad6d", "lat": "36.828421029938475", "lng": "127.13354860674835", "url": "/info/%EC%84%9C%EC%A7%84%EC%95%BD%EA%B5%AD-%EC%B6%A9%EC%B2%AD%EB%82%A8%EB%8F%84-%EC%B2%9C%EC%95%88%EC%8B%9C-%EC%84%B1%EC%A0%95%EB%8F%99/", "workingTime": ["-", "09:00~19:00", "09:00~19:00", "09:00~19:00", "09:00~19:00", "09:00~19:00", "09:00~15:00", "-"]}, {"name": "\ucc9c\uc548\uc0c8\ubd04\uc57d\uad6d", "lat": "36.8261581332", "lng": "127.1413366747", "url": "/info/%EC%B2%9C%EC%95%88%EC%83%88%EB%B4%84%EC%95%BD%EA%B5%AD-%EC%B6%A9%EC%B2%AD%EB%82%A8%EB%8F%84-%EC%B2%9C%EC%95%88%EC%8B%9C-%EC%84%B1%EC%A0%95%EB%8F%99/", "workingTime": ["-", "09:00~19:00", "09:00~19:00", "09:00~19:00", "09:00~19:00", "09:00~19:00", "09:00~13:00", "-"]}, {"name": "\uc5d0\ub374\uc57d\uad6d", "lat": "36.82356864163508", "lng": "127.13644048594298", "url": "/info/%EC%97%90%EB%8D%B4%EC%95%BD%EA%B5%AD-%EC%B6%A9%EC%B2%AD%EB%82%A8%EB%8F%84-%EC%B2%9C%EC%95%88%EC%8B%9C-%EC%84%B1%EC%A0%95%EB%8F%99/", "workingTime": ["-", "09:00~19:20", "09:00~19:20", "09:00~19:20", "09:00~19:20", "09:00~19:20", "09:00~13:00", "-"]}, {"name": "\uc131\uc815\ucc9c\uc0ac\uc57d\uad6d", "lat": "36.8264830740411", "lng": "127.1378041787345", "url": "/info/%EC%84%B1%EC%A0%95%EC%B2%9C%EC%82%AC%EC%95%BD%EA%B5%AD-%EC%B6%A9%EC%B2%AD%EB%82%A8%EB%8F%84-%EC%B2%9C%EC%95%88%EC%8B%9C-%EC%84%B1%EC%A0%95%EB%8F%99/", "workingTime": ["1,2,3,4,5\uc9f8\uc8fc08:40~13:30", "08:40~21:00", "08:40~21:00", "08:40~21:00", "08:40~21:00", "08:40~21:00", "08:40~17:30", "08:40~13:30"]}]