[{"name": "\ub3c4\ub3c4\uc57d\uad6d", "lat": "37.1350277370553", "lng": "128.210467710488", "url": "/info/%EB%8F%84%EB%8F%84%EC%95%BD%EA%B5%AD-%EC%B6%A9%EC%B2%AD%EB%B6%81%EB%8F%84-%EC%A0%9C%EC%B2%9C%EC%8B%9C-%EB%82%A8%EC%B2%9C%EB%8F%99/", "workingTime": ["2,4\uc9f8\uc8fc08:00~16:00", "08:00~19:00", "08:00~19:00", "08:00~19:00", "08:00~19:00", "08:00~19:00", "08:00~16:00", "-"]}, {"name": "\uc774\ud654\uc57d\uad6d", "lat": "37.13553580052737", "lng": "128.21317313589793", "url": "/info/%EC%9D%B4%ED%99%94%EC%95%BD%EA%B5%AD-%EC%B6%A9%EC%B2%AD%EB%B6%81%EB%8F%84-%EC%A0%9C%EC%B2%9C%EC%8B%9C-%EB%82%A8%EC%B2%9C%EB%8F%99/", "workingTime": ["-", "08:00~20:00", "08:00~20:00", "08:00~20:00", "08:00~20:00", "08:00~20:00", "08:00~14:00", "08:00~14:00"]}, {"name": "\uc81c\ucc9c\uc885\ub85c\uc57d\uad6d", "lat": "37.1361039724", "lng": "128.2122413644", "url": "/info/%EC%A0%9C%EC%B2%9C%EC%A2%85%EB%A1%9C%EC%95%BD%EA%B5%AD-%EC%B6%A9%EC%B2%AD%EB%B6%81%EB%8F%84-%EC%A0%9C%EC%B2%9C%EC%8B%9C-%EB%82%A8%EC%B2%9C%EB%8F%99/", "workingTime": ["-", "08:30~19:30", "08:30~19:30", "08:30~19:30", "08:30~19:30", "08:30~19:30", "08:30~16:00", "08:30~14:00"]}, {"name": "\ud589\ubcf5\ud55c\uc57d\uad6d", "lat": "37.13555405587965", "lng": "128.21300224943855", "url": "/info/%ED%96%89%EB%B3%B5%ED%95%9C%EC%95%BD%EA%B5%AD-%EC%B6%A9%EC%B2%AD%EB%B6%81%EB%8F%84-%EC%A0%9C%EC%B2%9C%EC%8B%9C-%EB%82%A8%EC%B2%9C%EB%8F%99/", "workingTime": ["-", "08:00~19:30", "08:00~19:30", "08:00~19:30", "08:00~19:30", "08:00~19:30", "08:00~16:00", "-"]}, {"name": "\ubcf4\ub839\uc57d\uad6d", "lat": "37.13543697104437", "lng": "128.2112088778514", "url": "/info/%EB%B3%B4%EB%A0%B9%EC%95%BD%EA%B5%AD-%EC%B6%A9%EC%B2%AD%EB%B6%81%EB%8F%84-%EC%A0%9C%EC%B2%9C%EC%8B%9C-%EB%82%A8%EC%B2%9C%EB%8F%99/", "workingTime": ["-", "08:00~18:00", "08:00~18:00", "08:00~18:00", "08:00~18:00", "08:00~18:00", "08:00~13:00", "-"]}, {"name": "\ub0a8\ucc9c\uc57d\uad6d", "lat": "37.13631836884404", "lng": "128.2124203662304", "url": "/info/%EB%82%A8%EC%B2%9C%EC%95%BD%EA%B5%AD-%EC%B6%A9%EC%B2%AD%EB%B6%81%EB%8F%84-%EC%A0%9C%EC%B2%9C%EC%8B%9C-%EB%82%A8%EC%B2%9C%EB%8F%99/", "workingTime": ["-", "09:00~19:30", "09:00~19:30", "09:00~19:30", "09:00~19:30", "09:00~19:30", "09:00~16:00", "09:00~13:00"]}, {"name": "\ub298\ud478\ub978\uc57d\uad6d", "lat": "37.1355721624626", "lng": "128.21161043071", "url": "/info/%EB%8A%98%ED%91%B8%EB%A5%B8%EC%95%BD%EA%B5%AD-%EC%B6%A9%EC%B2%AD%EB%B6%81%EB%8F%84-%EC%A0%9C%EC%B2%9C%EC%8B%9C-%EB%82%A8%EC%B2%9C%EB%8F%99/", "workingTime": ["-", "08:30~18:30", "08:30~18:30", "08:30~18:30", "08:30~18:30", "08:30~18:30", "08:30~13:00", "-"]}, {"name": "\uc138\ub9bc\uc57d\uad6d", "lat": "37.13572334121808", "lng": "128.21245588570105", "url": "/info/%EC%84%B8%EB%A6%BC%EC%95%BD%EA%B5%AD-%EC%B6%A9%EC%B2%AD%EB%B6%81%EB%8F%84-%EC%A0%9C%EC%B2%9C%EC%8B%9C-%EB%82%A8%EC%B2%9C%EB%8F%99/", "workingTime": ["-", "07:40~19:00", "07:40~19:00", "07:40~16:00", "07:40~19:00", "07:40~19:00", "08:00~13:00", "07:40~13:00"]}]