[{"name": "\ub2e4\uc0ac\ub791\uc57d\uad6d", "lat": "36.62770688150874", "lng": "127.47330790826533", "url": "/info/%EB%8B%A4%EC%82%AC%EB%9E%91%EC%95%BD%EA%B5%AD-%EC%B6%A9%EC%B2%AD%EB%B6%81%EB%8F%84-%EC%B2%AD%EC%A3%BC%EC%8B%9C-%EB%AA%A8%EC%B6%A9%EB%8F%99/", "workingTime": ["-", "08:30~19:00", "08:30~19:00", "08:30~19:00", "08:30~19:00", "08:30~19:00", "08:30~16:00", "08:30~13:00"]}, {"name": "\ubcf4\ub098\uc57d\uad6d", "lat": "36.62779318146942", "lng": "127.47343616728129", "url": "/info/%EB%B3%B4%EB%82%98%EC%95%BD%EA%B5%AD-%EC%B6%A9%EC%B2%AD%EB%B6%81%EB%8F%84-%EC%B2%AD%EC%A3%BC%EC%8B%9C-%EB%AA%A8%EC%B6%A9%EB%8F%99/", "workingTime": ["-", "08:50~20:00", "08:50~20:00", "08:50~20:00", "08:50~20:00", "08:50~20:00", "08:50~16:00", "-"]}, {"name": "\ubc31\uc81c\uc57d\uad6d", "lat": "36.620797222222222", "lng": "127.487816666666660", "url": "/info/%EB%B0%B1%EC%A0%9C%EC%95%BD%EA%B5%AD-%EC%B6%A9%EC%B2%AD%EB%B6%81%EB%8F%84-%EC%B2%AD%EC%A3%BC%EC%8B%9C-%EB%AA%A8%EC%B6%A9%EB%8F%99/", "workingTime": ["-", "09:00~19:00", "09:00~19:00", "09:00~19:00", "09:00~19:00", "09:00~19:00", "09:00~13:00", "-"]}, {"name": "\ucc38\uac00\uae4c\uc6b4\uc57d\uad6d", "lat": "36.628068687150474", "lng": "127.47485994911709", "url": "/info/%EC%B0%B8%EA%B0%80%EA%B9%8C%EC%9A%B4%EC%95%BD%EA%B5%AD-%EC%B6%A9%EC%B2%AD%EB%B6%81%EB%8F%84-%EC%B2%AD%EC%A3%BC%EC%8B%9C-%EB%AA%A8%EC%B6%A9%EB%8F%99/", "workingTime": ["-", "08:00~18:00", "08:00~18:00", "08:00~18:00", "08:00~18:00", "08:00~18:00", "08:00~13:00", "-"]}, {"name": "\ub0a8\ub4e4\uc57d\uad6d", "lat": "36.620990823163474", "lng": "127.48787128704981", "url": "/info/%EB%82%A8%EB%93%A4%EC%95%BD%EA%B5%AD-%EC%B6%A9%EC%B2%AD%EB%B6%81%EB%8F%84-%EC%B2%AD%EC%A3%BC%EC%8B%9C-%EB%AA%A8%EC%B6%A9%EB%8F%99/", "workingTime": ["1,2,3,4,5\uc9f8\uc8fc09:00~21:00", "08:30~21:00", "08:30~21:00", "08:30~21:00", "08:30~21:00", "08:30~21:00", "08:30~21:00", "09:00~21:00"]}, {"name": "\ub300\uc720\uc57d\uad6d", "lat": "36.623797484599194", "lng": "127.48817511291705", "url": "/info/%EB%8C%80%EC%9C%A0%EC%95%BD%EA%B5%AD-%EC%B6%A9%EC%B2%AD%EB%B6%81%EB%8F%84-%EC%B2%AD%EC%A3%BC%EC%8B%9C-%EB%AA%A8%EC%B6%A9%EB%8F%99/", "workingTime": ["-", "09:00~18:30", "09:00~18:30", "09:00~18:30", "09:00~18:30", "09:00~18:30", "09:00~14:00", "-"]}, {"name": "\uc0bc\ub300\uc57d\uad6d", "lat": "36.62690261621008", "lng": "127.47076988413802", "url": "/info/%EC%82%BC%EB%8C%80%EC%95%BD%EA%B5%AD-%EC%B6%A9%EC%B2%AD%EB%B6%81%EB%8F%84-%EC%B2%AD%EC%A3%BC%EC%8B%9C-%EB%AA%A8%EC%B6%A9%EB%8F%99/", "workingTime": ["-", "09:00~19:00", "09:00~19:00", "09:00~19:00", "09:00~19:00", "09:00~19:00", "09:00~14:00", "-"]}, {"name": "\uc0c8\ub0a8\ub4e4\uc57d\uad6d", "lat": "36.6229270409", "lng": "127.4886282671", "url": "/info/%EC%83%88%EB%82%A8%EB%93%A4%EC%95%BD%EA%B5%AD-%EC%B6%A9%EC%B2%AD%EB%B6%81%EB%8F%84-%EC%B2%AD%EC%A3%BC%EC%8B%9C-%EB%AA%A8%EC%B6%A9%EB%8F%99/", "workingTime": ["-", "09:00~17:30", "09:00~17:30", "09:00~17:30", "09:00~17:30", "09:00~17:30", "09:00~12:30", "-"]}, {"name": "\ubc31\ucc9c\uc57d\uad6d", "lat": "36.6281691679137", "lng": "127.482507126678", "url": "/info/%EB%B0%B1%EC%B2%9C%EC%95%BD%EA%B5%AD-%EC%B6%A9%EC%B2%AD%EB%B6%81%EB%8F%84-%EC%B2%AD%EC%A3%BC%EC%8B%9C-%EB%AA%A8%EC%B6%A9%EB%8F%99/", "workingTime": ["-", "-", "-", "-", "-", "-", "-", "-"]}, {"name": "\uc9c0\ud61c\uc57d\uad6d", "lat": "36.622266666666668", "lng": "127.485091666666662", "url": "/info/%EC%A7%80%ED%98%9C%EC%95%BD%EA%B5%AD-%EC%B6%A9%EC%B2%AD%EB%B6%81%EB%8F%84-%EC%B2%AD%EC%A3%BC%EC%8B%9C-%EB%AA%A8%EC%B6%A9%EB%8F%99/", "workingTime": ["-", "10:00~21:00", "10:00~21:00", "10:00~21:00", "10:00~21:00", "10:00~21:00", "-", "-"]}]