[{"name": "\uc131\ud654\uc5f4\ub9b0\uc57d\uad6d", "lat": "36.617451039692796", "lng": "127.44833067137645", "url": "/info/%EC%84%B1%ED%99%94%EC%97%B4%EB%A6%B0%EC%95%BD%EA%B5%AD-%EC%B6%A9%EC%B2%AD%EB%B6%81%EB%8F%84-%EC%B2%AD%EC%A3%BC%EC%8B%9C-%EC%A3%BD%EB%A6%BC%EB%8F%99/", "workingTime": ["1,2,3,4,5\uc9f8\uc8fc09:00~23:00", "09:00~23:00", "09:00~23:00", "09:00~23:00", "09:00~23:00", "09:00~23:00", "09:00~23:00", "09:00~23:00"]}, {"name": "\uac1c\uc2e0\ud558\ub098\uc57d\uad6d", "lat": "36.62029514228604", "lng": "127.4455589878149", "url": "/info/%EA%B0%9C%EC%8B%A0%ED%95%98%EB%82%98%EC%95%BD%EA%B5%AD-%EC%B6%A9%EC%B2%AD%EB%B6%81%EB%8F%84-%EC%B2%AD%EC%A3%BC%EC%8B%9C-%EC%A3%BD%EB%A6%BC%EB%8F%99/", "workingTime": ["-", "09:00~20:30", "09:00~20:30", "09:00~20:30", "09:00~20:30", "09:00~20:30", "09:00~16:00", "-"]}, {"name": "\uc2e0\uc544\uc8fc\uc57d\uad6d", "lat": "36.62217338218667", "lng": "127.45583906536274", "url": "/info/%EC%8B%A0%EC%95%84%EC%A3%BC%EC%95%BD%EA%B5%AD-%EC%B6%A9%EC%B2%AD%EB%B6%81%EB%8F%84-%EC%B2%AD%EC%A3%BC%EC%8B%9C-%EC%A3%BD%EB%A6%BC%EB%8F%99/", "workingTime": ["-", "09:00~20:00", "09:00~20:00", "09:00~20:00", "09:00~20:00", "09:00~20:00", "09:00~16:00", "-"]}, {"name": "\ud478\ub978\uc0d8\uc57d\uad6d", "lat": "36.625484181627556", "lng": "127.46378714295955", "url": "/info/%ED%91%B8%EB%A5%B8%EC%83%98%EC%95%BD%EA%B5%AD-%EC%B6%A9%EC%B2%AD%EB%B6%81%EB%8F%84-%EC%B2%AD%EC%A3%BC%EC%8B%9C-%EC%A3%BD%EB%A6%BC%EB%8F%99/", "workingTime": ["-", "09:00~19:00", "09:00~19:00", "09:00~19:00", "09:00~19:00", "09:00~19:00", "09:00~13:00", "-"]}, {"name": "\ubaa8\uc544\uc57d\uad6d", "lat": "36.61686451642219", "lng": "127.44516601655111", "url": "/info/%EB%AA%A8%EC%95%84%EC%95%BD%EA%B5%AD-%EC%B6%A9%EC%B2%AD%EB%B6%81%EB%8F%84-%EC%B2%AD%EC%A3%BC%EC%8B%9C-%EC%A3%BD%EB%A6%BC%EB%8F%99/", "workingTime": ["1,2,3,4,5\uc9f8\uc8fc09:00~13:00", "09:00~20:00", "09:00~20:00", "09:00~20:00", "09:00~20:00", "09:00~20:00", "08:30~14:30", "09:00~13:00"]}, {"name": "\uc131\ud654\uc6b0\ub9ac\uc57d\uad6d", "lat": "36.61760834290273", "lng": "127.45723866496792", "url": "/info/%EC%84%B1%ED%99%94%EC%9A%B0%EB%A6%AC%EC%95%BD%EA%B5%AD-%EC%B6%A9%EC%B2%AD%EB%B6%81%EB%8F%84-%EC%B2%AD%EC%A3%BC%EC%8B%9C-%EC%A3%BD%EB%A6%BC%EB%8F%99/", "workingTime": ["-", "09:00~19:00", "09:00~19:00", "09:00~19:00", "09:00~19:00", "09:00~19:00", "09:00~13:00", "-"]}, {"name": "\uc815\ubb38\uc57d\uad6d", "lat": "36.62506220494987", "lng": "127.46385170094018", "url": "/info/%EC%A0%95%EB%AC%B8%EC%95%BD%EA%B5%AD-%EC%B6%A9%EC%B2%AD%EB%B6%81%EB%8F%84-%EC%B2%AD%EC%A3%BC%EC%8B%9C-%EC%A3%BD%EB%A6%BC%EB%8F%99/", "workingTime": ["-", "09:00~19:00", "09:00~19:00", "09:00~19:00", "09:00~19:00", "09:00~19:00", "-", "-"]}, {"name": "\uc778\ud654\uc57d\uad6d", "lat": "36.62480070170912", "lng": "127.46713694285178", "url": "/info/%EC%9D%B8%ED%99%94%EC%95%BD%EA%B5%AD-%EC%B6%A9%EC%B2%AD%EB%B6%81%EB%8F%84-%EC%B2%AD%EC%A3%BC%EC%8B%9C-%EC%A3%BD%EB%A6%BC%EB%8F%99/", "workingTime": ["1,2,3,4,5\uc9f8\uc8fc12:00~23:00", "11:00~23:00", "11:00~23:00", "11:00~23:00", "11:00~23:00", "11:00~23:00", "11:00~23:00", "11:00~23:00"]}, {"name": "\ud574\ub9d1\uc740\uc57d\uad6d", "lat": "36.621727873649895", "lng": "127.46016502336214", "url": "/info/%ED%95%B4%EB%A7%91%EC%9D%80%EC%95%BD%EA%B5%AD-%EC%B6%A9%EC%B2%AD%EB%B6%81%EB%8F%84-%EC%B2%AD%EC%A3%BC%EC%8B%9C-%EC%A3%BD%EB%A6%BC%EB%8F%99/", "workingTime": ["-", "09:00~18:30", "09:00~18:30", "09:00~18:30", "09:00~18:30", "09:00~18:30", "-", "09:00~13:00"]}]