[{"name": "\uac74\uac15\uc885\ud569\uc57d\uad6d", "lat": "36.85873661602425", "lng": "127.44474140157523", "url": "/info/%EA%B1%B4%EA%B0%95%EC%A2%85%ED%95%A9%EC%95%BD%EA%B5%AD-%EC%B6%A9%EC%B2%AD%EB%B6%81%EB%8F%84-%EC%A7%84%EC%B2%9C%EA%B5%B0-%EC%A7%84%EC%B2%9C%EC%9D%8D/", "workingTime": ["-", "08:30~19:00", "08:30~19:00", "08:30~19:00", "08:30~19:00", "08:30~19:00", "08:30~13:30", "-"]}, {"name": "\ub098\ub204\ub9ac\uc57d\uad6d", "lat": "36.86008760554233", "lng": "127.44007528740553", "url": "/info/%EB%82%98%EB%88%84%EB%A6%AC%EC%95%BD%EA%B5%AD-%EC%B6%A9%EC%B2%AD%EB%B6%81%EB%8F%84-%EC%A7%84%EC%B2%9C%EA%B5%B0-%EC%A7%84%EC%B2%9C%EC%9D%8D/", "workingTime": ["-", "08:30~19:00", "08:30~19:00", "08:30~19:00", "08:30~19:00", "08:30~19:00", "08:30~13:00", "-"]}, {"name": "\ubcf4\ub78c\uc57d\uad6d", "lat": "36.86025431549622", "lng": "127.44501241638285", "url": "/info/%EB%B3%B4%EB%9E%8C%EC%95%BD%EA%B5%AD-%EC%B6%A9%EC%B2%AD%EB%B6%81%EB%8F%84-%EC%A7%84%EC%B2%9C%EA%B5%B0-%EC%A7%84%EC%B2%9C%EC%9D%8D/", "workingTime": ["-", "08:30~18:00", "08:30~18:00", "08:30~18:00", "08:30~18:00", "08:30~18:00", "08:30~13:00", "09:00~13:00"]}, {"name": "\uc0c1\uc0b0\uc57d\uad6d", "lat": "36.8549242159", "lng": "127.4444681201", "url": "/info/%EC%83%81%EC%82%B0%EC%95%BD%EA%B5%AD-%EC%B6%A9%EC%B2%AD%EB%B6%81%EB%8F%84-%EC%A7%84%EC%B2%9C%EA%B5%B0-%EC%A7%84%EC%B2%9C%EC%9D%8D/", "workingTime": ["-", "09:00~21:00", "09:00~21:00", "09:00~21:00", "09:00~21:00", "09:00~21:00", "09:00~14:00", "-"]}, {"name": "\uc0c8\ucc9c\ub144\uc57d\uad6d", "lat": "36.85691481243824", "lng": "127.44324168590425", "url": "/info/%EC%83%88%EC%B2%9C%EB%85%84%EC%95%BD%EA%B5%AD-%EC%B6%A9%EC%B2%AD%EB%B6%81%EB%8F%84-%EC%A7%84%EC%B2%9C%EA%B5%B0-%EC%A7%84%EC%B2%9C%EC%9D%8D/", "workingTime": ["1,2,3,4,5\uc9f8\uc8fc09:00~17:00", "09:00~20:00", "09:00~20:00", "09:00~20:00", "09:00~20:00", "09:00~20:00", "09:00~17:00", "09:00~17:00"]}, {"name": "\uc774\uc815\ud658\uc57d\uad6d", "lat": "36.85723356961126", "lng": "127.44474614878078", "url": "/info/%EC%9D%B4%EC%A0%95%ED%99%98%EC%95%BD%EA%B5%AD-%EC%B6%A9%EC%B2%AD%EB%B6%81%EB%8F%84-%EC%A7%84%EC%B2%9C%EA%B5%B0-%EC%A7%84%EC%B2%9C%EC%9D%8D/", "workingTime": ["-", "09:00~19:00", "09:00~19:00", "09:00~19:00", "09:00~19:00", "09:00~19:00", "09:00~14:00", "-"]}, {"name": "\uc784\uc628\ub204\ub9ac\uc57d\uad6d", "lat": "36.856674329097295", "lng": "127.44200234063973", "url": "/info/%EC%9E%84%EC%98%A8%EB%88%84%EB%A6%AC%EC%95%BD%EA%B5%AD-%EC%B6%A9%EC%B2%AD%EB%B6%81%EB%8F%84-%EC%A7%84%EC%B2%9C%EA%B5%B0-%EC%A7%84%EC%B2%9C%EC%9D%8D/", "workingTime": ["-", "09:00~20:00", "09:00~20:00", "09:00~20:00", "09:00~19:00", "09:00~20:00", "09:00~15:00", "09:00~15:00"]}, {"name": "\uc870\uc740\uc57d\uad6d", "lat": "36.85696852441438", "lng": "127.44333172248267", "url": "/info/%EC%A1%B0%EC%9D%80%EC%95%BD%EA%B5%AD-%EC%B6%A9%EC%B2%AD%EB%B6%81%EB%8F%84-%EC%A7%84%EC%B2%9C%EA%B5%B0-%EC%A7%84%EC%B2%9C%EC%9D%8D/", "workingTime": ["1,2,3,4,5\uc9f8\uc8fc09:00~17:00", "09:00~20:00", "09:00~21:00", "09:00~21:00", "09:00~21:00", "09:00~21:00", "09:00~17:00", "09:00~17:00"]}, {"name": "\uc9c4\ucc9c\uc0dd\uac70\uc57d\uad6d", "lat": "36.85738537002625", "lng": "127.44463489355848", "url": "/info/%EC%A7%84%EC%B2%9C%EC%83%9D%EA%B1%B0%EC%95%BD%EA%B5%AD-%EC%B6%A9%EC%B2%AD%EB%B6%81%EB%8F%84-%EC%A7%84%EC%B2%9C%EA%B5%B0-%EC%A7%84%EC%B2%9C%EC%9D%8D/", "workingTime": ["-", "09:00~19:00", "09:00~19:00", "09:00~19:00", "09:00~19:00", "09:00~19:00", "09:00~13:00", "-"]}, {"name": "\uc9c4\ucc9c\uc57d\uad6d", "lat": "36.85715502177609", "lng": "127.4429536767972", "url": "/info/%EC%A7%84%EC%B2%9C%EC%95%BD%EA%B5%AD-%EC%B6%A9%EC%B2%AD%EB%B6%81%EB%8F%84-%EC%A7%84%EC%B2%9C%EA%B5%B0-%EC%A7%84%EC%B2%9C%EC%9D%8D/", "workingTime": ["1,2,3,4,5\uc9f8\uc8fc09:00~17:00", "09:00~21:00", "09:00~21:00", "09:00~21:00", "09:00~21:00", "09:00~21:00", "09:00~17:00", "09:00~17:00"]}, {"name": "\uc9c4\ucc9c\uc81c\uc77c\uc57d\uad6d", "lat": "36.85829136068565", "lng": "127.4442947435565", "url": "/info/%EC%A7%84%EC%B2%9C%EC%A0%9C%EC%9D%BC%EC%95%BD%EA%B5%AD-%EC%B6%A9%EC%B2%AD%EB%B6%81%EB%8F%84-%EC%A7%84%EC%B2%9C%EA%B5%B0-%EC%A7%84%EC%B2%9C%EC%9D%8D/", "workingTime": ["-", "09:00~19:00", "09:00~19:00", "09:00~19:00", "09:00~19:00", "09:00~19:00", "09:00~15:00", "09:00~15:00"]}, {"name": "\uc9c4\ucc9c\uc885\ub85c\uc57d\uad6d", "lat": "36.857142202800695", "lng": "127.44508202266146", "url": "/info/%EC%A7%84%EC%B2%9C%EC%A2%85%EB%A1%9C%EC%95%BD%EA%B5%AD-%EC%B6%A9%EC%B2%AD%EB%B6%81%EB%8F%84-%EC%A7%84%EC%B2%9C%EA%B5%B0-%EC%A7%84%EC%B2%9C%EC%9D%8D/", "workingTime": ["-", "09:00~19:30", "09:00~19:30", "09:00~19:30", "09:00~19:30", "09:00~19:30", "09:00~16:00", "-"]}, {"name": "\ud070\uc0ac\ub791\uc57d\uad6d", "lat": "36.85868590451014", "lng": "127.44384401427396", "url": "/info/%ED%81%B0%EC%82%AC%EB%9E%91%EC%95%BD%EA%B5%AD-%EC%B6%A9%EC%B2%AD%EB%B6%81%EB%8F%84-%EC%A7%84%EC%B2%9C%EA%B5%B0-%EC%A7%84%EC%B2%9C%EC%9D%8D/", "workingTime": ["-", "08:30~19:00", "08:30~19:00", "08:30~19:00", "08:30~19:00", "08:30~19:00", "08:30~14:00", "-"]}, {"name": "\ud130\ubbf8\ub110\uc57d\uad6d", "lat": "36.85920410422123", "lng": "127.43824460465918", "url": "/info/%ED%84%B0%EB%AF%B8%EB%84%90%EC%95%BD%EA%B5%AD-%EC%B6%A9%EC%B2%AD%EB%B6%81%EB%8F%84-%EC%A7%84%EC%B2%9C%EA%B5%B0-%EC%A7%84%EC%B2%9C%EC%9D%8D/", "workingTime": ["-", "09:00~20:00", "09:00~20:00", "09:00~20:00", "09:00~20:00", "09:00~20:00", "09:00~18:00", "-"]}, {"name": "\ud3c9\ud654\uc57d\uad6d", "lat": "36.85478821847849", "lng": "127.44323839612171", "url": "/info/%ED%8F%89%ED%99%94%EC%95%BD%EA%B5%AD-%EC%B6%A9%EC%B2%AD%EB%B6%81%EB%8F%84-%EC%A7%84%EC%B2%9C%EA%B5%B0-%EC%A7%84%EC%B2%9C%EC%9D%8D/", "workingTime": ["-", "09:30~20:30", "09:30~19:30", "09:30~20:30", "09:30~19:30", "09:30~19:30", "09:30~16:30", "09:30~17:30"]}, {"name": "\ud558\ub098\uc57d\uad6d", "lat": "36.8577155374269", "lng": "127.444565917579", "url": "/info/%ED%95%98%EB%82%98%EC%95%BD%EA%B5%AD-%EC%B6%A9%EC%B2%AD%EB%B6%81%EB%8F%84-%EC%A7%84%EC%B2%9C%EA%B5%B0-%EC%A7%84%EC%B2%9C%EC%9D%8D/", "workingTime": ["-", "09:00~20:00", "09:00~20:00", "09:00~20:00", "09:00~20:00", "09:00~20:00", "09:00~19:00", "-"]}, {"name": "\uc815\ubb38\uc57d\uad6d", "lat": "36.85882293911985", "lng": "127.44027648879069", "url": "/info/%EC%A0%95%EB%AC%B8%EC%95%BD%EA%B5%AD-%EC%B6%A9%EC%B2%AD%EB%B6%81%EB%8F%84-%EC%A7%84%EC%B2%9C%EA%B5%B0-%EC%A7%84%EC%B2%9C%EC%9D%8D/", "workingTime": ["-", "09:00~22:00", "09:00~22:00", "09:00~22:00", "09:00~22:00", "09:00~22:00", "-", "09:30~21:30"]}, {"name": "\uc911\uc559\uc57d\uad6d", "lat": "36.85540994206501", "lng": "127.44469968160087", "url": "/info/%EC%A4%91%EC%95%99%EC%95%BD%EA%B5%AD-%EC%B6%A9%EC%B2%AD%EB%B6%81%EB%8F%84-%EC%A7%84%EC%B2%9C%EA%B5%B0-%EC%A7%84%EC%B2%9C%EC%9D%8D/", "workingTime": ["1,2,3,4,5\uc9f8\uc8fc22:00~25:00", "22:00~25:00", "22:00~25:00", "22:00~25:00", "22:00~25:00", "22:00~25:00", "22:00~25:00", "22:00~25:00"]}, {"name": "\uc9c4\ucc9c\ud558\ub098\ub85c\uc57d\uad6d", "lat": "36.85875754870289", "lng": "127.44041516362034", "url": "/info/%EC%A7%84%EC%B2%9C%ED%95%98%EB%82%98%EB%A1%9C%EC%95%BD%EA%B5%AD-%EC%B6%A9%EC%B2%AD%EB%B6%81%EB%8F%84-%EC%A7%84%EC%B2%9C%EA%B5%B0-%EC%A7%84%EC%B2%9C%EC%9D%8D/", "workingTime": ["-", "08:30~09:00", "08:30~09:00", "08:30~09:00", "08:30~09:00", "08:30~09:00", "09:00~09:30", "-"]}]