[{"name": "\uc815\ub2e4\uc6b4\uc57d\uad6d", "lat": "36.60123188259633", "lng": "126.66869213672667", "url": "/info/%EC%A0%95%EB%8B%A4%EC%9A%B4%EC%95%BD%EA%B5%AD-%EC%B6%A9%EC%B2%AD%EB%82%A8%EB%8F%84-%ED%99%8D%EC%84%B1%EA%B5%B0-%ED%99%8D%EC%84%B1%EC%9D%8D/", "workingTime": ["1,2,3,4,5\uc9f8\uc8fc08:00~19:00", "08:00~19:00", "08:00~19:00", "08:00~19:00", "08:00~19:00", "08:00~19:00", "08:00~19:00", "08:00~19:00"]}, {"name": "\uc720\uc57d\uad6d", "lat": "36.60187223", "lng": "126.6656583517", "url": "/info/%EC%9C%A0%EC%95%BD%EA%B5%AD-%EC%B6%A9%EC%B2%AD%EB%82%A8%EB%8F%84-%ED%99%8D%EC%84%B1%EA%B5%B0-%ED%99%8D%EC%84%B1%EC%9D%8D/", "workingTime": ["-", "08:00~19:00", "08:00~19:00", "08:00~18:00", "08:00~19:00", "08:00~19:00", "08:00~14:00", "-"]}, {"name": "\uc911\uc559\uc57d\uad6d", "lat": "36.60091483885819", "lng": "126.67004805862719", "url": "/info/%EC%A4%91%EC%95%99%EC%95%BD%EA%B5%AD-%EC%B6%A9%EC%B2%AD%EB%82%A8%EB%8F%84-%ED%99%8D%EC%84%B1%EA%B5%B0-%ED%99%8D%EC%84%B1%EC%9D%8D/", "workingTime": ["-", "07:20~19:00", "07:20~19:00", "07:20~19:00", "07:20~19:00", "07:20~19:00", "08:00~12:30", "-"]}, {"name": "\uc54c\ub9ac\uc624\uc57d\uad6d", "lat": "36.6010389971776", "lng": "126.67631788575", "url": "/info/%EC%95%8C%EB%A6%AC%EC%98%A4%EC%95%BD%EA%B5%AD-%EC%B6%A9%EC%B2%AD%EB%82%A8%EB%8F%84-%ED%99%8D%EC%84%B1%EA%B5%B0-%ED%99%8D%EC%84%B1%EC%9D%8D/", "workingTime": ["1,2,3,4,5\uc9f8\uc8fc10:00~20:40", "10:00~20:40", "10:00~20:40", "10:00~20:40", "10:00~20:40", "10:00~20:40", "10:00~20:40", "10:00~20:40"]}, {"name": "\ud64d\uc8fc\ud55c\uc57d\uad6d", "lat": "36.60193746626944", "lng": "126.6709736015252", "url": "/info/%ED%99%8D%EC%A3%BC%ED%95%9C%EC%95%BD%EA%B5%AD-%EC%B6%A9%EC%B2%AD%EB%82%A8%EB%8F%84-%ED%99%8D%EC%84%B1%EA%B5%B0-%ED%99%8D%EC%84%B1%EC%9D%8D/", "workingTime": ["-", "09:00~18:00", "09:00~18:00", "09:00~18:00", "09:00~18:00", "09:00~18:00", "09:00~17:00", "-"]}, {"name": "\uc2e0\uc138\uacc4\uc57d\uad6d", "lat": "36.6001080240206", "lng": "126.665673676064", "url": "/info/%EC%8B%A0%EC%84%B8%EA%B3%84%EC%95%BD%EA%B5%AD-%EC%B6%A9%EC%B2%AD%EB%82%A8%EB%8F%84-%ED%99%8D%EC%84%B1%EA%B5%B0-%ED%99%8D%EC%84%B1%EC%9D%8D/", "workingTime": ["1,2,3,4,5\uc9f8\uc8fc07:30~22:00", "08:00~22:00", "08:00~22:00", "08:00~22:00", "08:00~22:00", "08:00~22:00", "08:00~22:00", "08:00~22:00"]}, {"name": "\uacbd\ud76c\uc724\ud55c\uc57d\uad6d", "lat": "36.593888523311", "lng": "126.654295248671", "url": "/info/%EA%B2%BD%ED%9D%AC%EC%9C%A4%ED%95%9C%EC%95%BD%EA%B5%AD-%EC%B6%A9%EC%B2%AD%EB%82%A8%EB%8F%84-%ED%99%8D%EC%84%B1%EA%B5%B0-%ED%99%8D%EC%84%B1%EC%9D%8D/", "workingTime": ["-", "-", "09:00~19:00", "09:00~19:00", "09:00~19:00", "09:00~19:00", "09:00~19:00", "-"]}, {"name": "\ud558\ub098\ud504\ub77c\uc790\uc57d\uad6d", "lat": "36.6009184885", "lng": "126.6661810471", "url": "/info/%ED%95%98%EB%82%98%ED%94%84%EB%9D%BC%EC%9E%90%EC%95%BD%EA%B5%AD-%EC%B6%A9%EC%B2%AD%EB%82%A8%EB%8F%84-%ED%99%8D%EC%84%B1%EA%B5%B0-%ED%99%8D%EC%84%B1%EC%9D%8D/", "workingTime": ["-", "08:00~18:30", "08:00~18:30", "08:00~18:30", "08:00~18:30", "08:00~18:30", "08:00~17:00", "-"]}, {"name": "\ud55c\uc544\ub984\uc57d\uad6d", "lat": "36.5963687856504", "lng": "126.662139869516", "url": "/info/%ED%95%9C%EC%95%84%EB%A6%84%EC%95%BD%EA%B5%AD-%EC%B6%A9%EC%B2%AD%EB%82%A8%EB%8F%84-%ED%99%8D%EC%84%B1%EA%B5%B0-%ED%99%8D%EC%84%B1%EC%9D%8D/", "workingTime": ["1,2,3,4,5\uc9f8\uc8fc10:00~21:00", "07:00~22:00", "07:00~22:00", "07:00~22:00", "07:00~22:00", "07:00~22:00", "07:00~22:00", "09:00~22:00"]}, {"name": "\ubcf4\uc6d0\ub2f9\uc57d\uad6d", "lat": "36.600195962820486", "lng": "126.66689945412312", "url": "/info/%EB%B3%B4%EC%9B%90%EB%8B%B9%EC%95%BD%EA%B5%AD-%EC%B6%A9%EC%B2%AD%EB%82%A8%EB%8F%84-%ED%99%8D%EC%84%B1%EA%B5%B0-%ED%99%8D%EC%84%B1%EC%9D%8D/", "workingTime": ["-", "08:30~18:30", "08:30~18:30", "08:30~18:30", "08:30~18:30", "08:30~18:30", "08:30~13:00", "08:30~13:00"]}, {"name": "\ud64d\uc8fc\uc57d\uad6d", "lat": "36.60128302456103", "lng": "126.66635831630408", "url": "/info/%ED%99%8D%EC%A3%BC%EC%95%BD%EA%B5%AD-%EC%B6%A9%EC%B2%AD%EB%82%A8%EB%8F%84-%ED%99%8D%EC%84%B1%EA%B5%B0-%ED%99%8D%EC%84%B1%EC%9D%8D/", "workingTime": ["-", "08:30~18:30", "08:30~18:30", "08:30~18:30", "08:30~18:30", "08:30~18:30", "08:30~14:00", "09:00~18:00"]}, {"name": "\uac74\uac15\uc57d\uad6d", "lat": "36.60025491661589", "lng": "126.66585247020333", "url": "/info/%EA%B1%B4%EA%B0%95%EC%95%BD%EA%B5%AD-%EC%B6%A9%EC%B2%AD%EB%82%A8%EB%8F%84-%ED%99%8D%EC%84%B1%EA%B5%B0-%ED%99%8D%EC%84%B1%EC%9D%8D/", "workingTime": ["-", "08:00~18:30", "08:00~18:30", "08:00~18:30", "08:00~18:30", "08:00~18:30", "08:00~13:00", "-"]}, {"name": "\uc0bc\uc77c\uc57d\uad6d", "lat": "36.6006153088", "lng": "126.6660392974", "url": "/info/%EC%82%BC%EC%9D%BC%EC%95%BD%EA%B5%AD-%EC%B6%A9%EC%B2%AD%EB%82%A8%EB%8F%84-%ED%99%8D%EC%84%B1%EA%B5%B0-%ED%99%8D%EC%84%B1%EC%9D%8D/", "workingTime": ["-", "09:00~18:00", "09:00~18:00", "09:00~18:00", "09:00~18:00", "09:00~18:00", "09:00~13:00", "-"]}, {"name": "\ud64d\uc131\uc885\ud569\uc57d\uad6d", "lat": "36.60118867659623", "lng": "126.6674227089672", "url": "/info/%ED%99%8D%EC%84%B1%EC%A2%85%ED%95%A9%EC%95%BD%EA%B5%AD-%EC%B6%A9%EC%B2%AD%EB%82%A8%EB%8F%84-%ED%99%8D%EC%84%B1%EA%B5%B0-%ED%99%8D%EC%84%B1%EC%9D%8D/", "workingTime": ["-", "08:00~20:00", "08:00~20:00", "08:00~20:00", "08:00~20:00", "08:00~20:00", "08:00~17:00", "-"]}, {"name": "\uc0ac\uac70\ub9ac\uc5f4\ub9b0\uc57d\uad6d", "lat": "36.59186600759", "lng": "126.668863594364", "url": "/info/%EC%82%AC%EA%B1%B0%EB%A6%AC%EC%97%B4%EB%A6%B0%EC%95%BD%EA%B5%AD-%EC%B6%A9%EC%B2%AD%EB%82%A8%EB%8F%84-%ED%99%8D%EC%84%B1%EA%B5%B0-%ED%99%8D%EC%84%B1%EC%9D%8D/", "workingTime": ["1,2,3,4,5\uc9f8\uc8fc09:30~20:00", "09:30~20:00", "09:30~13:00", "-", "09:30~20:00", "09:30~20:00", "09:30~20:00", "09:30~13:00"]}, {"name": "\uba54\ub514\ud31c\uc815\uc57d\uad6d", "lat": "36.6010154682", "lng": "126.6673474353", "url": "/info/%EB%A9%94%EB%94%94%ED%8C%9C%EC%A0%95%EC%95%BD%EA%B5%AD-%EC%B6%A9%EC%B2%AD%EB%82%A8%EB%8F%84-%ED%99%8D%EC%84%B1%EA%B5%B0-%ED%99%8D%EC%84%B1%EC%9D%8D/", "workingTime": ["-", "08:00~19:00", "08:00~19:00", "08:00~19:00", "08:00~19:00", "08:00~19:00", "08:00~13:00", "-"]}, {"name": "\ud64d\uc131\uc885\ub85c\uc57d\uad6d", "lat": "36.59998447276394", "lng": "126.67516177725369", "url": "/info/%ED%99%8D%EC%84%B1%EC%A2%85%EB%A1%9C%EC%95%BD%EA%B5%AD-%EC%B6%A9%EC%B2%AD%EB%82%A8%EB%8F%84-%ED%99%8D%EC%84%B1%EA%B5%B0-%ED%99%8D%EC%84%B1%EC%9D%8D/", "workingTime": ["-", "08:30~18:10", "08:30~18:10", "08:30~18:10", "08:30~20:00", "08:30~18:10", "09:00~13:00", "-"]}, {"name": "\uc870\uc740\uc57d\uad6d", "lat": "36.600734301982776", "lng": "126.66712894869542", "url": "/info/%EC%A1%B0%EC%9D%80%EC%95%BD%EA%B5%AD-%EC%B6%A9%EC%B2%AD%EB%82%A8%EB%8F%84-%ED%99%8D%EC%84%B1%EA%B5%B0-%ED%99%8D%EC%84%B1%EC%9D%8D/", "workingTime": ["-", "08:30~18:30", "08:30~18:30", "08:30~18:30", "08:30~18:30", "08:30~18:30", "08:30~13:30", "-"]}, {"name": "\uc720\uba85\uc57d\uad6d", "lat": "36.601160152332845", "lng": "126.6675345946422", "url": "/info/%EC%9C%A0%EB%AA%85%EC%95%BD%EA%B5%AD-%EC%B6%A9%EC%B2%AD%EB%82%A8%EB%8F%84-%ED%99%8D%EC%84%B1%EA%B5%B0-%ED%99%8D%EC%84%B1%EC%9D%8D/", "workingTime": ["1,2,3,4,5\uc9f8\uc8fc08:00~20:00", "08:00~20:00", "08:00~20:00", "08:00~20:00", "08:00~20:00", "08:00~20:00", "08:00~20:00", "08:00~20:00"]}, {"name": "\ucc38\uc57d\uad6d", "lat": "36.599800331696336", "lng": "126.67347203209576", "url": "/info/%EC%B0%B8%EC%95%BD%EA%B5%AD-%EC%B6%A9%EC%B2%AD%EB%82%A8%EB%8F%84-%ED%99%8D%EC%84%B1%EA%B5%B0-%ED%99%8D%EC%84%B1%EC%9D%8D/", "workingTime": ["-", "08:00~19:00", "08:00~19:00", "08:00~19:00", "08:00~19:00", "08:00~19:00", "08:00~14:00", "-"]}, {"name": "\uc870\uad11\uc57d\uad6d", "lat": "36.602689200881095", "lng": "126.66628898407356", "url": "/info/%EC%A1%B0%EA%B4%91%EC%95%BD%EA%B5%AD-%EC%B6%A9%EC%B2%AD%EB%82%A8%EB%8F%84-%ED%99%8D%EC%84%B1%EA%B5%B0-%ED%99%8D%EC%84%B1%EC%9D%8D/", "workingTime": ["-", "08:30~18:30", "08:30~18:30", "08:30~17:30", "08:30~18:30", "08:30~18:30", "08:30~13:00", "-"]}, {"name": "\ubbf8\uc18c\uc57d\uad6d", "lat": "36.60135346612486", "lng": "126.66834291464775", "url": "/info/%EB%AF%B8%EC%86%8C%EC%95%BD%EA%B5%AD-%EC%B6%A9%EC%B2%AD%EB%82%A8%EB%8F%84-%ED%99%8D%EC%84%B1%EA%B5%B0-%ED%99%8D%EC%84%B1%EC%9D%8D/", "workingTime": ["-", "08:00~18:30", "08:00~18:30", "08:00~18:30", "08:00~18:30", "08:00~18:30", "08:00~13:30", "-"]}, {"name": "\uc640\uc774\uc57d\uad6d", "lat": "36.5999399098534", "lng": "126.66663168874342", "url": "/info/%EC%99%80%EC%9D%B4%EC%95%BD%EA%B5%AD-%EC%B6%A9%EC%B2%AD%EB%82%A8%EB%8F%84-%ED%99%8D%EC%84%B1%EA%B5%B0-%ED%99%8D%EC%84%B1%EC%9D%8D/", "workingTime": ["-", "08:30~18:30", "08:30~18:30", "08:30~18:30", "08:30~18:30", "08:30~18:30", "08:30~20:00", "-"]}, {"name": "\uc6f0\ube59\ubab0\uc57d\uad6d", "lat": "36.599257264270435", "lng": "126.66635809834685", "url": "/info/%EC%9B%B0%EB%B9%99%EB%AA%B0%EC%95%BD%EA%B5%AD-%EC%B6%A9%EC%B2%AD%EB%82%A8%EB%8F%84-%ED%99%8D%EC%84%B1%EA%B5%B0-%ED%99%8D%EC%84%B1%EC%9D%8D/", "workingTime": ["1,2,3,4,5\uc9f8\uc8fc08:30~17:00", "08:30~21:00", "08:30~21:00", "08:30~21:00", "08:30~21:00", "08:30~21:00", "08:30~17:00", "08:30~21:00"]}, {"name": "\ubc31\ucabc\uc57d\uad6d", "lat": "36.6004777986", "lng": "126.6723388109", "url": "/info/%EB%B0%B1%EC%AA%BC%EC%95%BD%EA%B5%AD-%EC%B6%A9%EC%B2%AD%EB%82%A8%EB%8F%84-%ED%99%8D%EC%84%B1%EA%B5%B0-%ED%99%8D%EC%84%B1%EC%9D%8D/", "workingTime": ["1,2,3,4,5\uc9f8\uc8fc19:00~21:00", "08:00~21:00", "08:00~21:00", "08:00~21:00", "08:00~21:00", "08:00~21:00", "08:00~21:00", "-"]}, {"name": "\uc1a1\uc57d\uad6d", "lat": "36.6002682607", "lng": "126.6669661821", "url": "/info/%EC%86%A1%EC%95%BD%EA%B5%AD-%EC%B6%A9%EC%B2%AD%EB%82%A8%EB%8F%84-%ED%99%8D%EC%84%B1%EA%B5%B0-%ED%99%8D%EC%84%B1%EC%9D%8D/", "workingTime": ["-", "08:30~19:00", "08:30~19:00", "08:30~19:00", "08:30~19:00", "08:30~19:00", "08:30~13:30", "08:30~12:20"]}, {"name": "\ubcf4\ub839\uc57d\uad6d", "lat": "36.599086347591495", "lng": "126.67361876200051", "url": "/info/%EB%B3%B4%EB%A0%B9%EC%95%BD%EA%B5%AD-%EC%B6%A9%EC%B2%AD%EB%82%A8%EB%8F%84-%ED%99%8D%EC%84%B1%EA%B5%B0-%ED%99%8D%EC%84%B1%EC%9D%8D/", "workingTime": ["1,2,3,4,5\uc9f8\uc8fc22:00~25:00", "22:00~25:00", "22:00~25:00", "22:00~25:00", "22:00~25:00", "22:00~25:00", "22:00~25:00", "22:00~25:00"]}, {"name": "\ud64d\uc57d\uad6d", "lat": "36.59948885155648", "lng": "126.67555655747856", "url": "/info/%ED%99%8D%EC%95%BD%EA%B5%AD-%EC%B6%A9%EC%B2%AD%EB%82%A8%EB%8F%84-%ED%99%8D%EC%84%B1%EA%B5%B0-%ED%99%8D%EC%84%B1%EC%9D%8D/", "workingTime": ["-", "08:30~20:00", "08:30~20:00", "08:30~20:00", "08:30~20:00", "08:30~20:00", "14:00~18:00", "10:00~18:00"]}, {"name": "\ud589\ubcf5\ub098\ub214\uc57d\uad6d", "lat": "36.600021348", "lng": "126.6741378679", "url": "/info/%ED%96%89%EB%B3%B5%EB%82%98%EB%88%94%EC%95%BD%EA%B5%AD-%EC%B6%A9%EC%B2%AD%EB%82%A8%EB%8F%84-%ED%99%8D%EC%84%B1%EA%B5%B0-%ED%99%8D%EC%84%B1%EC%9D%8D/", "workingTime": ["-", "08:30~18:30", "08:30~18:30", "08:30~18:30", "08:30~18:30", "08:30~18:30", "-", "-"]}, {"name": "\ud55c\uc77c\uc57d\uad6d", "lat": "36.6012054656517", "lng": "126.66293358768701", "url": "/info/%ED%95%9C%EC%9D%BC%EC%95%BD%EA%B5%AD-%EC%B6%A9%EC%B2%AD%EB%82%A8%EB%8F%84-%ED%99%8D%EC%84%B1%EA%B5%B0-%ED%99%8D%EC%84%B1%EC%9D%8D/", "workingTime": ["-", "09:00~18:00", "09:00~18:00", "09:00~18:00", "09:00~18:00", "09:00~18:00", "-", "-"]}, {"name": "\uc628\ub204\ub9ac\uc57d\uad6d", "lat": "36.60000011006973", "lng": "126.67428773608839", "url": "/info/%EC%98%A8%EB%88%84%EB%A6%AC%EC%95%BD%EA%B5%AD-%EC%B6%A9%EC%B2%AD%EB%82%A8%EB%8F%84-%ED%99%8D%EC%84%B1%EA%B5%B0-%ED%99%8D%EC%84%B1%EC%9D%8D/", "workingTime": ["-", "08:00~19:00", "08:00~19:00", "08:00~19:00", "08:00~19:00", "08:00~19:00", "-", "-"]}]