[{"name": "\uc0c8\uc2f9\uc57d\uad6d", "lat": "36.9536239583823", "lng": "127.933414873381", "url": "/info/%EC%83%88%EC%8B%B9%EC%95%BD%EA%B5%AD-%EC%B6%A9%EC%B2%AD%EB%B6%81%EB%8F%84-%EC%B6%A9%EC%A3%BC%EC%8B%9C-%ED%98%B8%EC%95%94%EB%8F%99/", "workingTime": ["-", "09:00~18:30", "09:00~18:30", "09:00~18:30", "09:00~18:30", "09:00~18:30", "09:00~13:00", "-"]}, {"name": "\ub354\uc88b\uc740\uc57d\uad6d", "lat": "36.9558005259113", "lng": "127.93500970479", "url": "/info/%EB%8D%94%EC%A2%8B%EC%9D%80%EC%95%BD%EA%B5%AD-%EC%B6%A9%EC%B2%AD%EB%B6%81%EB%8F%84-%EC%B6%A9%EC%A3%BC%EC%8B%9C-%ED%98%B8%EC%95%94%EB%8F%99/", "workingTime": ["1,2,3,4,5\uc9f8\uc8fc09:00~13:00", "09:00~19:00", "09:00~19:00", "09:00~19:00", "09:00~19:00", "09:00~19:00", "09:00~13:00", "09:00~13:00"]}, {"name": "\ud638\uc554\ucc9c\uc0ac\uc57d\uad6d", "lat": "36.95613542929034", "lng": "127.92266386382236", "url": "/info/%ED%98%B8%EC%95%94%EC%B2%9C%EC%82%AC%EC%95%BD%EA%B5%AD-%EC%B6%A9%EC%B2%AD%EB%B6%81%EB%8F%84-%EC%B6%A9%EC%A3%BC%EC%8B%9C-%ED%98%B8%EC%95%94%EB%8F%99/", "workingTime": ["-", "09:00~18:00", "12:00~20:00", "09:00~13:00", "12:00~20:00", "09:00~18:00", "09:00~13:00", "-"]}, {"name": "\ud638\uc554\uc885\ub85c\uc57d\uad6d", "lat": "36.95577810749751", "lng": "127.93562515032689", "url": "/info/%ED%98%B8%EC%95%94%EC%A2%85%EB%A1%9C%EC%95%BD%EA%B5%AD-%EC%B6%A9%EC%B2%AD%EB%B6%81%EB%8F%84-%EC%B6%A9%EC%A3%BC%EC%8B%9C-%ED%98%B8%EC%95%94%EB%8F%99/", "workingTime": ["1,2,3,4,5\uc9f8\uc8fc09:00~13:30", "09:00~19:30", "09:00~19:30", "09:00~19:30", "09:00~19:30", "09:00~19:30", "09:00~13:30", "09:00~13:30"]}, {"name": "\ud638\uc554\uc7a5\uc218\uc57d\uad6d", "lat": "36.9566187628818", "lng": "127.923856575147", "url": "/info/%ED%98%B8%EC%95%94%EC%9E%A5%EC%88%98%EC%95%BD%EA%B5%AD-%EC%B6%A9%EC%B2%AD%EB%B6%81%EB%8F%84-%EC%B6%A9%EC%A3%BC%EC%8B%9C-%ED%98%B8%EC%95%94%EB%8F%99/", "workingTime": ["-", "08:00~21:00", "08:00~21:00", "08:00~21:00", "08:00~21:00", "08:00~21:00", "08:00~15:00", "-"]}]