[{"name": "\ubc1d\uc740\uc57d\uad6d", "lat": "36.650736111111108", "lng": "127.474236111111111", "url": "/info/%EB%B0%9D%EC%9D%80%EC%95%BD%EA%B5%AD-%EC%B6%A9%EC%B2%AD%EB%B6%81%EB%8F%84-%EC%B2%AD%EC%A3%BC%EC%8B%9C-%EC%9A%B4%EC%B2%9C%EB%8F%99/", "workingTime": ["1,2,3,4,5\uc9f8\uc8fc09:00~23:00", "09:00~23:00", "09:00~23:00", "09:00~23:00", "09:00~23:00", "09:00~23:00", "09:00~23:00", "09:00~23:00"]}, {"name": "\uc720\uc131\uc57d\uad6d", "lat": "36.646996359904804", "lng": "127.47746768898605", "url": "/info/%EC%9C%A0%EC%84%B1%EC%95%BD%EA%B5%AD-%EC%B6%A9%EC%B2%AD%EB%B6%81%EB%8F%84-%EC%B2%AD%EC%A3%BC%EC%8B%9C-%EC%9A%B4%EC%B2%9C%EB%8F%99/", "workingTime": ["-", "08:00~18:00", "08:00~18:00", "08:00~18:00", "08:00~18:00", "08:00~18:00", "08:00~15:00", "08:00~14:00"]}, {"name": "\uccad\uc8fc\uc0bc\uc131\uc57d\uad6d", "lat": "36.64958218553895", "lng": "127.47520825622851", "url": "/info/%EC%B2%AD%EC%A3%BC%EC%82%BC%EC%84%B1%EC%95%BD%EA%B5%AD-%EC%B6%A9%EC%B2%AD%EB%B6%81%EB%8F%84-%EC%B2%AD%EC%A3%BC%EC%8B%9C-%EC%9A%B4%EC%B2%9C%EB%8F%99/", "workingTime": ["-", "09:00~18:00", "09:00~18:00", "09:00~18:00", "09:00~18:00", "09:00~18:00", "09:00~12:30", "-"]}, {"name": "\uc1a1\ud654\ub3d9\uc57d\uad6d", "lat": "36.6534885213", "lng": "127.4719337338", "url": "/info/%EC%86%A1%ED%99%94%EB%8F%99%EC%95%BD%EA%B5%AD-%EC%B6%A9%EC%B2%AD%EB%B6%81%EB%8F%84-%EC%B2%AD%EC%A3%BC%EC%8B%9C-%EC%9A%B4%EC%B2%9C%EB%8F%99/", "workingTime": ["1,2,3,4,5\uc9f8\uc8fc09:00~19:00", "08:30~21:30", "08:30~21:30", "08:30~21:30", "08:30~21:30", "08:30~21:30", "09:00~19:00", "08:00~22:00"]}, {"name": "\uc544\uc774\ubbf8\uc18c\uc57d\uad6d", "lat": "36.64417374576055", "lng": "127.47574156537165", "url": "/info/%EC%95%84%EC%9D%B4%EB%AF%B8%EC%86%8C%EC%95%BD%EA%B5%AD-%EC%B6%A9%EC%B2%AD%EB%B6%81%EB%8F%84-%EC%B2%AD%EC%A3%BC%EC%8B%9C-%EC%9A%B4%EC%B2%9C%EB%8F%99/", "workingTime": ["1,2,3,4,5\uc9f8\uc8fc08:00~18:00", "08:00~21:00", "08:00~21:00", "08:00~21:00", "08:00~21:00", "08:00~21:00", "08:00~18:00", "08:00~21:00"]}]