[{"name": "\uc2e0\ubd88\ub2f9\ud558\ub098\ub85c\uc57d\uad6d", "lat": "36.81888585887399", "lng": "127.10913407786465", "url": "/info/%EC%8B%A0%EB%B6%88%EB%8B%B9%ED%95%98%EB%82%98%EB%A1%9C%EC%95%BD%EA%B5%AD-%EC%B6%A9%EC%B2%AD%EB%82%A8%EB%8F%84-%EC%B2%9C%EC%95%88%EC%8B%9C-%EB%B6%88%EB%8B%B9%EB%8F%99/", "workingTime": ["-", "08:30~19:30", "08:30~20:30", "08:30~20:30", "08:30~19:30", "08:30~20:30", "08:30~14:30", "-"]}, {"name": "\uccad\ub2f4\uc57d\uad6d", "lat": "36.811955447", "lng": "127.1081200982", "url": "/info/%EC%B2%AD%EB%8B%B4%EC%95%BD%EA%B5%AD-%EC%B6%A9%EC%B2%AD%EB%82%A8%EB%8F%84-%EC%B2%9C%EC%95%88%EC%8B%9C-%EB%B6%88%EB%8B%B9%EB%8F%99/", "workingTime": ["-", "08:40~18:30", "08:40~18:30", "08:40~18:30", "08:40~18:30", "08:40~18:30", "08:40~13:30", "-"]}, {"name": "\uac74\uac15\ud55c\uc774\uc57c\uae30\uac00\uc788\ub294\ub2e4\ub098\uc57d\uad6d", "lat": "36.8176271324623", "lng": "127.108802446265", "url": "/info/%EA%B1%B4%EA%B0%95%ED%95%9C%EC%9D%B4%EC%95%BC%EA%B8%B0%EA%B0%80%EC%9E%88%EB%8A%94%EB%8B%A4%EB%82%98%EC%95%BD%EA%B5%AD-%EC%B6%A9%EC%B2%AD%EB%82%A8%EB%8F%84-%EC%B2%9C%EC%95%88%EC%8B%9C-%EB%B6%88%EB%8B%B9%EB%8F%99/", "workingTime": ["-", "09:00~18:30", "09:00~18:30", "09:00~18:30", "09:00~18:30", "09:00~18:30", "09:00~15:00", "-"]}, {"name": "\uc544\uc774\ubbf8\uc18c\uc57d\uad6d", "lat": "36.81046425144874", "lng": "127.1069659503124", "url": "/info/%EC%95%84%EC%9D%B4%EB%AF%B8%EC%86%8C%EC%95%BD%EA%B5%AD-%EC%B6%A9%EC%B2%AD%EB%82%A8%EB%8F%84-%EC%B2%9C%EC%95%88%EC%8B%9C-%EB%B6%88%EB%8B%B9%EB%8F%99/", "workingTime": ["1,2,3,4,5\uc9f8\uc8fc09:00~13:00", "09:00~20:00", "09:00~20:00", "09:00~20:00", "09:00~20:00", "09:00~20:00", "09:00~16:00", "09:00~13:00"]}, {"name": "\uccad\ucd98\uc57d\uad6d", "lat": "36.81623660400978", "lng": "127.10912583371817", "url": "/info/%EC%B2%AD%EC%B6%98%EC%95%BD%EA%B5%AD-%EC%B6%A9%EC%B2%AD%EB%82%A8%EB%8F%84-%EC%B2%9C%EC%95%88%EC%8B%9C-%EB%B6%88%EB%8B%B9%EB%8F%99/", "workingTime": ["1,2,3,4,5\uc9f8\uc8fc08:30~13:00", "08:30~21:00", "08:30~20:30", "08:30~20:00", "08:30~20:30", "08:30~20:30", "08:30~16:00", "08:30~13:00"]}, {"name": "\ubd88\ub2f9\ud638\uc218\uc57d\uad6d", "lat": "36.7974230754", "lng": "127.0989699809", "url": "/info/%EB%B6%88%EB%8B%B9%ED%98%B8%EC%88%98%EC%95%BD%EA%B5%AD-%EC%B6%A9%EC%B2%AD%EB%82%A8%EB%8F%84-%EC%B2%9C%EC%95%88%EC%8B%9C-%EB%B6%88%EB%8B%B9%EB%8F%99/", "workingTime": ["-", "09:00~20:00", "09:00~20:00", "09:00~20:00", "09:00~20:00", "09:00~20:00", "09:00~17:00", "09:00~17:00"]}, {"name": "\ub098\ub214\uc57d\uad6d", "lat": "36.8146338974", "lng": "127.1077338499", "url": "/info/%EB%82%98%EB%88%94%EC%95%BD%EA%B5%AD-%EC%B6%A9%EC%B2%AD%EB%82%A8%EB%8F%84-%EC%B2%9C%EC%95%88%EC%8B%9C-%EB%B6%88%EB%8B%B9%EB%8F%99/", "workingTime": ["1,2,3,4,5\uc9f8\uc8fc09:00~13:00", "09:00~19:00", "09:00~19:00", "09:00~19:00", "09:00~19:00", "09:00~19:00", "09:00~15:00", "09:00~13:00"]}, {"name": "\uc18c\ub9dd\uc57d\uad6d", "lat": "36.806706607442614", "lng": "127.11003679495204", "url": "/info/%EC%86%8C%EB%A7%9D%EC%95%BD%EA%B5%AD-%EC%B6%A9%EC%B2%AD%EB%82%A8%EB%8F%84-%EC%B2%9C%EC%95%88%EC%8B%9C-%EB%B6%88%EB%8B%B9%EB%8F%99/", "workingTime": ["-", "09:00~21:30", "09:00~21:30", "09:00~21:30", "09:00~21:30", "09:00~21:30", "09:00~21:30", "09:30~21:30"]}, {"name": "\ud61c\ubbfc\uc6d0\ud55c\uc57d\uad6d", "lat": "36.81698049123383", "lng": "127.10860327846", "url": "/info/%ED%98%9C%EB%AF%BC%EC%9B%90%ED%95%9C%EC%95%BD%EA%B5%AD-%EC%B6%A9%EC%B2%AD%EB%82%A8%EB%8F%84-%EC%B2%9C%EC%95%88%EC%8B%9C-%EB%B6%88%EB%8B%B9%EB%8F%99/", "workingTime": ["-", "09:30~19:00", "09:30~19:00", "09:30~19:00", "09:30~19:00", "09:30~19:00", "09:30~17:00", "-"]}, {"name": "\uc57d\uc190\uc57d\uad6d", "lat": "36.81402765522264", "lng": "127.10849957561956", "url": "/info/%EC%95%BD%EC%86%90%EC%95%BD%EA%B5%AD-%EC%B6%A9%EC%B2%AD%EB%82%A8%EB%8F%84-%EC%B2%9C%EC%95%88%EC%8B%9C-%EB%B6%88%EB%8B%B9%EB%8F%99/", "workingTime": ["-", "08:50~19:20", "08:50~19:20", "08:50~19:20", "08:50~19:20", "08:50~19:20", "08:50~13:30", "-"]}, {"name": "\ud39c\ud0c0\ud3ec\ud2b8\uc57d\uad6d", "lat": "36.79832753426949", "lng": "127.10141606543531", "url": "/info/%ED%8E%9C%ED%83%80%ED%8F%AC%ED%8A%B8%EC%95%BD%EA%B5%AD-%EC%B6%A9%EC%B2%AD%EB%82%A8%EB%8F%84-%EC%B2%9C%EC%95%88%EC%8B%9C-%EB%B6%88%EB%8B%B9%EB%8F%99/", "workingTime": ["1,3,5\uc9f8\uc8fc10:00~21:00", "10:00~21:00", "10:00~21:00", "10:00~21:00", "10:00~21:00", "10:00~21:00", "10:00~21:00", "10:00~21:00"]}, {"name": "\ubd04\uc57d\uad6d", "lat": "36.816530884716556", "lng": "127.10656643432111", "url": "/info/%EB%B4%84%EC%95%BD%EA%B5%AD-%EC%B6%A9%EC%B2%AD%EB%82%A8%EB%8F%84-%EC%B2%9C%EC%95%88%EC%8B%9C-%EB%B6%88%EB%8B%B9%EB%8F%99/", "workingTime": ["-", "09:00~19:00", "09:00~19:00", "09:00~19:00", "09:00~19:00", "09:00~19:00", "09:00~14:00", "-"]}, {"name": "\ucc9c\uc548\ubc31\uc81c\uc57d\uad6d", "lat": "36.8124458866", "lng": "127.1078607852", "url": "/info/%EC%B2%9C%EC%95%88%EB%B0%B1%EC%A0%9C%EC%95%BD%EA%B5%AD-%EC%B6%A9%EC%B2%AD%EB%82%A8%EB%8F%84-%EC%B2%9C%EC%95%88%EC%8B%9C-%EB%B6%88%EB%8B%B9%EB%8F%99/", "workingTime": ["-", "09:00~20:00", "09:00~20:00", "09:00~19:00", "09:00~20:00", "09:00~19:00", "09:00~14:00", "09:00~13:00"]}, {"name": "\ubd88\ub2f9\uc124\uc57d\uad6d", "lat": "36.81296464048112", "lng": "127.10817531137911", "url": "/info/%EB%B6%88%EB%8B%B9%EC%84%A4%EC%95%BD%EA%B5%AD-%EC%B6%A9%EC%B2%AD%EB%82%A8%EB%8F%84-%EC%B2%9C%EC%95%88%EC%8B%9C-%EB%B6%88%EB%8B%B9%EB%8F%99/", "workingTime": ["-", "09:00~21:00", "09:00~21:00", "09:00~21:00", "09:00~21:00", "09:00~21:00", "09:00~16:00", "-"]}, {"name": "\uc138\ud6c8\uc57d\uad6d", "lat": "36.8001837234115", "lng": "127.10362594182983", "url": "/info/%EC%84%B8%ED%9B%88%EC%95%BD%EA%B5%AD-%EC%B6%A9%EC%B2%AD%EB%82%A8%EB%8F%84-%EC%B2%9C%EC%95%88%EC%8B%9C-%EB%B6%88%EB%8B%B9%EB%8F%99/", "workingTime": ["1,2,3,4,5\uc9f8\uc8fc09:00~18:00", "09:00~21:00", "09:00~19:30", "09:00~19:30", "09:00~19:30", "09:00~21:00", "09:00~18:00", "09:00~16:00"]}, {"name": "\uc790\uc5f0\uc744\ub2f4\uc740\uc57d\uad6d", "lat": "36.8115951051", "lng": "127.1080075226", "url": "/info/%EC%9E%90%EC%97%B0%EC%9D%84%EB%8B%B4%EC%9D%80%EC%95%BD%EA%B5%AD-%EC%B6%A9%EC%B2%AD%EB%82%A8%EB%8F%84-%EC%B2%9C%EC%95%88%EC%8B%9C-%EB%B6%88%EB%8B%B9%EB%8F%99/", "workingTime": ["-", "09:00~17:50", "09:00~17:50", "09:00~17:50", "09:00~17:50", "09:00~17:50", "09:00~12:50", "-"]}, {"name": "\ubd88\ub2f9\ube44\ud0c0\ubbfc\uc57d\uad6d", "lat": "36.810060484707314", "lng": "127.11095497934971", "url": "/info/%EB%B6%88%EB%8B%B9%EB%B9%84%ED%83%80%EB%AF%BC%EC%95%BD%EA%B5%AD-%EC%B6%A9%EC%B2%AD%EB%82%A8%EB%8F%84-%EC%B2%9C%EC%95%88%EC%8B%9C-%EB%B6%88%EB%8B%B9%EB%8F%99/", "workingTime": ["-", "09:30~20:00", "09:30~19:00", "-", "09:30~19:00", "09:30~19:00", "09:30~15:00", "-"]}, {"name": "\ub2e4\uc815\uc57d\uad6d", "lat": "36.82228613840001", "lng": "127.10771319169998", "url": "/info/%EB%8B%A4%EC%A0%95%EC%95%BD%EA%B5%AD-%EC%B6%A9%EC%B2%AD%EB%82%A8%EB%8F%84-%EC%B2%9C%EC%95%88%EC%8B%9C-%EB%B6%88%EB%8B%B9%EB%8F%99/", "workingTime": ["1,2,3,4,5\uc9f8\uc8fc09:00~22:00", "09:00~22:00", "09:00~22:00", "09:00~22:00", "09:00~22:00", "09:00~22:00", "09:00~22:00", "09:00~22:00"]}, {"name": "\ud558\ub098\uc57d\uad6d", "lat": "36.8106176898", "lng": "127.1086785542", "url": "/info/%ED%95%98%EB%82%98%EC%95%BD%EA%B5%AD-%EC%B6%A9%EC%B2%AD%EB%82%A8%EB%8F%84-%EC%B2%9C%EC%95%88%EC%8B%9C-%EB%B6%88%EB%8B%B9%EB%8F%99/", "workingTime": ["-", "08:30~19:00", "08:30~19:00", "08:30~19:00", "08:30~19:00", "08:30~19:00", "08:30~14:00", "-"]}, {"name": "\ubc94\uc57d\uad6d", "lat": "36.8020424270876", "lng": "127.104062210694", "url": "/info/%EB%B2%94%EC%95%BD%EA%B5%AD-%EC%B6%A9%EC%B2%AD%EB%82%A8%EB%8F%84-%EC%B2%9C%EC%95%88%EC%8B%9C-%EB%B6%88%EB%8B%B9%EB%8F%99/", "workingTime": ["-", "09:00~19:00", "09:00~19:00", "09:00~19:00", "09:00~19:00", "09:00~19:00", "09:00~15:00", "-"]}, {"name": "\ubcf8\uc57d\uad6d", "lat": "36.8212772100055", "lng": "127.10993046032", "url": "/info/%EB%B3%B8%EC%95%BD%EA%B5%AD-%EC%B6%A9%EC%B2%AD%EB%82%A8%EB%8F%84-%EC%B2%9C%EC%95%88%EC%8B%9C-%EB%B6%88%EB%8B%B9%EB%8F%99/", "workingTime": ["-", "09:00~20:00", "09:00~20:00", "09:00~20:00", "09:00~20:00", "09:00~20:00", "09:00~14:30", "-"]}, {"name": "\ubc14\ub978\uc57d\uad6d", "lat": "36.8153466822", "lng": "127.1087166199", "url": "/info/%EB%B0%94%EB%A5%B8%EC%95%BD%EA%B5%AD-%EC%B6%A9%EC%B2%AD%EB%82%A8%EB%8F%84-%EC%B2%9C%EC%95%88%EC%8B%9C-%EB%B6%88%EB%8B%B9%EB%8F%99/", "workingTime": ["-", "09:00~19:30", "09:00~19:30", "09:00~19:30", "09:00~19:30", "09:00~19:30", "09:00~14:30", "-"]}, {"name": "\ud558\uc740\uc57d\uad6d", "lat": "36.8173065194698", "lng": "127.108701907543", "url": "/info/%ED%95%98%EC%9D%80%EC%95%BD%EA%B5%AD-%EC%B6%A9%EC%B2%AD%EB%82%A8%EB%8F%84-%EC%B2%9C%EC%95%88%EC%8B%9C-%EB%B6%88%EB%8B%B9%EB%8F%99/", "workingTime": ["-", "09:00~19:00", "09:00~19:00", "09:00~19:00", "09:00~19:00", "09:00~19:00", "09:00~13:00", "09:00~13:00"]}, {"name": "\uc544\uc774\ud589\ubcf5\uc57d\uad6d", "lat": "36.819613682403265", "lng": "127.1094310038881", "url": "/info/%EC%95%84%EC%9D%B4%ED%96%89%EB%B3%B5%EC%95%BD%EA%B5%AD-%EC%B6%A9%EC%B2%AD%EB%82%A8%EB%8F%84-%EC%B2%9C%EC%95%88%EC%8B%9C-%EB%B6%88%EB%8B%B9%EB%8F%99/", "workingTime": ["1,2,3,4,5\uc9f8\uc8fc09:00~18:00", "09:00~22:00", "09:00~22:00", "09:00~22:00", "09:00~22:00", "09:00~22:00", "09:00~18:00", "09:00~18:00"]}, {"name": "\uc0c8\uc2f9\uc57d\uad6d", "lat": "36.8117347496", "lng": "127.1090253059", "url": "/info/%EC%83%88%EC%8B%B9%EC%95%BD%EA%B5%AD-%EC%B6%A9%EC%B2%AD%EB%82%A8%EB%8F%84-%EC%B2%9C%EC%95%88%EC%8B%9C-%EB%B6%88%EB%8B%B9%EB%8F%99/", "workingTime": ["-", "08:30~18:00", "08:30~18:00", "08:30~18:00", "08:30~18:00", "08:30~18:00", "08:30~17:00", "-"]}, {"name": "\ucf54\ub07c\ub9ac\uc57d\uad6d", "lat": "36.809747011420484", "lng": "127.11083349554997", "url": "/info/%EC%BD%94%EB%81%BC%EB%A6%AC%EC%95%BD%EA%B5%AD-%EC%B6%A9%EC%B2%AD%EB%82%A8%EB%8F%84-%EC%B2%9C%EC%95%88%EC%8B%9C-%EB%B6%88%EB%8B%B9%EB%8F%99/", "workingTime": ["-", "09:00~20:00", "09:00~20:00", "09:00~20:00", "09:00~20:00", "09:00~20:00", "09:00~15:00", "-"]}, {"name": "\uc704\ub4dc\uc720\uc57d\uad6d", "lat": "36.8064529845", "lng": "127.1064314409", "url": "/info/%EC%9C%84%EB%93%9C%EC%9C%A0%EC%95%BD%EA%B5%AD-%EC%B6%A9%EC%B2%AD%EB%82%A8%EB%8F%84-%EC%B2%9C%EC%95%88%EC%8B%9C-%EB%B6%88%EB%8B%B9%EB%8F%99/", "workingTime": ["-", "09:00~18:30", "09:00~18:30", "09:00~18:30", "09:00~18:30", "09:00~18:30", "09:00~13:00", "-"]}, {"name": "\ubcc4\ub2d8\uc628\ub204\ub9ac\uc57d\uad6d", "lat": "36.8123771009", "lng": "127.1081924159", "url": "/info/%EB%B3%84%EB%8B%98%EC%98%A8%EB%88%84%EB%A6%AC%EC%95%BD%EA%B5%AD-%EC%B6%A9%EC%B2%AD%EB%82%A8%EB%8F%84-%EC%B2%9C%EC%95%88%EC%8B%9C-%EB%B6%88%EB%8B%B9%EB%8F%99/", "workingTime": ["1,2,3,4,5\uc9f8\uc8fc09:00~13:00", "09:00~21:00", "09:00~21:00", "09:00~21:00", "09:00~21:00", "09:00~21:00", "09:00~17:00", "09:00~13:00"]}, {"name": "\uccad\uc0ac\uc57d\uad6d", "lat": "36.8161298541125", "lng": "127.113046978689", "url": "/info/%EC%B2%AD%EC%82%AC%EC%95%BD%EA%B5%AD-%EC%B6%A9%EC%B2%AD%EB%82%A8%EB%8F%84-%EC%B2%9C%EC%95%88%EC%8B%9C-%EB%B6%88%EB%8B%B9%EB%8F%99/", "workingTime": ["-", "10:00~17:00", "10:00~17:00", "10:00~17:00", "10:00~17:00", "10:00~17:00", "-", "-"]}]