[{"name": "\uc2dc\uc7a5\uc57d\uad6d", "lat": "36.627609963305915", "lng": "127.49109510281852", "url": "/info/%EC%8B%9C%EC%9E%A5%EC%95%BD%EA%B5%AD-%EC%B6%A9%EC%B2%AD%EB%B6%81%EB%8F%84-%EC%B2%AD%EC%A3%BC%EC%8B%9C-%EC%84%9D%EA%B5%90%EB%8F%99/", "workingTime": ["-", "08:30~19:00", "08:30~19:00", "08:30~19:00", "08:30~19:00", "08:30~19:00", "08:30~16:00", "-"]}, {"name": "\uc721\uac70\ub9ac\ud070\uc57d\uad6d", "lat": "36.627817766042234", "lng": "127.49140052015374", "url": "/info/%EC%9C%A1%EA%B1%B0%EB%A6%AC%ED%81%B0%EC%95%BD%EA%B5%AD-%EC%B6%A9%EC%B2%AD%EB%B6%81%EB%8F%84-%EC%B2%AD%EC%A3%BC%EC%8B%9C-%EC%84%9D%EA%B5%90%EB%8F%99/", "workingTime": ["1,2,3,4,5\uc9f8\uc8fc08:30~19:00", "08:30~20:00", "08:30~20:00", "08:30~20:00", "08:30~20:00", "08:30~20:00", "08:30~20:00", "08:30~20:00"]}, {"name": "\ubbf8\uc18c\uc57d\uad6d", "lat": "36.62788602989938", "lng": "127.49318711446277", "url": "/info/%EB%AF%B8%EC%86%8C%EC%95%BD%EA%B5%AD-%EC%B6%A9%EC%B2%AD%EB%B6%81%EB%8F%84-%EC%B2%AD%EC%A3%BC%EC%8B%9C-%EC%84%9D%EA%B5%90%EB%8F%99/", "workingTime": ["-", "08:30~18:00", "08:30~18:00", "08:30~18:00", "08:30~18:00", "08:30~18:00", "08:30~13:00", "-"]}, {"name": "\uc0c1\ub2f9\uac74\uac15\uc57d\uad6d", "lat": "36.6273298511", "lng": "127.4908473463", "url": "/info/%EC%83%81%EB%8B%B9%EA%B1%B4%EA%B0%95%EC%95%BD%EA%B5%AD-%EC%B6%A9%EC%B2%AD%EB%B6%81%EB%8F%84-%EC%B2%AD%EC%A3%BC%EC%8B%9C-%EC%84%9D%EA%B5%90%EB%8F%99/", "workingTime": ["-", "09:00~19:00", "09:00~19:00", "09:00~19:00", "09:00~19:00", "09:00~19:00", "09:00~13:00", "-"]}, {"name": "\ub098\ub77c\uc57d\uad6d", "lat": "36.626669900794475", "lng": "127.49266774628206", "url": "/info/%EB%82%98%EB%9D%BC%EC%95%BD%EA%B5%AD-%EC%B6%A9%EC%B2%AD%EB%B6%81%EB%8F%84-%EC%B2%AD%EC%A3%BC%EC%8B%9C-%EC%84%9D%EA%B5%90%EB%8F%99/", "workingTime": ["-", "09:00~18:00", "09:00~18:00", "09:00~18:00", "09:00~18:00", "09:00~18:00", "09:00~14:00", "09:00~13:00"]}, {"name": "\uc0bc\uc7a5\uc57d\uad6d", "lat": "36.626753329497106", "lng": "127.48991800882527", "url": "/info/%EC%82%BC%EC%9E%A5%EC%95%BD%EA%B5%AD-%EC%B6%A9%EC%B2%AD%EB%B6%81%EB%8F%84-%EC%B2%AD%EC%A3%BC%EC%8B%9C-%EC%84%9D%EA%B5%90%EB%8F%99/", "workingTime": ["-", "09:00~18:00", "09:00~18:00", "09:00~18:00", "09:00~18:00", "09:00~18:00", "09:00~17:00", "-"]}, {"name": "\ud55c\uc77c\ub2f9\ud55c\uc57d\uad6d", "lat": "36.62641176740016", "lng": "127.49320719211803", "url": "/info/%ED%95%9C%EC%9D%BC%EB%8B%B9%ED%95%9C%EC%95%BD%EA%B5%AD-%EC%B6%A9%EC%B2%AD%EB%B6%81%EB%8F%84-%EC%B2%AD%EC%A3%BC%EC%8B%9C-%EC%84%9D%EA%B5%90%EB%8F%99/", "workingTime": ["-", "09:00~18:00", "09:00~18:00", "09:00~18:00", "09:00~18:00", "09:00~18:00", "09:00~12:00", "-"]}, {"name": "\uac11\uc790\uc57d\uad6d", "lat": "36.62809673343975", "lng": "127.49192999414826", "url": "/info/%EA%B0%91%EC%9E%90%EC%95%BD%EA%B5%AD-%EC%B6%A9%EC%B2%AD%EB%B6%81%EB%8F%84-%EC%B2%AD%EC%A3%BC%EC%8B%9C-%EC%84%9D%EA%B5%90%EB%8F%99/", "workingTime": ["-", "08:00~18:00", "08:00~18:00", "08:00~18:00", "08:00~18:00", "08:00~18:00", "08:00~13:00", "-"]}, {"name": "\ud574\ub9d1\uc740\ubbf8\uc18c\uc57d\uad6d", "lat": "36.62783842474631", "lng": "127.49076560252243", "url": "/info/%ED%95%B4%EB%A7%91%EC%9D%80%EB%AF%B8%EC%86%8C%EC%95%BD%EA%B5%AD-%EC%B6%A9%EC%B2%AD%EB%B6%81%EB%8F%84-%EC%B2%AD%EC%A3%BC%EC%8B%9C-%EC%84%9D%EA%B5%90%EB%8F%99/", "workingTime": ["-", "08:30~18:30", "08:30~18:30", "08:30~18:30", "08:30~18:30", "08:30~18:30", "-", "-"]}, {"name": "\uc0bc\uc77c\uc57d\uad6d", "lat": "36.62764089889177", "lng": "127.49058548737592", "url": "/info/%EC%82%BC%EC%9D%BC%EC%95%BD%EA%B5%AD-%EC%B6%A9%EC%B2%AD%EB%B6%81%EB%8F%84-%EC%B2%AD%EC%A3%BC%EC%8B%9C-%EC%84%9D%EA%B5%90%EB%8F%99/", "workingTime": ["-", "08:30~18:00", "08:30~18:00", "08:30~18:00", "08:30~18:00", "08:30~18:00", "-", "-"]}]