[{"name": "\ud0d1\uc57d\uad6d", "lat": "36.6300523625248", "lng": "127.503560992544", "url": "/info/%ED%83%91%EC%95%BD%EA%B5%AD-%EC%B6%A9%EC%B2%AD%EB%B6%81%EB%8F%84-%EC%B2%AD%EC%A3%BC%EC%8B%9C-%EA%B8%88%EC%B2%9C%EB%8F%99/", "workingTime": ["-", "09:00~19:00", "09:00~19:00", "09:00~19:00", "09:00~19:00", "09:00~19:00", "09:00~14:00", "-"]}, {"name": "\ub300\uba85\uc57d\uad6d", "lat": "36.62456027881431", "lng": "127.49508251810404", "url": "/info/%EB%8C%80%EB%AA%85%EC%95%BD%EA%B5%AD-%EC%B6%A9%EC%B2%AD%EB%B6%81%EB%8F%84-%EC%B2%AD%EC%A3%BC%EC%8B%9C-%EA%B8%88%EC%B2%9C%EB%8F%99/", "workingTime": ["-", "08:30~19:00", "08:30~19:00", "08:30~19:00", "08:30~19:00", "08:30~19:00", "08:30~13:30", "-"]}, {"name": "\uc2e0\uc911\uc559\uc57d\uad6d", "lat": "36.628965485672424", "lng": "127.50656547820154", "url": "/info/%EC%8B%A0%EC%A4%91%EC%95%99%EC%95%BD%EA%B5%AD-%EC%B6%A9%EC%B2%AD%EB%B6%81%EB%8F%84-%EC%B2%AD%EC%A3%BC%EC%8B%9C-%EA%B8%88%EC%B2%9C%EB%8F%99/", "workingTime": ["-", "09:00~22:00", "09:00~22:00", "09:00~22:00", "09:00~22:00", "09:00~22:00", "09:00~22:00", "-"]}, {"name": "\ubcc4\uc57d\uad6d", "lat": "36.63070798506199", "lng": "127.50384266544981", "url": "/info/%EB%B3%84%EC%95%BD%EA%B5%AD-%EC%B6%A9%EC%B2%AD%EB%B6%81%EB%8F%84-%EC%B2%AD%EC%A3%BC%EC%8B%9C-%EA%B8%88%EC%B2%9C%EB%8F%99/", "workingTime": ["-", "09:00~19:00", "09:00~19:00", "09:00~19:00", "09:00~19:00", "09:00~19:00", "09:00~14:00", "-"]}, {"name": "\ud55c\ub9c8\uc74c\uc57d\uad6d", "lat": "36.622533333333337", "lng": "127.506386111111112", "url": "/info/%ED%95%9C%EB%A7%88%EC%9D%8C%EC%95%BD%EA%B5%AD-%EC%B6%A9%EC%B2%AD%EB%B6%81%EB%8F%84-%EC%B2%AD%EC%A3%BC%EC%8B%9C-%EA%B8%88%EC%B2%9C%EB%8F%99/", "workingTime": ["-", "08:30~19:30", "08:30~19:30", "08:30~19:30", "08:30~19:30", "08:30~19:30", "08:30~18:00", "-"]}, {"name": "\ud589\ubcf5\uc57d\uad6d", "lat": "36.630670194646", "lng": "127.50405876850391", "url": "/info/%ED%96%89%EB%B3%B5%EC%95%BD%EA%B5%AD-%EC%B6%A9%EC%B2%AD%EB%B6%81%EB%8F%84-%EC%B2%AD%EC%A3%BC%EC%8B%9C-%EA%B8%88%EC%B2%9C%EB%8F%99/", "workingTime": ["-", "09:00~19:00", "09:00~19:00", "09:00~19:00", "09:00~19:00", "09:00~19:00", "09:00~13:00", "09:00~13:00"]}, {"name": "\uae08\ucc9c\uc57d\uad6d", "lat": "36.62479269459101", "lng": "127.50284716465351", "url": "/info/%EA%B8%88%EC%B2%9C%EC%95%BD%EA%B5%AD-%EC%B6%A9%EC%B2%AD%EB%B6%81%EB%8F%84-%EC%B2%AD%EC%A3%BC%EC%8B%9C-%EA%B8%88%EC%B2%9C%EB%8F%99/", "workingTime": ["-", "09:00~18:40", "09:00~18:40", "09:00~18:40", "09:00~18:40", "09:00~18:40", "09:00~13:00", "-"]}, {"name": "\ubc18\uc57d\uad6d", "lat": "36.62922479984141", "lng": "127.50234551735035", "url": "/info/%EB%B0%98%EC%95%BD%EA%B5%AD-%EC%B6%A9%EC%B2%AD%EB%B6%81%EB%8F%84-%EC%B2%AD%EC%A3%BC%EC%8B%9C-%EA%B8%88%EC%B2%9C%EB%8F%99/", "workingTime": ["-", "09:00~18:00", "09:00~18:00", "09:00~18:00", "09:00~18:00", "09:00~18:00", "09:00~13:00", "-"]}, {"name": "\ubcf4\ub9ac\uc57d\uad6d", "lat": "36.6286239121", "lng": "127.5097232899", "url": "/info/%EB%B3%B4%EB%A6%AC%EC%95%BD%EA%B5%AD-%EC%B6%A9%EC%B2%AD%EB%B6%81%EB%8F%84-%EC%B2%AD%EC%A3%BC%EC%8B%9C-%EA%B8%88%EC%B2%9C%EB%8F%99/", "workingTime": ["-", "09:30~20:00", "09:30~20:00", "09:30~20:00", "09:30~20:00", "09:30~20:00", "09:30~19:00", "-"]}, {"name": "\uccad\uc8fc\uc81c\uc77c\uc57d\uad6d", "lat": "36.63006020099001", "lng": "127.50511023241563", "url": "/info/%EC%B2%AD%EC%A3%BC%EC%A0%9C%EC%9D%BC%EC%95%BD%EA%B5%AD-%EC%B6%A9%EC%B2%AD%EB%B6%81%EB%8F%84-%EC%B2%AD%EC%A3%BC%EC%8B%9C-%EA%B8%88%EC%B2%9C%EB%8F%99/", "workingTime": ["-", "09:00~19:00", "09:00~19:00", "09:00~19:00", "09:00~19:00", "09:00~19:00", "09:00~14:00", "-"]}, {"name": "\uc544\ub984\uc57d\uad6d", "lat": "36.62514996347259", "lng": "127.50360076229201", "url": "/info/%EC%95%84%EB%A6%84%EC%95%BD%EA%B5%AD-%EC%B6%A9%EC%B2%AD%EB%B6%81%EB%8F%84-%EC%B2%AD%EC%A3%BC%EC%8B%9C-%EA%B8%88%EC%B2%9C%EB%8F%99/", "workingTime": ["-", "09:00~18:30", "09:00~18:30", "09:00~18:30", "09:00~18:30", "09:00~18:30", "09:00~12:30", "-"]}, {"name": "\uc2e0\ud6a8\uc131\uc57d\uad6d", "lat": "36.624325524292", "lng": "127.49562399497538", "url": "/info/%EC%8B%A0%ED%9A%A8%EC%84%B1%EC%95%BD%EA%B5%AD-%EC%B6%A9%EC%B2%AD%EB%B6%81%EB%8F%84-%EC%B2%AD%EC%A3%BC%EC%8B%9C-%EA%B8%88%EC%B2%9C%EB%8F%99/", "workingTime": ["-", "08:30~19:00", "08:30~19:00", "08:30~19:00", "08:30~19:00", "08:30~19:00", "08:30~13:30", "-"]}, {"name": "\ubcf4\ud604\uc57d\uad6d", "lat": "36.62315338950826", "lng": "127.50819257961706", "url": "/info/%EB%B3%B4%ED%98%84%EC%95%BD%EA%B5%AD-%EC%B6%A9%EC%B2%AD%EB%B6%81%EB%8F%84-%EC%B2%AD%EC%A3%BC%EC%8B%9C-%EA%B8%88%EC%B2%9C%EB%8F%99/", "workingTime": ["-", "09:00~21:00", "09:00~21:00", "09:00~21:00", "09:00~21:00", "09:00~21:00", "09:00~20:00", "09:00~20:00"]}, {"name": "\uad7f\ubaa8\ub2dd\uc0ac\ub791\uc57d\uad6d", "lat": "36.6308128409112", "lng": "127.50355265419735", "url": "/info/%EA%B5%BF%EB%AA%A8%EB%8B%9D%EC%82%AC%EB%9E%91%EC%95%BD%EA%B5%AD-%EC%B6%A9%EC%B2%AD%EB%B6%81%EB%8F%84-%EC%B2%AD%EC%A3%BC%EC%8B%9C-%EA%B8%88%EC%B2%9C%EB%8F%99/", "workingTime": ["1,2,3,4,5\uc9f8\uc8fc15:00~21:00", "08:30~21:00", "08:30~21:00", "08:30~21:00", "08:30~21:00", "08:30~21:00", "08:30~21:00", "15:00~21:00"]}, {"name": "\uad7f\ubaa8\ub2dd\uc57d\uad6d", "lat": "36.63004758124977", "lng": "127.50551542962853", "url": "/info/%EA%B5%BF%EB%AA%A8%EB%8B%9D%EC%95%BD%EA%B5%AD-%EC%B6%A9%EC%B2%AD%EB%B6%81%EB%8F%84-%EC%B2%AD%EC%A3%BC%EC%8B%9C-%EA%B8%88%EC%B2%9C%EB%8F%99/", "workingTime": ["-", "09:00~20:00", "09:00~20:00", "09:00~20:00", "09:00~20:00", "09:00~20:00", "09:00~20:00", "-"]}, {"name": "\uc21c\ucc9c\ub2f9\uc57d\uad6d", "lat": "36.63064056306022", "lng": "127.50593074540776", "url": "/info/%EC%88%9C%EC%B2%9C%EB%8B%B9%EC%95%BD%EA%B5%AD-%EC%B6%A9%EC%B2%AD%EB%B6%81%EB%8F%84-%EC%B2%AD%EC%A3%BC%EC%8B%9C-%EA%B8%88%EC%B2%9C%EB%8F%99/", "workingTime": ["-", "09:00~19:00", "09:00~19:00", "09:00~19:00", "09:00~19:00", "09:00~19:00", "09:00~13:00", "-"]}, {"name": "\uac74\uac15\ub4dc\ub9bc\uc57d\uad6d", "lat": "36.62932925502233", "lng": "127.50533742450173", "url": "/info/%EA%B1%B4%EA%B0%95%EB%93%9C%EB%A6%BC%EC%95%BD%EA%B5%AD-%EC%B6%A9%EC%B2%AD%EB%B6%81%EB%8F%84-%EC%B2%AD%EC%A3%BC%EC%8B%9C-%EA%B8%88%EC%B2%9C%EB%8F%99/", "workingTime": ["-", "09:00~19:00", "09:00~19:00", "09:00~19:00", "09:00~19:00", "09:00~19:00", "09:00~13:00", "-"]}, {"name": "\ud55c\uc77c\uc57d\uad6d", "lat": "36.6246449816746", "lng": "127.50410505143725", "url": "/info/%ED%95%9C%EC%9D%BC%EC%95%BD%EA%B5%AD-%EC%B6%A9%EC%B2%AD%EB%B6%81%EB%8F%84-%EC%B2%AD%EC%A3%BC%EC%8B%9C-%EA%B8%88%EC%B2%9C%EB%8F%99/", "workingTime": ["-", "09:00~18:30", "09:00~18:30", "09:00~18:30", "09:00~12:30", "09:00~18:30", "09:00~12:30", "-"]}]