[{"name": "\uc601\ub3d9\ud070\uc0ac\ub791\uc57d\uad6d", "lat": "36.17565422530929", "lng": "127.77764300349284", "url": "/info/%EC%98%81%EB%8F%99%ED%81%B0%EC%82%AC%EB%9E%91%EC%95%BD%EA%B5%AD-%EC%B6%A9%EC%B2%AD%EB%B6%81%EB%8F%84-%EC%98%81%EB%8F%99%EA%B5%B0-%EC%98%81%EB%8F%99%EC%9D%8D/", "workingTime": ["1,2,3,4,5\uc9f8\uc8fc09:00~20:30", "08:00~20:30", "08:00~20:30", "08:00~20:30", "08:00~20:30", "08:00~20:30", "08:00~20:30", "08:00~20:30"]}, {"name": "\ud3ec\ub3c4\uc54c\uc57d\uad6d", "lat": "36.17487816603752", "lng": "127.77715941924279", "url": "/info/%ED%8F%AC%EB%8F%84%EC%95%8C%EC%95%BD%EA%B5%AD-%EC%B6%A9%EC%B2%AD%EB%B6%81%EB%8F%84-%EC%98%81%EB%8F%99%EA%B5%B0-%EC%98%81%EB%8F%99%EC%9D%8D/", "workingTime": ["-", "08:00~18:30", "08:00~18:30", "08:00~18:30", "08:00~18:30", "08:00~18:30", "08:00~16:00", "09:00~13:00"]}, {"name": "\ud0dc\ud3c9\uc591\uc57d\uad6d", "lat": "36.17382349531342", "lng": "127.77534411816177", "url": "/info/%ED%83%9C%ED%8F%89%EC%96%91%EC%95%BD%EA%B5%AD-%EC%B6%A9%EC%B2%AD%EB%B6%81%EB%8F%84-%EC%98%81%EB%8F%99%EA%B5%B0-%EC%98%81%EB%8F%99%EC%9D%8D/", "workingTime": ["-", "08:30~18:00", "08:30~18:00", "08:30~18:00", "08:30~18:00", "08:30~18:00", "08:30~13:00", "-"]}, {"name": "\uc815\uc57d\uad6d", "lat": "36.174569745579994", "lng": "127.7765874605458", "url": "/info/%EC%A0%95%EC%95%BD%EA%B5%AD-%EC%B6%A9%EC%B2%AD%EB%B6%81%EB%8F%84-%EC%98%81%EB%8F%99%EA%B5%B0-%EC%98%81%EB%8F%99%EC%9D%8D/", "workingTime": ["-", "08:30~18:30", "08:30~18:30", "08:30~18:30", "08:30~18:30", "08:30~18:30", "08:30~13:00", "-"]}, {"name": "\uc0c8\uc601\ub3d9\uc57d\uad6d", "lat": "36.175082191214734", "lng": "127.7769126540946", "url": "/info/%EC%83%88%EC%98%81%EB%8F%99%EC%95%BD%EA%B5%AD-%EC%B6%A9%EC%B2%AD%EB%B6%81%EB%8F%84-%EC%98%81%EB%8F%99%EA%B5%B0-%EC%98%81%EB%8F%99%EC%9D%8D/", "workingTime": ["-", "09:00~19:00", "09:00~19:00", "09:00~19:00", "09:00~19:00", "09:00~19:00", "09:00~17:00", "-"]}, {"name": "\uc6b0\ub9ac\uc57d\uad6d", "lat": "36.17513374053675", "lng": "127.77832680936007", "url": "/info/%EC%9A%B0%EB%A6%AC%EC%95%BD%EA%B5%AD-%EC%B6%A9%EC%B2%AD%EB%B6%81%EB%8F%84-%EC%98%81%EB%8F%99%EA%B5%B0-%EC%98%81%EB%8F%99%EC%9D%8D/", "workingTime": ["-", "09:00~19:30", "09:00~19:30", "09:00~19:30", "09:00~19:30", "09:00~19:30", "09:00~14:00", "-"]}, {"name": "\uc601\ub3d9\ud504\ub77c\uc790\uc57d\uad6d", "lat": "36.17525404229607", "lng": "127.77820372225653", "url": "/info/%EC%98%81%EB%8F%99%ED%94%84%EB%9D%BC%EC%9E%90%EC%95%BD%EA%B5%AD-%EC%B6%A9%EC%B2%AD%EB%B6%81%EB%8F%84-%EC%98%81%EB%8F%99%EA%B5%B0-%EC%98%81%EB%8F%99%EC%9D%8D/", "workingTime": ["-", "08:00~20:00", "08:00~20:00", "08:00~20:00", "08:00~20:00", "08:00~20:00", "08:00~17:00", "08:00~19:00"]}, {"name": "\uac74\uac15\uc57d\uad6d", "lat": "36.175416678084694", "lng": "127.77813863877873", "url": "/info/%EA%B1%B4%EA%B0%95%EC%95%BD%EA%B5%AD-%EC%B6%A9%EC%B2%AD%EB%B6%81%EB%8F%84-%EC%98%81%EB%8F%99%EA%B5%B0-%EC%98%81%EB%8F%99%EC%9D%8D/", "workingTime": ["-", "08:30~19:30", "08:30~19:30", "08:30~19:30", "08:30~19:30", "08:30~19:30", "08:30~18:30", "-"]}, {"name": "\uc870\uc740\uc57d\uad6d", "lat": "36.174109349710065", "lng": "127.77573374032198", "url": "/info/%EC%A1%B0%EC%9D%80%EC%95%BD%EA%B5%AD-%EC%B6%A9%EC%B2%AD%EB%B6%81%EB%8F%84-%EC%98%81%EB%8F%99%EA%B5%B0-%EC%98%81%EB%8F%99%EC%9D%8D/", "workingTime": ["-", "08:30~18:30", "08:30~18:30", "08:30~18:30", "08:30~18:30", "08:30~18:30", "08:30~13:00", "-"]}, {"name": "\uc601\ub3d9\uc885\ub85c\uc57d\uad6d", "lat": "36.17510289612925", "lng": "127.77649937114553", "url": "/info/%EC%98%81%EB%8F%99%EC%A2%85%EB%A1%9C%EC%95%BD%EA%B5%AD-%EC%B6%A9%EC%B2%AD%EB%B6%81%EB%8F%84-%EC%98%81%EB%8F%99%EA%B5%B0-%EC%98%81%EB%8F%99%EC%9D%8D/", "workingTime": ["-", "08:30~20:00", "08:30~20:00", "08:30~20:00", "08:30~20:00", "08:30~20:00", "08:30~20:00", "08:30~16:00"]}, {"name": "\uc131\uc2e0\uc57d\uad6d", "lat": "36.17462084459674", "lng": "127.77570302652708", "url": "/info/%EC%84%B1%EC%8B%A0%EC%95%BD%EA%B5%AD-%EC%B6%A9%EC%B2%AD%EB%B6%81%EB%8F%84-%EC%98%81%EB%8F%99%EA%B5%B0-%EC%98%81%EB%8F%99%EC%9D%8D/", "workingTime": ["-", "08:30~21:00", "08:30~21:00", "08:30~21:00", "08:30~21:00", "08:30~21:00", "08:30~19:00", "-"]}, {"name": "\ub0a8\uc11c\uc6b8\uc57d\uad6d", "lat": "36.17516072620833", "lng": "127.77694434651647", "url": "/info/%EB%82%A8%EC%84%9C%EC%9A%B8%EC%95%BD%EA%B5%AD-%EC%B6%A9%EC%B2%AD%EB%B6%81%EB%8F%84-%EC%98%81%EB%8F%99%EA%B5%B0-%EC%98%81%EB%8F%99%EC%9D%8D/", "workingTime": ["-", "08:30~21:00", "08:30~21:00", "08:30~21:00", "08:30~21:00", "08:30~21:00", "08:30~20:00", "-"]}, {"name": "\uc0ac\ub77c\uc57d\uad6d", "lat": "36.17338501070695", "lng": "127.77347247645991", "url": "/info/%EC%82%AC%EB%9D%BC%EC%95%BD%EA%B5%AD-%EC%B6%A9%EC%B2%AD%EB%B6%81%EB%8F%84-%EC%98%81%EB%8F%99%EA%B5%B0-%EC%98%81%EB%8F%99%EC%9D%8D/", "workingTime": ["-", "08:30~20:00", "08:30~20:00", "08:30~20:00", "08:30~20:00", "08:30~20:00", "08:30~15:00", "-"]}, {"name": "\uc138\uc815\uc628\ub204\ub9ac\uc57d\uad6d", "lat": "36.1738863795019", "lng": "127.78064440718557", "url": "/info/%EC%84%B8%EC%A0%95%EC%98%A8%EB%88%84%EB%A6%AC%EC%95%BD%EA%B5%AD-%EC%B6%A9%EC%B2%AD%EB%B6%81%EB%8F%84-%EC%98%81%EB%8F%99%EA%B5%B0-%EC%98%81%EB%8F%99%EC%9D%8D/", "workingTime": ["-", "08:30~18:30", "08:30~18:30", "08:30~18:30", "08:30~18:30", "08:30~18:30", "08:30~13:00", "-"]}, {"name": "\ud558\ub098\uc57d\uad6d", "lat": "36.17489422942025", "lng": "127.77746190962384", "url": "/info/%ED%95%98%EB%82%98%EC%95%BD%EA%B5%AD-%EC%B6%A9%EC%B2%AD%EB%B6%81%EB%8F%84-%EC%98%81%EB%8F%99%EA%B5%B0-%EC%98%81%EB%8F%99%EC%9D%8D/", "workingTime": ["-", "08:30~19:00", "08:30~19:00", "08:30~19:00", "08:30~19:00", "08:30~19:00", "-", "-"]}, {"name": "\uc18c\uc6d0\uc57d\uad6d", "lat": "36.17458816604487", "lng": "127.77740998543247", "url": "/info/%EC%86%8C%EC%9B%90%EC%95%BD%EA%B5%AD-%EC%B6%A9%EC%B2%AD%EB%B6%81%EB%8F%84-%EC%98%81%EB%8F%99%EA%B5%B0-%EC%98%81%EB%8F%99%EC%9D%8D/", "workingTime": ["-", "08:30~18:30", "08:30~18:30", "08:30~18:30", "08:30~18:30", "08:30~18:30", "-", "-"]}, {"name": "\ub3d9\uc0b0\uc57d\uad6d", "lat": "36.17485072546796", "lng": "127.77647465252281", "url": "/info/%EB%8F%99%EC%82%B0%EC%95%BD%EA%B5%AD-%EC%B6%A9%EC%B2%AD%EB%B6%81%EB%8F%84-%EC%98%81%EB%8F%99%EA%B5%B0-%EC%98%81%EB%8F%99%EC%9D%8D/", "workingTime": ["-", "08:30~19:00", "08:30~19:00", "08:30~19:00", "08:30~19:00", "08:30~19:00", "-", "-"]}, {"name": "\ud6a8\uc131\uc57d\uad6d", "lat": "36.17409838293791", "lng": "127.77576029101492", "url": "/info/%ED%9A%A8%EC%84%B1%EC%95%BD%EA%B5%AD-%EC%B6%A9%EC%B2%AD%EB%B6%81%EB%8F%84-%EC%98%81%EB%8F%99%EA%B5%B0-%EC%98%81%EB%8F%99%EC%9D%8D/", "workingTime": ["1,2,3,4,5\uc9f8\uc8fc08:00~18:00", "-", "-", "-", "-", "-", "14:00~18:00", "08:00~18:00"]}, {"name": "\uc77c\ud3b8\ub2e8\uc2ec\uc57d\uad6d", "lat": "36.1717878691", "lng": "127.7867900535", "url": "/info/%EC%9D%BC%ED%8E%B8%EB%8B%A8%EC%8B%AC%EC%95%BD%EA%B5%AD-%EC%B6%A9%EC%B2%AD%EB%B6%81%EB%8F%84-%EC%98%81%EB%8F%99%EA%B5%B0-%EC%98%81%EB%8F%99%EC%9D%8D/", "workingTime": ["-", "09:00~18:00", "09:00~18:00", "09:00~18:00", "09:00~18:00", "09:00~18:00", "-", "-"]}]