[{"name": "\ud55c\uc0ac\ub791\uc57d\uad6d", "lat": "36.83942017454657", "lng": "127.17409700036865", "url": "/info/%ED%95%9C%EC%82%AC%EB%9E%91%EC%95%BD%EA%B5%AD-%EC%B6%A9%EC%B2%AD%EB%82%A8%EB%8F%84-%EC%B2%9C%EC%95%88%EC%8B%9C-%EC%95%88%EC%84%9C%EB%8F%99/", "workingTime": ["-", "08:30~18:30", "08:30~18:30", "08:30~18:30", "08:30~18:30", "08:30~18:30", "09:00~13:00", "-"]}, {"name": "\uba85\uc9c4\uc57d\uad6d", "lat": "36.83992699770931", "lng": "127.1739905371866", "url": "/info/%EB%AA%85%EC%A7%84%EC%95%BD%EA%B5%AD-%EC%B6%A9%EC%B2%AD%EB%82%A8%EB%8F%84-%EC%B2%9C%EC%95%88%EC%8B%9C-%EC%95%88%EC%84%9C%EB%8F%99/", "workingTime": ["-", "08:30~18:10", "08:30~18:10", "08:30~18:10", "08:30~18:10", "08:30~18:10", "08:30~12:40", "-"]}, {"name": "\uc815\ubb38\uc57d\uad6d", "lat": "36.84001109813809", "lng": "127.17423285946919", "url": "/info/%EC%A0%95%EB%AC%B8%EC%95%BD%EA%B5%AD-%EC%B6%A9%EC%B2%AD%EB%82%A8%EB%8F%84-%EC%B2%9C%EC%95%88%EC%8B%9C-%EC%95%88%EC%84%9C%EB%8F%99/", "workingTime": ["-", "08:30~18:30", "08:30~18:30", "08:30~18:30", "08:30~18:30", "08:30~18:30", "08:30~13:00", "-"]}, {"name": "\ub300\ubb38\uc57d\uad6d", "lat": "36.839685462836044", "lng": "127.17401689638469", "url": "/info/%EB%8C%80%EB%AC%B8%EC%95%BD%EA%B5%AD-%EC%B6%A9%EC%B2%AD%EB%82%A8%EB%8F%84-%EC%B2%9C%EC%95%88%EC%8B%9C-%EC%95%88%EC%84%9C%EB%8F%99/", "workingTime": ["-", "08:30~18:30", "08:30~18:30", "08:30~18:30", "08:30~18:30", "08:30~18:30", "09:00~13:00", "-"]}, {"name": "\ud638\uc218\uc57d\uad6d", "lat": "36.8360424637", "lng": "127.1732822069", "url": "/info/%ED%98%B8%EC%88%98%EC%95%BD%EA%B5%AD-%EC%B6%A9%EC%B2%AD%EB%82%A8%EB%8F%84-%EC%B2%9C%EC%95%88%EC%8B%9C-%EC%95%88%EC%84%9C%EB%8F%99/", "workingTime": ["-", "09:00~19:30", "09:00~19:30", "09:00~19:30", "09:00~19:30", "09:00~19:30", "09:00~15:00", "-"]}, {"name": "\uc18c\ub9dd\uc628\ub204\ub9ac\uc57d\uad6d", "lat": "36.830807259701366", "lng": "127.177920300697", "url": "/info/%EC%86%8C%EB%A7%9D%EC%98%A8%EB%88%84%EB%A6%AC%EC%95%BD%EA%B5%AD-%EC%B6%A9%EC%B2%AD%EB%82%A8%EB%8F%84-%EC%B2%9C%EC%95%88%EC%8B%9C-%EC%95%88%EC%84%9C%EB%8F%99/", "workingTime": ["-", "09:00~21:30", "09:00~21:30", "09:00~21:30", "09:00~21:30", "09:00~21:30", "09:00~21:00", "-"]}, {"name": "\ub300\ud559\uc57d\uad6d", "lat": "36.840712999903225", "lng": "127.1748891627844", "url": "/info/%EB%8C%80%ED%95%99%EC%95%BD%EA%B5%AD-%EC%B6%A9%EC%B2%AD%EB%82%A8%EB%8F%84-%EC%B2%9C%EC%95%88%EC%8B%9C-%EC%95%88%EC%84%9C%EB%8F%99/", "workingTime": ["-", "09:00~18:30", "09:00~18:30", "09:00~18:30", "09:00~18:30", "09:00~18:30", "09:00~13:00", "-"]}]