[{"name": "\ub2e4\uc0ac\ub791\uc57d\uad6d", "lat": "36.76769174209227", "lng": "126.45218147575993", "url": "/info/%EB%8B%A4%EC%82%AC%EB%9E%91%EC%95%BD%EA%B5%AD-%EC%B6%A9%EC%B2%AD%EB%82%A8%EB%8F%84-%EC%84%9C%EC%82%B0%EC%8B%9C-%EC%98%88%EC%B2%9C%EB%8F%99/", "workingTime": ["-", "09:00~19:30", "09:00~19:30", "09:00~19:30", "09:00~19:30", "09:00~19:30", "09:00~14:00", "09:00~13:00"]}, {"name": "\uc6a9\ud55c\uc57d\uad6d", "lat": "36.7729227997", "lng": "126.4485061369", "url": "/info/%EC%9A%A9%ED%95%9C%EC%95%BD%EA%B5%AD-%EC%B6%A9%EC%B2%AD%EB%82%A8%EB%8F%84-%EC%84%9C%EC%82%B0%EC%8B%9C-%EC%98%88%EC%B2%9C%EB%8F%99/", "workingTime": ["-", "10:00~19:00", "10:00~19:00", "10:00~19:00", "10:00~19:00", "10:00~19:00", "10:00~15:00", "-"]}, {"name": "\uc5f4\ub9e4\uc57d\uad6d", "lat": "36.7690990657", "lng": "126.4470729708", "url": "/info/%EC%97%B4%EB%A7%A4%EC%95%BD%EA%B5%AD-%EC%B6%A9%EC%B2%AD%EB%82%A8%EB%8F%84-%EC%84%9C%EC%82%B0%EC%8B%9C-%EC%98%88%EC%B2%9C%EB%8F%99/", "workingTime": ["-", "08:30~19:00", "08:30~19:00", "08:30~19:00", "08:30~19:00", "08:30~19:00", "08:30~13:00", "-"]}, {"name": "\ub4dc\ub9bc\uc57d\uad6d", "lat": "36.77336000532208", "lng": "126.4495155915273", "url": "/info/%EB%93%9C%EB%A6%BC%EC%95%BD%EA%B5%AD-%EC%B6%A9%EC%B2%AD%EB%82%A8%EB%8F%84-%EC%84%9C%EC%82%B0%EC%8B%9C-%EC%98%88%EC%B2%9C%EB%8F%99/", "workingTime": ["-", "09:00~19:00", "09:00~19:00", "09:00~21:00", "09:00~19:00", "09:00~19:00", "09:00~14:00", "-"]}, {"name": "\ud638\uc218\uc57d\uad6d", "lat": "36.77436607097086", "lng": "126.4456887192486", "url": "/info/%ED%98%B8%EC%88%98%EC%95%BD%EA%B5%AD-%EC%B6%A9%EC%B2%AD%EB%82%A8%EB%8F%84-%EC%84%9C%EC%82%B0%EC%8B%9C-%EC%98%88%EC%B2%9C%EB%8F%99/", "workingTime": ["-", "08:30~19:00", "08:30~19:00", "08:30~19:00", "08:30~19:00", "08:30~19:00", "08:30~14:00", "08:30~14:00"]}, {"name": "\uae30\ubd84\uc88b\uc740\uc57d\uad6d", "lat": "36.7737230623394", "lng": "126.438296536035", "url": "/info/%EA%B8%B0%EB%B6%84%EC%A2%8B%EC%9D%80%EC%95%BD%EA%B5%AD-%EC%B6%A9%EC%B2%AD%EB%82%A8%EB%8F%84-%EC%84%9C%EC%82%B0%EC%8B%9C-%EC%98%88%EC%B2%9C%EB%8F%99/", "workingTime": ["-", "09:00~18:00", "-", "-", "-", "-", "-", "-"]}]