[{"name": "\uc624\ud589\ub2f9\uc57d\uad6d", "lat": "36.68031888951373", "lng": "126.83463516421182", "url": "/info/%EC%98%A4%ED%96%89%EB%8B%B9%EC%95%BD%EA%B5%AD-%EC%B6%A9%EC%B2%AD%EB%82%A8%EB%8F%84-%EC%98%88%EC%82%B0%EA%B5%B0-%EC%98%88%EC%82%B0%EC%9D%8D/", "workingTime": ["-", "09:00~18:00", "09:00~18:00", "09:00~18:00", "09:00~18:00", "09:00~18:00", "09:00~13:00", "-"]}, {"name": "\ud55c\ube5b\uc57d\uad6d", "lat": "36.67968678976917", "lng": "126.84714438295958", "url": "/info/%ED%95%9C%EB%B9%9B%EC%95%BD%EA%B5%AD-%EC%B6%A9%EC%B2%AD%EB%82%A8%EB%8F%84-%EC%98%88%EC%82%B0%EA%B5%B0-%EC%98%88%EC%82%B0%EC%9D%8D/", "workingTime": ["-", "08:00~20:00", "08:00~20:00", "08:00~20:00", "08:00~20:00", "08:00~20:00", "08:00~15:00", "08:00~13:00"]}, {"name": "\uc778\ud654\ub2f9\uc57d\uad6d", "lat": "36.68599182340756", "lng": "126.73790858604806", "url": "/info/%EC%9D%B8%ED%99%94%EB%8B%B9%EC%95%BD%EA%B5%AD-%EC%B6%A9%EC%B2%AD%EB%82%A8%EB%8F%84-%EC%98%88%EC%82%B0%EA%B5%B0-%EC%98%88%EC%82%B0%EC%9D%8D/", "workingTime": ["-", "08:30~18:30", "08:30~18:30", "08:30~18:30", "08:30~18:30", "08:30~18:30", "08:30~14:30", "-"]}, {"name": "\uc870\uc740\uc57d\uad6d", "lat": "36.688363031944036", "lng": "126.82986134190558", "url": "/info/%EC%A1%B0%EC%9D%80%EC%95%BD%EA%B5%AD-%EC%B6%A9%EC%B2%AD%EB%82%A8%EB%8F%84-%EC%98%88%EC%82%B0%EA%B5%B0-%EC%98%88%EC%82%B0%EC%9D%8D/", "workingTime": ["-", "08:30~20:00", "08:30~20:00", "08:30~20:00", "08:30~20:00", "08:30~20:00", "08:30~16:00", "-"]}, {"name": "\uc628\ub204\ub9ac\uc774\ud654\uc57d\uad6d", "lat": "36.68768471658361", "lng": "126.83078384958257", "url": "/info/%EC%98%A8%EB%88%84%EB%A6%AC%EC%9D%B4%ED%99%94%EC%95%BD%EA%B5%AD-%EC%B6%A9%EC%B2%AD%EB%82%A8%EB%8F%84-%EC%98%88%EC%82%B0%EA%B5%B0-%EC%98%88%EC%82%B0%EC%9D%8D/", "workingTime": ["-", "08:00~20:00", "08:00~20:00", "08:00~20:00", "08:00~20:00", "08:00~20:00", "08:00~20:00", "-"]}, {"name": "\ub098\ubb34\uc57d\uad6d", "lat": "36.68582673769112", "lng": "126.82962430534421", "url": "/info/%EB%82%98%EB%AC%B4%EC%95%BD%EA%B5%AD-%EC%B6%A9%EC%B2%AD%EB%82%A8%EB%8F%84-%EC%98%88%EC%82%B0%EA%B5%B0-%EC%98%88%EC%82%B0%EC%9D%8D/", "workingTime": ["-", "08:20~19:30", "08:20~19:30", "08:20~19:30", "08:20~19:30", "08:20~19:30", "08:20~17:20", "-"]}, {"name": "\uba85\ubb38\uc57d\uad6d", "lat": "36.727258186045354", "lng": "126.84501282482177", "url": "/info/%EB%AA%85%EB%AC%B8%EC%95%BD%EA%B5%AD-%EC%B6%A9%EC%B2%AD%EB%82%A8%EB%8F%84-%EC%98%88%EC%82%B0%EA%B5%B0-%EC%98%88%EC%82%B0%EC%9D%8D/", "workingTime": ["-", "08:30~21:00", "08:30~21:00", "08:30~21:00", "08:30~21:00", "08:30~21:00", "08:30~21:00", "-"]}, {"name": "\uc6b0\ub9ac\ub124\uc57d\uad6d", "lat": "36.72855777648553", "lng": "126.84245770617451", "url": "/info/%EC%9A%B0%EB%A6%AC%EB%84%A4%EC%95%BD%EA%B5%AD-%EC%B6%A9%EC%B2%AD%EB%82%A8%EB%8F%84-%EC%98%88%EC%82%B0%EA%B5%B0-%EC%98%88%EC%82%B0%EC%9D%8D/", "workingTime": ["-", "08:30~18:00", "08:30~18:00", "08:30~12:30", "08:30~18:00", "08:30~18:00", "08:30~12:30", "-"]}, {"name": "\uad7f\ubaa8\ub2dd\uc57d\uad6d", "lat": "36.6794833129429", "lng": "126.845730195859", "url": "/info/%EA%B5%BF%EB%AA%A8%EB%8B%9D%EC%95%BD%EA%B5%AD-%EC%B6%A9%EC%B2%AD%EB%82%A8%EB%8F%84-%EC%98%88%EC%82%B0%EA%B5%B0-%EC%98%88%EC%82%B0%EC%9D%8D/", "workingTime": ["-", "08:30~18:30", "08:30~18:30", "08:30~18:30", "08:30~18:30", "08:30~18:30", "08:30~15:30", "-"]}, {"name": "\uc30d\uc1a1\uc57d\uad6d", "lat": "36.68047465683745", "lng": "126.85164033210412", "url": "/info/%EC%8C%8D%EC%86%A1%EC%95%BD%EA%B5%AD-%EC%B6%A9%EC%B2%AD%EB%82%A8%EB%8F%84-%EC%98%88%EC%82%B0%EA%B5%B0-%EC%98%88%EC%82%B0%EC%9D%8D/", "workingTime": ["-", "09:00~19:30", "09:00~19:30", "09:00~19:30", "09:00~19:30", "09:00~19:30", "09:00~16:00", "09:00~12:00"]}, {"name": "\uc194\uc57d\uad6d", "lat": "36.6946343715261", "lng": "126.83460530622773", "url": "/info/%EC%86%94%EC%95%BD%EA%B5%AD-%EC%B6%A9%EC%B2%AD%EB%82%A8%EB%8F%84-%EC%98%88%EC%82%B0%EA%B5%B0-%EC%98%88%EC%82%B0%EC%9D%8D/", "workingTime": ["-", "08:30~21:00", "08:30~21:00", "08:30~21:00", "08:30~21:00", "08:30~21:00", "08:30~17:00", "08:00~15:00"]}, {"name": "\ud589\ubcf5\ud55c\uc57d\uad6d", "lat": "36.69124094145719", "lng": "126.83864974072772", "url": "/info/%ED%96%89%EB%B3%B5%ED%95%9C%EC%95%BD%EA%B5%AD-%EC%B6%A9%EC%B2%AD%EB%82%A8%EB%8F%84-%EC%98%88%EC%82%B0%EA%B5%B0-%EC%98%88%EC%82%B0%EC%9D%8D/", "workingTime": ["-", "08:30~18:00", "08:30~18:00", "08:30~18:00", "08:30~18:00", "08:30~18:00", "08:30~12:30", "-"]}, {"name": "\uc774\ub300\uc57d\uad6d", "lat": "36.72789950218308", "lng": "126.84480106480638", "url": "/info/%EC%9D%B4%EB%8C%80%EC%95%BD%EA%B5%AD-%EC%B6%A9%EC%B2%AD%EB%82%A8%EB%8F%84-%EC%98%88%EC%82%B0%EA%B5%B0-%EC%98%88%EC%82%B0%EC%9D%8D/", "workingTime": ["5\uc9f8\uc8fc09:00~21:00", "09:00~21:00", "09:00~21:00", "09:00~21:00", "09:00~21:00", "09:00~21:00", "09:00~21:00", "10:00~21:00"]}, {"name": "\uc815\uc57d\uad6d", "lat": "36.678930484612266", "lng": "126.84589835435472", "url": "/info/%EC%A0%95%EC%95%BD%EA%B5%AD-%EC%B6%A9%EC%B2%AD%EB%82%A8%EB%8F%84-%EC%98%88%EC%82%B0%EA%B5%B0-%EC%98%88%EC%82%B0%EC%9D%8D/", "workingTime": ["-", "08:00~19:30", "08:00~19:30", "08:00~19:30", "08:00~19:30", "08:00~19:30", "08:00~14:00", "09:00~18:00"]}, {"name": "\ud3c9\ud654\uc57d\uad6d", "lat": "36.686644246339796", "lng": "126.83164092883807", "url": "/info/%ED%8F%89%ED%99%94%EC%95%BD%EA%B5%AD-%EC%B6%A9%EC%B2%AD%EB%82%A8%EB%8F%84-%EC%98%88%EC%82%B0%EA%B5%B0-%EC%98%88%EC%82%B0%EC%9D%8D/", "workingTime": ["-", "09:00~21:00", "09:00~21:00", "09:00~21:00", "09:00~21:00", "09:00~21:00", "09:00~13:00", "10:00~18:00"]}, {"name": "\uc6b0\ub9ac\uc2dc\ubbfc\uc57d\uad6d", "lat": "36.69412096028959", "lng": "126.83361531354802", "url": "/info/%EC%9A%B0%EB%A6%AC%EC%8B%9C%EB%AF%BC%EC%95%BD%EA%B5%AD-%EC%B6%A9%EC%B2%AD%EB%82%A8%EB%8F%84-%EC%98%88%EC%82%B0%EA%B5%B0-%EC%98%88%EC%82%B0%EC%9D%8D/", "workingTime": ["-", "08:30~20:00", "08:30~19:00", "08:30~20:00", "08:30~20:00", "08:30~19:00", "08:30~14:00", "-"]}, {"name": "\uc608\uc0b0\uc0bc\uc120\uc57d\uad6d", "lat": "36.6798415419", "lng": "126.8497709393", "url": "/info/%EC%98%88%EC%82%B0%EC%82%BC%EC%84%A0%EC%95%BD%EA%B5%AD-%EC%B6%A9%EC%B2%AD%EB%82%A8%EB%8F%84-%EC%98%88%EC%82%B0%EA%B5%B0-%EC%98%88%EC%82%B0%EC%9D%8D/", "workingTime": ["1,2,3,4,5\uc9f8\uc8fc08:30~22:00", "08:30~22:00", "08:30~22:00", "08:30~22:00", "08:30~22:00", "08:30~22:00", "08:30~22:00", "08:30~22:00"]}, {"name": "\uc608\uc0b0\uc81c\uc77c\uc57d\uad6d", "lat": "36.681904862474894", "lng": "126.83060961952785", "url": "/info/%EC%98%88%EC%82%B0%EC%A0%9C%EC%9D%BC%EC%95%BD%EA%B5%AD-%EC%B6%A9%EC%B2%AD%EB%82%A8%EB%8F%84-%EC%98%88%EC%82%B0%EA%B5%B0-%EC%98%88%EC%82%B0%EC%9D%8D/", "workingTime": ["-", "08:30~19:00", "08:30~19:00", "08:30~19:00", "08:30~19:00", "08:30~19:00", "08:30~13:00", "-"]}, {"name": "\uc608\uc0b0\uc885\ub85c\uc57d\uad6d", "lat": "36.678292038586804", "lng": "126.85013644627568", "url": "/info/%EC%98%88%EC%82%B0%EC%A2%85%EB%A1%9C%EC%95%BD%EA%B5%AD-%EC%B6%A9%EC%B2%AD%EB%82%A8%EB%8F%84-%EC%98%88%EC%82%B0%EA%B5%B0-%EC%98%88%EC%82%B0%EC%9D%8D/", "workingTime": ["-", "08:30~19:00", "08:30~19:00", "08:30~19:00", "08:30~19:00", "08:30~19:00", "08:30~15:00", "09:00~13:00"]}, {"name": "\uc2dc\ubbfc\uc57d\uad6d", "lat": "36.68157596950876", "lng": "126.83270254550018", "url": "/info/%EC%8B%9C%EB%AF%BC%EC%95%BD%EA%B5%AD-%EC%B6%A9%EC%B2%AD%EB%82%A8%EB%8F%84-%EC%98%88%EC%82%B0%EA%B5%B0-%EC%98%88%EC%82%B0%EC%9D%8D/", "workingTime": ["-", "08:00~19:00", "08:00~19:00", "08:00~19:00", "08:00~19:00", "08:00~19:00", "08:00~13:00", "08:00~12:00"]}, {"name": "\uc2dc\ub0b4\uc628\ub204\ub9ac\uc57d\uad6d", "lat": "36.679819336", "lng": "126.8464907384", "url": "/info/%EC%8B%9C%EB%82%B4%EC%98%A8%EB%88%84%EB%A6%AC%EC%95%BD%EA%B5%AD-%EC%B6%A9%EC%B2%AD%EB%82%A8%EB%8F%84-%EC%98%88%EC%82%B0%EA%B5%B0-%EC%98%88%EC%82%B0%EC%9D%8D/", "workingTime": ["-", "08:30~20:00", "08:30~20:00", "08:30~20:00", "08:30~20:00", "08:30~20:00", "08:30~16:00", "-"]}, {"name": "\uc0bc\uac70\ub9ac\uc57d\uad6d", "lat": "36.68063018830001", "lng": "126.852056203", "url": "/info/%EC%82%BC%EA%B1%B0%EB%A6%AC%EC%95%BD%EA%B5%AD-%EC%B6%A9%EC%B2%AD%EB%82%A8%EB%8F%84-%EC%98%88%EC%82%B0%EA%B5%B0-%EC%98%88%EC%82%B0%EC%9D%8D/", "workingTime": ["-", "08:30~19:00", "08:30~18:30", "08:30~18:30", "08:30~19:00", "08:30~18:30", "08:30~13:30", "-"]}, {"name": "\ub3d9\uc544\uc57d\uad6d", "lat": "36.67972887427139", "lng": "126.84727953891164", "url": "/info/%EB%8F%99%EC%95%84%EC%95%BD%EA%B5%AD-%EC%B6%A9%EC%B2%AD%EB%82%A8%EB%8F%84-%EC%98%88%EC%82%B0%EA%B5%B0-%EC%98%88%EC%82%B0%EC%9D%8D/", "workingTime": ["-", "08:30~19:00", "08:30~19:00", "08:30~19:00", "08:30~19:00", "08:30~19:00", "08:30~17:00", "09:00~13:00"]}, {"name": "\uba85\uc131\uc57d\uad6d", "lat": "36.71393685044698", "lng": "126.8337035486634", "url": "/info/%EB%AA%85%EC%84%B1%EC%95%BD%EA%B5%AD-%EC%B6%A9%EC%B2%AD%EB%82%A8%EB%8F%84-%EC%98%88%EC%82%B0%EA%B5%B0-%EC%98%88%EC%82%B0%EC%9D%8D/", "workingTime": ["-", "08:30~18:00", "08:30~18:00", "08:30~18:00", "08:30~18:00", "08:30~18:00", "08:30~13:00", "-"]}, {"name": "\ub2e4\uc815\uc57d\uad6d", "lat": "36.689929570763645", "lng": "126.83023735531617", "url": "/info/%EB%8B%A4%EC%A0%95%EC%95%BD%EA%B5%AD-%EC%B6%A9%EC%B2%AD%EB%82%A8%EB%8F%84-%EC%98%88%EC%82%B0%EA%B5%B0-%EC%98%88%EC%82%B0%EC%9D%8D/", "workingTime": ["-", "08:30~18:00", "08:30~18:00", "08:30~18:00", "08:30~18:00", "08:30~18:00", "08:30~12:00", "-"]}, {"name": "\ub298\ud478\ub978\uc57d\uad6d", "lat": "36.67976519127885", "lng": "126.8474897941608", "url": "/info/%EB%8A%98%ED%91%B8%EB%A5%B8%EC%95%BD%EA%B5%AD-%EC%B6%A9%EC%B2%AD%EB%82%A8%EB%8F%84-%EC%98%88%EC%82%B0%EA%B5%B0-%EC%98%88%EC%82%B0%EC%9D%8D/", "workingTime": ["-", "08:30~18:30", "08:30~18:30", "08:30~18:30", "08:30~18:30", "08:30~18:30", "08:30~14:00", "-"]}, {"name": "\uac74\uac15\ubc31\uc138\uc57d\uad6d", "lat": "36.679630992053156", "lng": "126.8514584552181", "url": "/info/%EA%B1%B4%EA%B0%95%EB%B0%B1%EC%84%B8%EC%95%BD%EA%B5%AD-%EC%B6%A9%EC%B2%AD%EB%82%A8%EB%8F%84-%EC%98%88%EC%82%B0%EA%B5%B0-%EC%98%88%EC%82%B0%EC%9D%8D/", "workingTime": ["-", "08:00~20:00", "08:00~20:00", "08:00~20:00", "08:00~20:00", "08:00~20:00", "08:00~16:00", "-"]}, {"name": "\ub354\ub9d1\uc740\uc57d\uad6d", "lat": "36.6783945859347", "lng": "126.834274886595", "url": "/info/%EB%8D%94%EB%A7%91%EC%9D%80%EC%95%BD%EA%B5%AD-%EC%B6%A9%EC%B2%AD%EB%82%A8%EB%8F%84-%EC%98%88%EC%82%B0%EA%B5%B0-%EC%98%88%EC%82%B0%EC%9D%8D/", "workingTime": ["-", "00:00~00:01", "-", "-", "-", "-", "-", "-"]}]