[{"name": "\ube44\ud0c0\uc57d\uad6d", "lat": "36.6171979862162", "lng": "127.517762472115", "url": "/info/%EB%B9%84%ED%83%80%EC%95%BD%EA%B5%AD-%EC%B6%A9%EC%B2%AD%EB%B6%81%EB%8F%84-%EC%B2%AD%EC%A3%BC%EC%8B%9C-%EC%9A%A9%EC%95%94%EB%8F%99/", "workingTime": ["-", "08:30~19:00", "08:30~19:00", "08:30~19:00", "08:30~19:00", "08:30~19:00", "09:00~15:00", "-"]}, {"name": "\ub3d9\ub0a8\uc2dc\ud2f0\uc57d\uad6d", "lat": "36.6187078526656", "lng": "127.516698287744", "url": "/info/%EB%8F%99%EB%82%A8%EC%8B%9C%ED%8B%B0%EC%95%BD%EA%B5%AD-%EC%B6%A9%EC%B2%AD%EB%B6%81%EB%8F%84-%EC%B2%AD%EC%A3%BC%EC%8B%9C-%EC%9A%A9%EC%95%94%EB%8F%99/", "workingTime": ["-", "09:00~21:00", "09:00~21:00", "09:00~21:00", "09:00~21:00", "09:00~21:00", "09:00~21:00", "-"]}, {"name": "\uc774\uc6b0\uc9c4\uc57d\uad6d", "lat": "36.60994062786282", "lng": "127.51172161925837", "url": "/info/%EC%9D%B4%EC%9A%B0%EC%A7%84%EC%95%BD%EA%B5%AD-%EC%B6%A9%EC%B2%AD%EB%B6%81%EB%8F%84-%EC%B2%AD%EC%A3%BC%EC%8B%9C-%EC%9A%A9%EC%95%94%EB%8F%99/", "workingTime": ["-", "09:00~18:30", "09:00~18:30", "09:00~18:30", "09:00~18:30", "09:00~18:30", "09:00~13:00", "-"]}, {"name": "\ud30c\ub780\uc57d\uad6d", "lat": "36.60901042143489", "lng": "127.51009254757824", "url": "/info/%ED%8C%8C%EB%9E%80%EC%95%BD%EA%B5%AD-%EC%B6%A9%EC%B2%AD%EB%B6%81%EB%8F%84-%EC%B2%AD%EC%A3%BC%EC%8B%9C-%EC%9A%A9%EC%95%94%EB%8F%99/", "workingTime": ["-", "08:00~19:00", "08:00~19:00", "08:00~19:00", "08:00~19:00", "08:00~19:00", "08:00~13:00", "08:00~13:00"]}, {"name": "\uc635\ud2f0\ub9c8\uccad\uc8fc\uc81c\uc77c\uc57d\uad6d", "lat": "36.60984783959221", "lng": "127.5046682010472", "url": "/info/%EC%98%B5%ED%8B%B0%EB%A7%88%EC%B2%AD%EC%A3%BC%EC%A0%9C%EC%9D%BC%EC%95%BD%EA%B5%AD-%EC%B6%A9%EC%B2%AD%EB%B6%81%EB%8F%84-%EC%B2%AD%EC%A3%BC%EC%8B%9C-%EC%9A%A9%EC%95%94%EB%8F%99/", "workingTime": ["1,2,3,4,5\uc9f8\uc8fc09:00~23:00", "08:30~23:00", "08:30~23:00", "08:30~23:00", "08:30~23:00", "08:30~23:00", "08:30~23:00", "09:00~23:00"]}, {"name": "\uc6a9\uc554\uc57d\uad6d", "lat": "36.60866709311133", "lng": "127.50521253915157", "url": "/info/%EC%9A%A9%EC%95%94%EC%95%BD%EA%B5%AD-%EC%B6%A9%EC%B2%AD%EB%B6%81%EB%8F%84-%EC%B2%AD%EC%A3%BC%EC%8B%9C-%EC%9A%A9%EC%95%94%EB%8F%99/", "workingTime": ["-", "09:00~18:30", "09:00~18:30", "09:00~18:30", "09:00~18:30", "09:00~18:30", "09:00~14:00", "-"]}, {"name": "\uc0c8\uc0dd\uba85\uc57d\uad6d", "lat": "36.62194787420506", "lng": "127.51492196027677", "url": "/info/%EC%83%88%EC%83%9D%EB%AA%85%EC%95%BD%EA%B5%AD-%EC%B6%A9%EC%B2%AD%EB%B6%81%EB%8F%84-%EC%B2%AD%EC%A3%BC%EC%8B%9C-%EC%9A%A9%EC%95%94%EB%8F%99/", "workingTime": ["-", "09:30~18:00", "09:30~18:00", "09:30~18:00", "09:30~18:00", "09:30~18:00", "09:30~16:00", "09:30~13:00"]}, {"name": "\uadf8\ub9b0\uc628\ub204\ub9ac\uc57d\uad6d", "lat": "36.6156086573797", "lng": "127.519110124259", "url": "/info/%EA%B7%B8%EB%A6%B0%EC%98%A8%EB%88%84%EB%A6%AC%EC%95%BD%EA%B5%AD-%EC%B6%A9%EC%B2%AD%EB%B6%81%EB%8F%84-%EC%B2%AD%EC%A3%BC%EC%8B%9C-%EC%9A%A9%EC%95%94%EB%8F%99/", "workingTime": ["-", "08:40~21:00", "08:40~21:00", "08:40~21:00", "08:40~21:00", "08:40~21:00", "08:40~18:00", "-"]}, {"name": "\uc77c\ub4f1\uc57d\uad6d", "lat": "36.6166363294552", "lng": "127.518193782998", "url": "/info/%EC%9D%BC%EB%93%B1%EC%95%BD%EA%B5%AD-%EC%B6%A9%EC%B2%AD%EB%B6%81%EB%8F%84-%EC%B2%AD%EC%A3%BC%EC%8B%9C-%EC%9A%A9%EC%95%94%EB%8F%99/", "workingTime": ["-", "08:30~20:00", "08:30~20:00", "08:30~20:00", "08:30~20:00", "08:30~20:00", "08:30~14:00", "-"]}, {"name": "\uac74\uac15\ub098\ub77c\uc57d\uad6d", "lat": "36.62082431910044", "lng": "127.51544930587558", "url": "/info/%EA%B1%B4%EA%B0%95%EB%82%98%EB%9D%BC%EC%95%BD%EA%B5%AD-%EC%B6%A9%EC%B2%AD%EB%B6%81%EB%8F%84-%EC%B2%AD%EC%A3%BC%EC%8B%9C-%EC%9A%A9%EC%95%94%EB%8F%99/", "workingTime": ["1,2,3,4,5\uc9f8\uc8fc09:00~22:00", "08:30~22:00", "08:30~22:00", "08:30~22:00", "08:30~22:00", "08:30~22:00", "08:30~22:00", "09:00~22:00"]}, {"name": "\uac00\uc628\uc57d\uad6d", "lat": "36.6074278009", "lng": "127.5083945269", "url": "/info/%EA%B0%80%EC%98%A8%EC%95%BD%EA%B5%AD-%EC%B6%A9%EC%B2%AD%EB%B6%81%EB%8F%84-%EC%B2%AD%EC%A3%BC%EC%8B%9C-%EC%9A%A9%EC%95%94%EB%8F%99/", "workingTime": ["-", "09:00~20:00", "09:00~20:00", "09:00~20:00", "09:00~20:00", "09:00~20:00", "09:00~13:30", "-"]}, {"name": "\uc120\uc7ac\uc57d\uad6d", "lat": "36.6421133187508", "lng": "127.428064917918", "url": "/info/%EC%84%A0%EC%9E%AC%EC%95%BD%EA%B5%AD-%EC%B6%A9%EC%B2%AD%EB%B6%81%EB%8F%84-%EC%B2%AD%EC%A3%BC%EC%8B%9C-%EC%9A%A9%EC%95%94%EB%8F%99/", "workingTime": ["-", "09:00~18:00", "09:00~18:00", "09:00~18:00", "09:00~18:00", "09:00~18:00", "09:00~12:00", "-"]}, {"name": "\ud798\ucc2c\uc57d\uad6d", "lat": "36.609579275", "lng": "127.5051045894", "url": "/info/%ED%9E%98%EC%B0%AC%EC%95%BD%EA%B5%AD-%EC%B6%A9%EC%B2%AD%EB%B6%81%EB%8F%84-%EC%B2%AD%EC%A3%BC%EC%8B%9C-%EC%9A%A9%EC%95%94%EB%8F%99/", "workingTime": ["-", "08:30~19:00", "08:30~19:00", "08:30~19:00", "08:30~19:00", "08:30~19:00", "08:30~15:00", "09:00~13:00"]}, {"name": "\uc6b0\ub9ac\ub4e4\uc57d\uad6d", "lat": "36.61046493387677", "lng": "127.50369514644674", "url": "/info/%EC%9A%B0%EB%A6%AC%EB%93%A4%EC%95%BD%EA%B5%AD-%EC%B6%A9%EC%B2%AD%EB%B6%81%EB%8F%84-%EC%B2%AD%EC%A3%BC%EC%8B%9C-%EC%9A%A9%EC%95%94%EB%8F%99/", "workingTime": ["1,2,3,4,5\uc9f8\uc8fc09:00~21:00", "09:00~21:00", "09:00~21:00", "09:00~21:00", "09:00~21:00", "09:00~21:00", "09:00~21:00", "09:00~21:00"]}, {"name": "\uc6a9\uc554\uc5d8\uc9c0\uc57d\uad6d", "lat": "36.62047414066737", "lng": "127.51474045958052", "url": "/info/%EC%9A%A9%EC%95%94%EC%97%98%EC%A7%80%EC%95%BD%EA%B5%AD-%EC%B6%A9%EC%B2%AD%EB%B6%81%EB%8F%84-%EC%B2%AD%EC%A3%BC%EC%8B%9C-%EC%9A%A9%EC%95%94%EB%8F%99/", "workingTime": ["-", "09:00~18:00", "09:00~18:00", "09:00~18:00", "09:00~13:00", "09:00~18:00", "09:00~13:00", "-"]}, {"name": "\uba54\ub514\uceec\ud31c\uc57d\uad6d", "lat": "36.620287290539395", "lng": "127.51460506925063", "url": "/info/%EB%A9%94%EB%94%94%EC%BB%AC%ED%8C%9C%EC%95%BD%EA%B5%AD-%EC%B6%A9%EC%B2%AD%EB%B6%81%EB%8F%84-%EC%B2%AD%EC%A3%BC%EC%8B%9C-%EC%9A%A9%EC%95%94%EB%8F%99/", "workingTime": ["-", "09:00~19:00", "09:00~19:00", "09:00~19:00", "09:00~19:00", "09:00~19:00", "09:00~14:00", "-"]}, {"name": "\uac74\uac15\uc81c\uc77c\uc57d\uad6d", "lat": "36.61053907453066", "lng": "127.50320828695058", "url": "/info/%EA%B1%B4%EA%B0%95%EC%A0%9C%EC%9D%BC%EC%95%BD%EA%B5%AD-%EC%B6%A9%EC%B2%AD%EB%B6%81%EB%8F%84-%EC%B2%AD%EC%A3%BC%EC%8B%9C-%EC%9A%A9%EC%95%94%EB%8F%99/", "workingTime": ["-", "09:00~18:00", "09:00~18:00", "09:00~18:00", "09:00~18:00", "09:00~18:00", "09:00~14:00", "-"]}, {"name": "\uac00\ub78c\uc57d\uad6d", "lat": "36.610638966084814", "lng": "127.50341026632888", "url": "/info/%EA%B0%80%EB%9E%8C%EC%95%BD%EA%B5%AD-%EC%B6%A9%EC%B2%AD%EB%B6%81%EB%8F%84-%EC%B2%AD%EC%A3%BC%EC%8B%9C-%EC%9A%A9%EC%95%94%EB%8F%99/", "workingTime": ["-", "09:00~19:30", "09:00~19:30", "09:00~19:30", "09:00~19:30", "09:00~19:30", "09:00~14:00", "-"]}, {"name": "\uc18c\ub77c\uc57d\uad6d", "lat": "36.61269487539533", "lng": "127.51078294045962", "url": "/info/%EC%86%8C%EB%9D%BC%EC%95%BD%EA%B5%AD-%EC%B6%A9%EC%B2%AD%EB%B6%81%EB%8F%84-%EC%B2%AD%EC%A3%BC%EC%8B%9C-%EC%9A%A9%EC%95%94%EB%8F%99/", "workingTime": ["-", "08:30~18:30", "08:30~18:30", "08:30~18:30", "08:30~18:30", "08:30~18:30", "08:30~13:00", "-"]}, {"name": "\uc815\ud654\uc57d\uad6d", "lat": "36.616973292613075", "lng": "127.50991041871481", "url": "/info/%EC%A0%95%ED%99%94%EC%95%BD%EA%B5%AD-%EC%B6%A9%EC%B2%AD%EB%B6%81%EB%8F%84-%EC%B2%AD%EC%A3%BC%EC%8B%9C-%EC%9A%A9%EC%95%94%EB%8F%99/", "workingTime": ["-", "09:00~19:00", "09:00~19:00", "09:00~19:00", "09:00~19:00", "09:00~19:00", "09:00~15:30", "-"]}, {"name": "\uba54\ub514\ud31c\ud070\uc0ac\ub791\uc57d\uad6d", "lat": "36.61002932948268", "lng": "127.50437427824637", "url": "/info/%EB%A9%94%EB%94%94%ED%8C%9C%ED%81%B0%EC%82%AC%EB%9E%91%EC%95%BD%EA%B5%AD-%EC%B6%A9%EC%B2%AD%EB%B6%81%EB%8F%84-%EC%B2%AD%EC%A3%BC%EC%8B%9C-%EC%9A%A9%EC%95%94%EB%8F%99/", "workingTime": ["1,2,3,4,5\uc9f8\uc8fc22:00~25:00", "22:00~25:00", "22:00~25:00", "22:00~25:00", "22:00~25:00", "22:00~25:00", "22:00~25:00", "22:00~25:00"]}, {"name": "\ud589\ubcf5\ud55c\uc57d\uad6d", "lat": "36.617295757", "lng": "127.5103686097", "url": "/info/%ED%96%89%EB%B3%B5%ED%95%9C%EC%95%BD%EA%B5%AD-%EC%B6%A9%EC%B2%AD%EB%B6%81%EB%8F%84-%EC%B2%AD%EC%A3%BC%EC%8B%9C-%EC%9A%A9%EC%95%94%EB%8F%99/", "workingTime": ["-", "10:00~18:00", "10:00~18:00", "10:00~18:00", "10:00~18:00", "10:00~18:00", "10:00~15:00", "-"]}, {"name": "\ud2bc\ud2bc\ud55c\uc57d\uad6d", "lat": "36.6147889684", "lng": "127.5082237557", "url": "/info/%ED%8A%BC%ED%8A%BC%ED%95%9C%EC%95%BD%EA%B5%AD-%EC%B6%A9%EC%B2%AD%EB%B6%81%EB%8F%84-%EC%B2%AD%EC%A3%BC%EC%8B%9C-%EC%9A%A9%EC%95%94%EB%8F%99/", "workingTime": ["-", "10:00~21:00", "10:00~21:00", "10:00~21:00", "10:00~21:00", "10:00~21:00", "10:00~19:00", "-"]}, {"name": "\ub530\ub73b\ud55c\uc57d\uad6d", "lat": "36.6204146139246", "lng": "127.516131833982", "url": "/info/%EB%94%B0%EB%9C%BB%ED%95%9C%EC%95%BD%EA%B5%AD-%EC%B6%A9%EC%B2%AD%EB%B6%81%EB%8F%84-%EC%B2%AD%EC%A3%BC%EC%8B%9C-%EC%9A%A9%EC%95%94%EB%8F%99/", "workingTime": ["1,3,5\uc9f8\uc8fc10:00~21:00", "10:00~21:00", "10:00~21:00", "10:00~21:00", "10:00~21:00", "10:00~21:00", "10:00~21:00", "10:00~21:00"]}]