[{"name": "\uad11\uc7ac\uc57d\uad6d", "lat": "36.93362526930888", "lng": "127.68925560484982", "url": "/info/%EA%B4%91%EC%9E%AC%EC%95%BD%EA%B5%AD-%EC%B6%A9%EC%B2%AD%EB%B6%81%EB%8F%84-%EC%9D%8C%EC%84%B1%EA%B5%B0-%EC%9D%8C%EC%84%B1%EC%9D%8D/", "workingTime": ["-", "08:00~19:30", "08:00~19:30", "08:00~19:30", "08:00~19:30", "08:00~19:30", "08:00~16:00", "-"]}, {"name": "\ubbf8\ub9ac\uc57d\uad6d", "lat": "36.93621015016327", "lng": "127.68914862307608", "url": "/info/%EB%AF%B8%EB%A6%AC%EC%95%BD%EA%B5%AD-%EC%B6%A9%EC%B2%AD%EB%B6%81%EB%8F%84-%EC%9D%8C%EC%84%B1%EA%B5%B0-%EC%9D%8C%EC%84%B1%EC%9D%8D/", "workingTime": ["-", "08:30~19:30", "08:30~19:30", "08:30~19:30", "08:30~19:30", "08:30~19:30", "08:30~15:30", "-"]}, {"name": "\ubc18\uc57d\uad6d", "lat": "36.9342841460373", "lng": "127.689330068222", "url": "/info/%EB%B0%98%EC%95%BD%EA%B5%AD-%EC%B6%A9%EC%B2%AD%EB%B6%81%EB%8F%84-%EC%9D%8C%EC%84%B1%EA%B5%B0-%EC%9D%8C%EC%84%B1%EC%9D%8D/", "workingTime": ["-", "08:30~19:00", "08:30~19:00", "08:30~19:00", "08:30~19:00", "08:30~19:00", "08:30~14:00", "-"]}, {"name": "\uc138\uacc4\ub85c\uc628\ub204\ub9ac\uc57d\uad6d", "lat": "36.934944444444447", "lng": "127.693411111111118", "url": "/info/%EC%84%B8%EA%B3%84%EB%A1%9C%EC%98%A8%EB%88%84%EB%A6%AC%EC%95%BD%EA%B5%AD-%EC%B6%A9%EC%B2%AD%EB%B6%81%EB%8F%84-%EC%9D%8C%EC%84%B1%EA%B5%B0-%EC%9D%8C%EC%84%B1%EC%9D%8D/", "workingTime": ["-", "09:00~19:00", "09:00~19:00", "09:00~19:00", "09:00~19:00", "09:00~19:00", "09:00~14:00", "-"]}, {"name": "\uc74c\uc131\uc11c\uc6b8\uc57d\uad6d", "lat": "36.935252499494865", "lng": "127.69330661358083", "url": "/info/%EC%9D%8C%EC%84%B1%EC%84%9C%EC%9A%B8%EC%95%BD%EA%B5%AD-%EC%B6%A9%EC%B2%AD%EB%B6%81%EB%8F%84-%EC%9D%8C%EC%84%B1%EA%B5%B0-%EC%9D%8C%EC%84%B1%EC%9D%8D/", "workingTime": ["1,2,3,4,5\uc9f8\uc8fc09:00~19:00", "09:00~20:30", "09:00~20:30", "09:00~20:30", "09:00~20:30", "09:00~20:30", "09:00~19:00", "09:00~19:00"]}, {"name": "\uc74c\uc131\uc57d\uad6d", "lat": "36.93481435091424", "lng": "127.6929850892847", "url": "/info/%EC%9D%8C%EC%84%B1%EC%95%BD%EA%B5%AD-%EC%B6%A9%EC%B2%AD%EB%B6%81%EB%8F%84-%EC%9D%8C%EC%84%B1%EA%B5%B0-%EC%9D%8C%EC%84%B1%EC%9D%8D/", "workingTime": ["-", "08:30~20:00", "08:30~20:00", "08:30~20:00", "08:30~20:00", "08:30~20:00", "08:30~17:00", "09:00~15:00"]}, {"name": "\ud558\ub298\uc57d\uad6d", "lat": "36.9325014058", "lng": "127.6940461751", "url": "/info/%ED%95%98%EB%8A%98%EC%95%BD%EA%B5%AD-%EC%B6%A9%EC%B2%AD%EB%B6%81%EB%8F%84-%EC%9D%8C%EC%84%B1%EA%B5%B0-%EC%9D%8C%EC%84%B1%EC%9D%8D/", "workingTime": ["-", "09:00~19:00", "09:00~19:00", "09:00~13:00", "09:00~19:00", "09:00~19:00", "09:00~13:00", "-"]}, {"name": "\ud589\ubcf5\ud55c\uc57d\uad6d", "lat": "36.9349062147829", "lng": "127.68896301093804", "url": "/info/%ED%96%89%EB%B3%B5%ED%95%9C%EC%95%BD%EA%B5%AD-%EC%B6%A9%EC%B2%AD%EB%B6%81%EB%8F%84-%EC%9D%8C%EC%84%B1%EA%B5%B0-%EC%9D%8C%EC%84%B1%EC%9D%8D/", "workingTime": ["-", "08:30~18:30", "08:30~18:30", "08:30~18:30", "08:30~18:30", "08:30~18:30", "08:30~13:00", "-"]}, {"name": "\uc815\ubb38\uc57d\uad6d", "lat": "36.9343921161139", "lng": "127.689794934743", "url": "/info/%EC%A0%95%EB%AC%B8%EC%95%BD%EA%B5%AD-%EC%B6%A9%EC%B2%AD%EB%B6%81%EB%8F%84-%EC%9D%8C%EC%84%B1%EA%B5%B0-%EC%9D%8C%EC%84%B1%EC%9D%8D/", "workingTime": ["-", "08:30~19:30", "08:30~19:30", "08:30~19:30", "08:30~19:30", "08:30~19:30", "-", "-"]}]