[{"name": "\ud76c\ub9dd\ucc2c\uc57d\uad6d", "lat": "36.07580887645492", "lng": "126.6898314262472", "url": "/info/%ED%9D%AC%EB%A7%9D%EC%B0%AC%EC%95%BD%EA%B5%AD-%EC%B6%A9%EC%B2%AD%EB%82%A8%EB%8F%84-%EC%84%9C%EC%B2%9C%EA%B5%B0-%EC%84%9C%EC%B2%9C%EC%9D%8D/", "workingTime": ["-", "08:10~17:30", "08:10~17:30", "08:10~17:30", "08:10~17:30", "08:10~17:30", "08:10~12:30", "-"]}, {"name": "\uc11c\uc6b8\uc57d\uad6d", "lat": "36.077779413743365", "lng": "126.68932629462806", "url": "/info/%EC%84%9C%EC%9A%B8%EC%95%BD%EA%B5%AD-%EC%B6%A9%EC%B2%AD%EB%82%A8%EB%8F%84-%EC%84%9C%EC%B2%9C%EA%B5%B0-%EC%84%9C%EC%B2%9C%EC%9D%8D/", "workingTime": ["-", "08:10~18:30", "08:10~18:30", "08:10~18:30", "08:10~18:30", "08:10~18:30", "08:30~14:00", "-"]}, {"name": "\uc11c\ucc9c\uc6b0\ub9ac\uc57d\uad6d", "lat": "36.07575478954494", "lng": "126.68706516087843", "url": "/info/%EC%84%9C%EC%B2%9C%EC%9A%B0%EB%A6%AC%EC%95%BD%EA%B5%AD-%EC%B6%A9%EC%B2%AD%EB%82%A8%EB%8F%84-%EC%84%9C%EC%B2%9C%EA%B5%B0-%EC%84%9C%EC%B2%9C%EC%9D%8D/", "workingTime": ["-", "08:00~18:00", "08:00~18:00", "08:00~18:00", "08:00~18:00", "08:00~18:00", "08:00~13:00", "-"]}, {"name": "\uc2dc\uc7a5\uc885\ub85c\uc57d\uad6d", "lat": "36.07538208114071", "lng": "126.68829661648843", "url": "/info/%EC%8B%9C%EC%9E%A5%EC%A2%85%EB%A1%9C%EC%95%BD%EA%B5%AD-%EC%B6%A9%EC%B2%AD%EB%82%A8%EB%8F%84-%EC%84%9C%EC%B2%9C%EA%B5%B0-%EC%84%9C%EC%B2%9C%EC%9D%8D/", "workingTime": ["-", "08:30~18:00", "08:30~18:00", "08:30~18:00", "08:30~18:00", "08:30~18:00", "08:30~12:30", "-"]}, {"name": "\uc11c\ucc9c\uc138\uc548\uc57d\uad6d", "lat": "36.0827583389", "lng": "126.687170559", "url": "/info/%EC%84%9C%EC%B2%9C%EC%84%B8%EC%95%88%EC%95%BD%EA%B5%AD-%EC%B6%A9%EC%B2%AD%EB%82%A8%EB%8F%84-%EC%84%9C%EC%B2%9C%EA%B5%B0-%EC%84%9C%EC%B2%9C%EC%9D%8D/", "workingTime": ["1,2,3,4,5\uc9f8\uc8fc10:00~20:00", "08:30~21:00", "08:30~21:00", "08:30~21:00", "08:30~21:00", "08:30~21:00", "08:30~21:00", "10:00~20:00"]}, {"name": "\ud574\ub9d1\uc740\uc57d\uad6d", "lat": "36.075589836826104", "lng": "126.69016089231829", "url": "/info/%ED%95%B4%EB%A7%91%EC%9D%80%EC%95%BD%EA%B5%AD-%EC%B6%A9%EC%B2%AD%EB%82%A8%EB%8F%84-%EC%84%9C%EC%B2%9C%EA%B5%B0-%EC%84%9C%EC%B2%9C%EC%9D%8D/", "workingTime": ["-", "08:00~18:00", "08:00~18:00", "08:00~18:00", "08:00~18:00", "08:00~18:00", "08:00~12:00", "-"]}, {"name": "\ud0dc\uc0b0\uc57d\uad6d", "lat": "36.07566065583077", "lng": "126.68729638195717", "url": "/info/%ED%83%9C%EC%82%B0%EC%95%BD%EA%B5%AD-%EC%B6%A9%EC%B2%AD%EB%82%A8%EB%8F%84-%EC%84%9C%EC%B2%9C%EA%B5%B0-%EC%84%9C%EC%B2%9C%EC%9D%8D/", "workingTime": ["-", "08:00~18:00", "08:00~19:00", "08:00~18:00", "08:00~18:00", "08:00~19:00", "08:00~14:00", "-"]}, {"name": "\ub298\ud478\ub978\uc57d\uad6d", "lat": "36.07588502761712", "lng": "126.69000430857292", "url": "/info/%EB%8A%98%ED%91%B8%EB%A5%B8%EC%95%BD%EA%B5%AD-%EC%B6%A9%EC%B2%AD%EB%82%A8%EB%8F%84-%EC%84%9C%EC%B2%9C%EA%B5%B0-%EC%84%9C%EC%B2%9C%EC%9D%8D/", "workingTime": ["-", "09:00~18:00", "09:00~18:00", "09:00~18:00", "09:00~18:00", "09:00~18:00", "09:00~13:00", "-"]}, {"name": "\ub354\uc870\uc740\uc57d\uad6d", "lat": "36.08410496937099", "lng": "126.6879513116397", "url": "/info/%EB%8D%94%EC%A1%B0%EC%9D%80%EC%95%BD%EA%B5%AD-%EC%B6%A9%EC%B2%AD%EB%82%A8%EB%8F%84-%EC%84%9C%EC%B2%9C%EA%B5%B0-%EC%84%9C%EC%B2%9C%EC%9D%8D/", "workingTime": ["-", "08:00~18:30", "08:00~18:30", "08:00~18:30", "08:00~18:30", "08:00~18:30", "08:00~15:00", "08:00~15:00"]}, {"name": "\uc11c\ucc9c\ub4dc\ub9bc\uc57d\uad6d", "lat": "36.076475635432", "lng": "126.687256947081", "url": "/info/%EC%84%9C%EC%B2%9C%EB%93%9C%EB%A6%BC%EC%95%BD%EA%B5%AD-%EC%B6%A9%EC%B2%AD%EB%82%A8%EB%8F%84-%EC%84%9C%EC%B2%9C%EA%B5%B0-%EC%84%9C%EC%B2%9C%EC%9D%8D/", "workingTime": ["-", "08:00~18:00", "08:00~18:00", "08:00~18:00", "08:00~18:00", "08:00~18:00", "08:00~13:00", "-"]}, {"name": "\uc0ac\ub791\uc57d\uad6d", "lat": "36.085306468", "lng": "126.6855971815", "url": "/info/%EC%82%AC%EB%9E%91%EC%95%BD%EA%B5%AD-%EC%B6%A9%EC%B2%AD%EB%82%A8%EB%8F%84-%EC%84%9C%EC%B2%9C%EA%B5%B0-%EC%84%9C%EC%B2%9C%EC%9D%8D/", "workingTime": ["-", "08:30~18:10", "08:30~18:10", "08:30~18:10", "08:30~18:10", "08:30~18:10", "08:30~13:50", "-"]}, {"name": "\ub2e4\ub098\uc57d\uad6d", "lat": "36.0763203323529", "lng": "126.68966510598457", "url": "/info/%EB%8B%A4%EB%82%98%EC%95%BD%EA%B5%AD-%EC%B6%A9%EC%B2%AD%EB%82%A8%EB%8F%84-%EC%84%9C%EC%B2%9C%EA%B5%B0-%EC%84%9C%EC%B2%9C%EC%9D%8D/", "workingTime": ["-", "08:20~18:20", "08:20~18:20", "08:20~18:20", "08:20~18:20", "08:20~18:20", "08:20~13:00", "-"]}, {"name": "\ud558\ub098\uc57d\uad6d", "lat": "36.07559483342527", "lng": "126.68831352218612", "url": "/info/%ED%95%98%EB%82%98%EC%95%BD%EA%B5%AD-%EC%B6%A9%EC%B2%AD%EB%82%A8%EB%8F%84-%EC%84%9C%EC%B2%9C%EA%B5%B0-%EC%84%9C%EC%B2%9C%EC%9D%8D/", "workingTime": ["-", "08:15~18:00", "08:15~18:00", "08:15~18:00", "08:15~18:00", "08:15~18:00", "08:15~13:30", "-"]}, {"name": "\uc2dc\uc7a5\uc57d\uad6d", "lat": "36.0749784872", "lng": "126.6883470382", "url": "/info/%EC%8B%9C%EC%9E%A5%EC%95%BD%EA%B5%AD-%EC%B6%A9%EC%B2%AD%EB%82%A8%EB%8F%84-%EC%84%9C%EC%B2%9C%EA%B5%B0-%EC%84%9C%EC%B2%9C%EC%9D%8D/", "workingTime": ["-", "08:00~18:00", "08:00~18:00", "08:00~18:00", "08:00~18:00", "08:00~18:00", "08:00~14:00", "-"]}, {"name": "\uc11c\ucc9c\uc138\uacc4\ub85c\uc57d\uad6d", "lat": "36.07773661845702", "lng": "126.68950409124113", "url": "/info/%EC%84%9C%EC%B2%9C%EC%84%B8%EA%B3%84%EB%A1%9C%EC%95%BD%EA%B5%AD-%EC%B6%A9%EC%B2%AD%EB%82%A8%EB%8F%84-%EC%84%9C%EC%B2%9C%EA%B5%B0-%EC%84%9C%EC%B2%9C%EC%9D%8D/", "workingTime": ["-", "08:00~19:00", "08:00~19:00", "08:00~19:00", "08:00~19:00", "08:00~19:00", "08:00~13:00", "-"]}]