[{"name": "\ubc14\ub2e4\uc57d\uad6d", "lat": "36.9812554774431", "lng": "128.351006732055", "url": "/info/%EB%B0%94%EB%8B%A4%EC%95%BD%EA%B5%AD-%EC%B6%A9%EC%B2%AD%EB%B6%81%EB%8F%84-%EB%8B%A8%EC%96%91%EA%B5%B0-%EB%8B%A8%EC%96%91%EC%9D%8D/", "workingTime": ["-", "09:00~19:00", "09:00~19:00", "09:00~19:00", "09:00~19:00", "09:00~19:00", "09:00~17:00", "-"]}, {"name": "\uc5ec\uba85\uc57d\uad6d", "lat": "36.9833094928", "lng": "128.3696419439", "url": "/info/%EC%97%AC%EB%AA%85%EC%95%BD%EA%B5%AD-%EC%B6%A9%EC%B2%AD%EB%B6%81%EB%8F%84-%EB%8B%A8%EC%96%91%EA%B5%B0-%EB%8B%A8%EC%96%91%EC%9D%8D/", "workingTime": ["1,3,5\uc9f8\uc8fc08:30~18:30", "08:30~18:30", "08:30~18:30", "08:30~18:30", "08:30~18:30", "08:30~18:30", "08:30~18:30", "08:30~18:30"]}, {"name": "\uc2dc\uc7a5\uc57d\uad6d", "lat": "36.982319444444443", "lng": "128.369211111111099", "url": "/info/%EC%8B%9C%EC%9E%A5%EC%95%BD%EA%B5%AD-%EC%B6%A9%EC%B2%AD%EB%B6%81%EB%8F%84-%EB%8B%A8%EC%96%91%EA%B5%B0-%EB%8B%A8%EC%96%91%EC%9D%8D/", "workingTime": ["2\uc9f8\uc8fc09:00~21:00", "08:30~21:00", "08:30~21:00", "08:30~21:00", "08:30~21:00", "08:30~21:00", "08:30~15:00", "09:00~15:00"]}, {"name": "\uac15\uc57d\uad6d", "lat": "36.985330555555556", "lng": "128.369513888888889", "url": "/info/%EA%B0%95%EC%95%BD%EA%B5%AD-%EC%B6%A9%EC%B2%AD%EB%B6%81%EB%8F%84-%EB%8B%A8%EC%96%91%EA%B5%B0-%EB%8B%A8%EC%96%91%EC%9D%8D/", "workingTime": ["-", "09:00~20:00", "09:00~20:00", "09:00~20:00", "09:00~20:00", "09:00~20:00", "09:00~20:00", "-"]}, {"name": "\ud558\ub098\ub85c\uc57d\uad6d", "lat": "36.98357168620757", "lng": "128.36892529780232", "url": "/info/%ED%95%98%EB%82%98%EB%A1%9C%EC%95%BD%EA%B5%AD-%EC%B6%A9%EC%B2%AD%EB%B6%81%EB%8F%84-%EB%8B%A8%EC%96%91%EA%B5%B0-%EB%8B%A8%EC%96%91%EC%9D%8D/", "workingTime": ["4\uc9f8\uc8fc09:00~20:00", "09:00~20:00", "09:00~20:00", "09:00~20:00", "09:00~20:00", "09:00~20:00", "09:00~20:00", "09:00~20:00"]}, {"name": "\uc774\uc57d\uad6d", "lat": "36.984941666666664", "lng": "128.369561111111125", "url": "/info/%EC%9D%B4%EC%95%BD%EA%B5%AD-%EC%B6%A9%EC%B2%AD%EB%B6%81%EB%8F%84-%EB%8B%A8%EC%96%91%EA%B5%B0-%EB%8B%A8%EC%96%91%EC%9D%8D/", "workingTime": ["-", "08:30~18:00", "08:30~18:00", "08:30~18:00", "08:30~18:00", "08:30~18:00", "08:30~13:00", "-"]}]