[{"name": "\uc218\uc57d\uad6d", "lat": "36.808554321190066", "lng": "126.77635884948285", "url": "/info/%EC%88%98%EC%95%BD%EA%B5%AD-%EC%B6%A9%EC%B2%AD%EB%82%A8%EB%8F%84-%EB%8B%B9%EC%A7%84%EC%8B%9C-%ED%95%A9%EB%8D%95%EC%9D%8D/", "workingTime": ["-", "08:30~18:30", "08:30~18:30", "08:30~18:30", "08:30~18:30", "08:30~18:30", "08:30~13:30", "-"]}, {"name": "\uba54\ub514\ud31c\ubc84\uadf8\ub0b4\uc57d\uad6d", "lat": "36.80765560549454", "lng": "126.77592759933451", "url": "/info/%EB%A9%94%EB%94%94%ED%8C%9C%EB%B2%84%EA%B7%B8%EB%82%B4%EC%95%BD%EA%B5%AD-%EC%B6%A9%EC%B2%AD%EB%82%A8%EB%8F%84-%EB%8B%B9%EC%A7%84%EC%8B%9C-%ED%95%A9%EB%8D%95%EC%9D%8D/", "workingTime": ["-", "08:30~19:30", "08:30~19:30", "08:30~19:30", "08:30~19:30", "08:30~19:30", "08:30~17:00", "08:30~17:00"]}, {"name": "\ud604\ub300\uc57d\uad6d", "lat": "36.80826523510307", "lng": "126.77428522744547", "url": "/info/%ED%98%84%EB%8C%80%EC%95%BD%EA%B5%AD-%EC%B6%A9%EC%B2%AD%EB%82%A8%EB%8F%84-%EB%8B%B9%EC%A7%84%EC%8B%9C-%ED%95%A9%EB%8D%95%EC%9D%8D/", "workingTime": ["1,2,3,4,5\uc9f8\uc8fc09:00~13:00", "08:30~20:30", "08:30~20:30", "08:30~20:30", "08:30~20:30", "08:30~20:30", "08:30~19:00", "08:30~19:00"]}, {"name": "\ud130\ubbf8\ub110\uadf8\ub9b0\uc57d\uad6d", "lat": "36.809844444444444", "lng": "126.774744444444451", "url": "/info/%ED%84%B0%EB%AF%B8%EB%84%90%EA%B7%B8%EB%A6%B0%EC%95%BD%EA%B5%AD-%EC%B6%A9%EC%B2%AD%EB%82%A8%EB%8F%84-%EB%8B%B9%EC%A7%84%EC%8B%9C-%ED%95%A9%EB%8D%95%EC%9D%8D/", "workingTime": ["-", "08:30~18:30", "08:30~18:30", "08:30~18:30", "08:30~18:30", "08:30~18:30", "08:30~13:00", "08:30~13:00"]}, {"name": "\uc57d\uc190\uc57d\uad6d", "lat": "36.80868005548809", "lng": "126.77424272093032", "url": "/info/%EC%95%BD%EC%86%90%EC%95%BD%EA%B5%AD-%EC%B6%A9%EC%B2%AD%EB%82%A8%EB%8F%84-%EB%8B%B9%EC%A7%84%EC%8B%9C-%ED%95%A9%EB%8D%95%EC%9D%8D/", "workingTime": ["1,2,3,4,5\uc9f8\uc8fc08:30~20:30", "08:30~21:00", "08:30~21:00", "08:30~21:00", "08:30~21:00", "08:30~21:00", "08:30~20:00", "08:30~20:00"]}, {"name": "\ud55c\ubcc4\uc57d\uad6d", "lat": "36.809380644005365", "lng": "126.77118801090342", "url": "/info/%ED%95%9C%EB%B3%84%EC%95%BD%EA%B5%AD-%EC%B6%A9%EC%B2%AD%EB%82%A8%EB%8F%84-%EB%8B%B9%EC%A7%84%EC%8B%9C-%ED%95%A9%EB%8D%95%EC%9D%8D/", "workingTime": ["1,2,3,4,5\uc9f8\uc8fc08:30~18:00", "08:30~21:00", "08:30~21:00", "08:30~21:00", "08:30~21:00", "08:30~21:00", "08:30~18:30", "08:30~18:00"]}, {"name": "\ub300\ub9bc\uc57d\uad6d", "lat": "36.80840214040453", "lng": "126.77404631101057", "url": "/info/%EB%8C%80%EB%A6%BC%EC%95%BD%EA%B5%AD-%EC%B6%A9%EC%B2%AD%EB%82%A8%EB%8F%84-%EB%8B%B9%EC%A7%84%EC%8B%9C-%ED%95%A9%EB%8D%95%EC%9D%8D/", "workingTime": ["-", "08:00~21:00", "08:00~21:00", "08:00~21:00", "08:00~21:00", "08:00~21:00", "08:00~20:00", "-"]}]