[{"name": "\ub4dc\ub9bc\uc57d\uad6d", "lat": "36.78325541667683", "lng": "127.00393889182675", "url": "/info/%EB%93%9C%EB%A6%BC%EC%95%BD%EA%B5%AD-%EC%B6%A9%EC%B2%AD%EB%82%A8%EB%8F%84-%EC%95%84%EC%82%B0%EC%8B%9C-%EC%98%A8%EC%B2%9C%EB%8F%99/", "workingTime": ["-", "08:10~19:00", "08:10~19:00", "08:10~18:30", "08:10~19:00", "08:10~19:00", "08:10~13:30", "-"]}, {"name": "\uc2dc\ubbfc\uc57d\uad6d", "lat": "36.7837274804101", "lng": "127.001160389414", "url": "/info/%EC%8B%9C%EB%AF%BC%EC%95%BD%EA%B5%AD-%EC%B6%A9%EC%B2%AD%EB%82%A8%EB%8F%84-%EC%95%84%EC%82%B0%EC%8B%9C-%EC%98%A8%EC%B2%9C%EB%8F%99/", "workingTime": ["1,2,3,4,5\uc9f8\uc8fc08:30~21:00", "08:30~21:00", "08:30~21:00", "08:30~21:00", "08:30~21:00", "08:30~21:00", "08:30~20:00", "08:30~20:00"]}, {"name": "\uc544\uc0b0\uc81c\uc77c\uc57d\uad6d", "lat": "36.7829559773591", "lng": "127.003898322655", "url": "/info/%EC%95%84%EC%82%B0%EC%A0%9C%EC%9D%BC%EC%95%BD%EA%B5%AD-%EC%B6%A9%EC%B2%AD%EB%82%A8%EB%8F%84-%EC%95%84%EC%82%B0%EC%8B%9C-%EC%98%A8%EC%B2%9C%EB%8F%99/", "workingTime": ["-", "08:00~19:00", "08:00~19:00", "08:00~19:00", "08:00~19:00", "08:00~19:00", "08:30~18:00", "-"]}, {"name": "\uc2dc\ubbfc\ub85c\uc0ac\uac70\ub9ac\uc57d\uad6d", "lat": "36.7868977767613", "lng": "127.001704805281", "url": "/info/%EC%8B%9C%EB%AF%BC%EB%A1%9C%EC%82%AC%EA%B1%B0%EB%A6%AC%EC%95%BD%EA%B5%AD-%EC%B6%A9%EC%B2%AD%EB%82%A8%EB%8F%84-%EC%95%84%EC%82%B0%EC%8B%9C-%EC%98%A8%EC%B2%9C%EB%8F%99/", "workingTime": ["-", "08:30~20:00", "08:30~20:00", "08:30~20:00", "08:30~20:00", "08:30~20:00", "08:30~14:00", "-"]}, {"name": "\uc18c\ub9dd\uc57d\uad6d", "lat": "36.78144959890717", "lng": "127.00260348010776", "url": "/info/%EC%86%8C%EB%A7%9D%EC%95%BD%EA%B5%AD-%EC%B6%A9%EC%B2%AD%EB%82%A8%EB%8F%84-%EC%95%84%EC%82%B0%EC%8B%9C-%EC%98%A8%EC%B2%9C%EB%8F%99/", "workingTime": ["-", "09:30~18:30", "09:30~18:30", "09:30~18:30", "09:30~18:30", "09:30~18:30", "09:00~15:00", "-"]}, {"name": "\uc628\uc57d\uad6d", "lat": "36.79272790804203", "lng": "126.99535252144815", "url": "/info/%EC%98%A8%EC%95%BD%EA%B5%AD-%EC%B6%A9%EC%B2%AD%EB%82%A8%EB%8F%84-%EC%95%84%EC%82%B0%EC%8B%9C-%EC%98%A8%EC%B2%9C%EB%8F%99/", "workingTime": ["-", "09:00~20:00", "09:00~20:00", "09:00~20:00", "09:00~20:00", "09:00~20:00", "09:00~14:00", "-"]}, {"name": "\uc544\uc0b0\uc885\ud569\uc57d\uad6d", "lat": "36.78229660208319", "lng": "127.00419428143175", "url": "/info/%EC%95%84%EC%82%B0%EC%A2%85%ED%95%A9%EC%95%BD%EA%B5%AD-%EC%B6%A9%EC%B2%AD%EB%82%A8%EB%8F%84-%EC%95%84%EC%82%B0%EC%8B%9C-%EC%98%A8%EC%B2%9C%EB%8F%99/", "workingTime": ["-", "08:30~19:00", "08:30~19:00", "08:30~19:00", "08:30~19:00", "08:30~19:00", "08:30~14:00", "08:30~13:00"]}, {"name": "\uc138\uacc4\ub85c\uc57d\uad6d", "lat": "36.78631563925352", "lng": "127.00158191202166", "url": "/info/%EC%84%B8%EA%B3%84%EB%A1%9C%EC%95%BD%EA%B5%AD-%EC%B6%A9%EC%B2%AD%EB%82%A8%EB%8F%84-%EC%95%84%EC%82%B0%EC%8B%9C-%EC%98%A8%EC%B2%9C%EB%8F%99/", "workingTime": ["-", "09:00~20:00", "09:00~20:00", "09:00~20:00", "09:00~20:00", "09:00~20:00", "09:00~20:00", "-"]}, {"name": "\uc2e0\ub300\uc9c0\uc57d\uad6d", "lat": "36.78162796338563", "lng": "127.00449447272223", "url": "/info/%EC%8B%A0%EB%8C%80%EC%A7%80%EC%95%BD%EA%B5%AD-%EC%B6%A9%EC%B2%AD%EB%82%A8%EB%8F%84-%EC%95%84%EC%82%B0%EC%8B%9C-%EC%98%A8%EC%B2%9C%EB%8F%99/", "workingTime": ["-", "08:30~18:30", "08:30~18:30", "08:30~18:30", "08:30~18:30", "08:30~18:30", "08:30~13:30", "-"]}, {"name": "\uadf8\ub9b0\uc57d\uad6d", "lat": "36.781543160258735", "lng": "127.0021667077167", "url": "/info/%EA%B7%B8%EB%A6%B0%EC%95%BD%EA%B5%AD-%EC%B6%A9%EC%B2%AD%EB%82%A8%EB%8F%84-%EC%95%84%EC%82%B0%EC%8B%9C-%EC%98%A8%EC%B2%9C%EB%8F%99/", "workingTime": ["1,2,3,4,5\uc9f8\uc8fc10:00~20:00", "08:30~20:00", "08:30~20:00", "08:30~20:00", "08:30~20:00", "08:30~20:00", "08:30~20:00", "10:00~20:00"]}, {"name": "\uc544\uc0b0\uc131\uc2ec\uc57d\uad6d", "lat": "36.78188934409427", "lng": "127.00256764677411", "url": "/info/%EC%95%84%EC%82%B0%EC%84%B1%EC%8B%AC%EC%95%BD%EA%B5%AD-%EC%B6%A9%EC%B2%AD%EB%82%A8%EB%8F%84-%EC%95%84%EC%82%B0%EC%8B%9C-%EC%98%A8%EC%B2%9C%EB%8F%99/", "workingTime": ["-", "09:00~18:30", "09:00~18:30", "09:00~18:30", "09:00~18:30", "09:00~18:30", "09:00~14:00", "-"]}, {"name": "\uc885\ub85c5\uac00\uc57d\uad6d", "lat": "36.781611768940635", "lng": "127.0037551051411", "url": "/info/%EC%A2%85%EB%A1%9C5%EA%B0%80%EC%95%BD%EA%B5%AD-%EC%B6%A9%EC%B2%AD%EB%82%A8%EB%8F%84-%EC%95%84%EC%82%B0%EC%8B%9C-%EC%98%A8%EC%B2%9C%EB%8F%99/", "workingTime": ["1,2,3,4,5\uc9f8\uc8fc09:00~21:00", "09:00~21:00", "09:00~21:00", "09:00~21:00", "09:00~21:00", "09:00~21:00", "09:00~21:00", "09:00~21:00"]}, {"name": "\uc0ac\uac70\ub9ac\uc57d\uad6d", "lat": "36.7822490019224", "lng": "127.00239623989", "url": "/info/%EC%82%AC%EA%B1%B0%EB%A6%AC%EC%95%BD%EA%B5%AD-%EC%B6%A9%EC%B2%AD%EB%82%A8%EB%8F%84-%EC%95%84%EC%82%B0%EC%8B%9C-%EC%98%A8%EC%B2%9C%EB%8F%99/", "workingTime": ["-", "09:00~19:00", "09:00~19:00", "09:00~19:00", "09:00~19:00", "09:00~19:00", "09:00~19:00", "-"]}, {"name": "\uba54\ub514\ud31c\uc57d\uc190\uc57d\uad6d", "lat": "36.78278321980828", "lng": "127.00429735391056", "url": "/info/%EB%A9%94%EB%94%94%ED%8C%9C%EC%95%BD%EC%86%90%EC%95%BD%EA%B5%AD-%EC%B6%A9%EC%B2%AD%EB%82%A8%EB%8F%84-%EC%95%84%EC%82%B0%EC%8B%9C-%EC%98%A8%EC%B2%9C%EB%8F%99/", "workingTime": ["-", "09:00~19:00", "09:00~19:00", "09:00~19:00", "09:00~19:00", "09:00~19:00", "09:00~13:00", "-"]}, {"name": "\ub300\ub3d9\uc57d\uad6d", "lat": "36.78330933502009", "lng": "127.0011943297703", "url": "/info/%EB%8C%80%EB%8F%99%EC%95%BD%EA%B5%AD-%EC%B6%A9%EC%B2%AD%EB%82%A8%EB%8F%84-%EC%95%84%EC%82%B0%EC%8B%9C-%EC%98%A8%EC%B2%9C%EB%8F%99/", "workingTime": ["1,2,3,4,5\uc9f8\uc8fc09:00~22:00", "09:00~22:00", "09:00~22:00", "09:00~22:00", "09:00~22:00", "09:00~22:00", "09:00~22:00", "09:00~22:00"]}, {"name": "\ub2e4\uc0ac\ub791\uc57d\uad6d", "lat": "36.78406980518736", "lng": "127.00545139074504", "url": "/info/%EB%8B%A4%EC%82%AC%EB%9E%91%EC%95%BD%EA%B5%AD-%EC%B6%A9%EC%B2%AD%EB%82%A8%EB%8F%84-%EC%95%84%EC%82%B0%EC%8B%9C-%EC%98%A8%EC%B2%9C%EB%8F%99/", "workingTime": ["-", "09:00~19:30", "09:00~19:30", "09:00~19:30", "09:00~19:30", "09:00~19:30", "09:00~17:30", "09:00~13:00"]}, {"name": "\ud544\uadf8\ub9bc\uc57d\uad6d", "lat": "36.781644085777096", "lng": "127.00111815958441", "url": "/info/%ED%95%84%EA%B7%B8%EB%A6%BC%EC%95%BD%EA%B5%AD-%EC%B6%A9%EC%B2%AD%EB%82%A8%EB%8F%84-%EC%95%84%EC%82%B0%EC%8B%9C-%EC%98%A8%EC%B2%9C%EB%8F%99/", "workingTime": ["-", "08:30~18:30", "08:30~18:30", "08:30~18:30", "08:30~18:30", "08:30~18:30", "08:30~13:00", "-"]}, {"name": "\uc2e0\ud55c\uc5bc\uc57d\uad6d", "lat": "36.78340317554063", "lng": "126.99591324267884", "url": "/info/%EC%8B%A0%ED%95%9C%EC%96%BC%EC%95%BD%EA%B5%AD-%EC%B6%A9%EC%B2%AD%EB%82%A8%EB%8F%84-%EC%95%84%EC%82%B0%EC%8B%9C-%EC%98%A8%EC%B2%9C%EB%8F%99/", "workingTime": ["-", "09:00~19:30", "09:00~19:30", "09:00~19:30", "09:00~19:30", "09:00~19:30", "09:00~16:30", "09:00~13:00"]}, {"name": "\uc138\uc885\uc57d\uad6d", "lat": "36.78233273471978", "lng": "126.99891110439138", "url": "/info/%EC%84%B8%EC%A2%85%EC%95%BD%EA%B5%AD-%EC%B6%A9%EC%B2%AD%EB%82%A8%EB%8F%84-%EC%95%84%EC%82%B0%EC%8B%9C-%EC%98%A8%EC%B2%9C%EB%8F%99/", "workingTime": ["1,2,3,4,5\uc9f8\uc8fc09:00~22:00", "09:00~22:00", "09:00~22:00", "09:00~22:00", "09:00~22:00", "09:00~22:00", "09:00~22:00", "09:00~22:00"]}, {"name": "\ub3c4\ub2f4\uc57d\uad6d", "lat": "36.78283368436141", "lng": "127.00423910267449", "url": "/info/%EB%8F%84%EB%8B%B4%EC%95%BD%EA%B5%AD-%EC%B6%A9%EC%B2%AD%EB%82%A8%EB%8F%84-%EC%95%84%EC%82%B0%EC%8B%9C-%EC%98%A8%EC%B2%9C%EB%8F%99/", "workingTime": ["1,2,3,4,5\uc9f8\uc8fc10:00~17:00", "08:30~19:30", "08:30~19:30", "08:30~19:30", "08:30~19:30", "08:30~19:30", "08:30~17:00", "08:30~17:00"]}, {"name": "\uc57d\uc0b0\uc57d\uad6d", "lat": "36.781294444444441", "lng": "127.003355555555558", "url": "/info/%EC%95%BD%EC%82%B0%EC%95%BD%EA%B5%AD-%EC%B6%A9%EC%B2%AD%EB%82%A8%EB%8F%84-%EC%95%84%EC%82%B0%EC%8B%9C-%EC%98%A8%EC%B2%9C%EB%8F%99/", "workingTime": ["-", "09:00~18:30", "09:00~18:30", "09:00~18:30", "09:00~18:30", "09:00~18:30", "09:00~14:00", "-"]}, {"name": "\uc194\uc57d\uad6d", "lat": "36.78267504589525", "lng": "127.0048440574681", "url": "/info/%EC%86%94%EC%95%BD%EA%B5%AD-%EC%B6%A9%EC%B2%AD%EB%82%A8%EB%8F%84-%EC%95%84%EC%82%B0%EC%8B%9C-%EC%98%A8%EC%B2%9C%EB%8F%99/", "workingTime": ["-", "08:30~19:00", "08:30~19:00", "08:30~19:00", "08:30~19:00", "08:30~19:00", "08:30~19:00", "-"]}, {"name": "\ub298\ud478\ub978\uc57d\uad6d", "lat": "36.77844686305777", "lng": "127.00606945095466", "url": "/info/%EB%8A%98%ED%91%B8%EB%A5%B8%EC%95%BD%EA%B5%AD-%EC%B6%A9%EC%B2%AD%EB%82%A8%EB%8F%84-%EC%95%84%EC%82%B0%EC%8B%9C-%EC%98%A8%EC%B2%9C%EB%8F%99/", "workingTime": ["-", "09:00~20:00", "09:00~20:00", "09:00~20:00", "09:00~20:00", "09:00~20:00", "09:00~14:00", "-"]}, {"name": "\ub179\uc2ed\uc790\uc57d\uad6d", "lat": "36.7829922459", "lng": "127.0051218862", "url": "/info/%EB%85%B9%EC%8B%AD%EC%9E%90%EC%95%BD%EA%B5%AD-%EC%B6%A9%EC%B2%AD%EB%82%A8%EB%8F%84-%EC%95%84%EC%82%B0%EC%8B%9C-%EC%98%A8%EC%B2%9C%EB%8F%99/", "workingTime": ["-", "08:00~20:00", "08:00~20:00", "08:00~20:00", "08:00~20:00", "08:00~20:00", "08:00~14:00", "-"]}, {"name": "\uc544\uc0b0\uc870\uc740\uc57d\uad6d", "lat": "36.78170555465044", "lng": "127.00143392491981", "url": "/info/%EC%95%84%EC%82%B0%EC%A1%B0%EC%9D%80%EC%95%BD%EA%B5%AD-%EC%B6%A9%EC%B2%AD%EB%82%A8%EB%8F%84-%EC%95%84%EC%82%B0%EC%8B%9C-%EC%98%A8%EC%B2%9C%EB%8F%99/", "workingTime": ["-", "09:00~18:30", "09:00~18:30", "09:00~18:30", "09:00~18:30", "09:00~18:30", "09:00~13:00", "-"]}, {"name": "\ub2e4\ubaa8\uc544\uc57d\uad6d", "lat": "36.78249108241576", "lng": "127.00481052254437", "url": "/info/%EB%8B%A4%EB%AA%A8%EC%95%84%EC%95%BD%EA%B5%AD-%EC%B6%A9%EC%B2%AD%EB%82%A8%EB%8F%84-%EC%95%84%EC%82%B0%EC%8B%9C-%EC%98%A8%EC%B2%9C%EB%8F%99/", "workingTime": ["-", "08:40~18:10", "08:40~18:10", "08:40~18:10", "08:40~18:10", "08:40~18:10", "08:40~13:00", "-"]}, {"name": "\uc774\ud654\uc57d\uad6d", "lat": "36.78126026970525", "lng": "127.00541865532509", "url": "/info/%EC%9D%B4%ED%99%94%EC%95%BD%EA%B5%AD-%EC%B6%A9%EC%B2%AD%EB%82%A8%EB%8F%84-%EC%95%84%EC%82%B0%EC%8B%9C-%EC%98%A8%EC%B2%9C%EB%8F%99/", "workingTime": ["1,2,3,4,5\uc9f8\uc8fc07:30~21:00", "07:30~21:30", "07:30~21:30", "07:30~21:30", "07:30~21:30", "07:30~21:30", "07:30~21:00", "07:30~21:30"]}]