[{"name": "\uc6b0\uc815\uc57d\uad6d", "lat": "36.8265055882", "lng": "127.1238960204", "url": "/info/%EC%9A%B0%EC%A0%95%EC%95%BD%EA%B5%AD-%EC%B6%A9%EC%B2%AD%EB%82%A8%EB%8F%84-%EC%B2%9C%EC%95%88%EC%8B%9C-%EB%B0%B1%EC%84%9D%EB%8F%99/", "workingTime": ["-", "09:00~19:30", "09:00~19:30", "09:00~19:30", "09:00~19:30", "09:00~19:30", "09:00~16:00", "-"]}, {"name": "\uc6d0\ub9c8\ud2b8\uc57d\uad6d", "lat": "36.86164091811418", "lng": "127.15229771363871", "url": "/info/%EC%9B%90%EB%A7%88%ED%8A%B8%EC%95%BD%EA%B5%AD-%EC%B6%A9%EC%B2%AD%EB%82%A8%EB%8F%84-%EC%B2%9C%EC%95%88%EC%8B%9C-%EB%B0%B1%EC%84%9D%EB%8F%99/", "workingTime": ["1,2,3,4,5\uc9f8\uc8fc09:00~20:30", "09:00~20:30", "09:00~20:30", "09:00~20:30", "-", "09:00~20:30", "09:00~20:30", "09:00~20:30"]}, {"name": "\ud2bc\ud2bc\uc57d\uad6d", "lat": "36.8235803682174", "lng": "127.11881603582303", "url": "/info/%ED%8A%BC%ED%8A%BC%EC%95%BD%EA%B5%AD-%EC%B6%A9%EC%B2%AD%EB%82%A8%EB%8F%84-%EC%B2%9C%EC%95%88%EC%8B%9C-%EB%B0%B1%EC%84%9D%EB%8F%99/", "workingTime": ["-", "09:00~19:30", "09:00~19:30", "09:00~19:30", "09:00~19:30", "09:00~19:30", "09:00~14:00", "09:00~13:00"]}, {"name": "\ub9ac\ud2bc\uc57d\uad6d", "lat": "36.8238834753", "lng": "127.1220446033", "url": "/info/%EB%A6%AC%ED%8A%BC%EC%95%BD%EA%B5%AD-%EC%B6%A9%EC%B2%AD%EB%82%A8%EB%8F%84-%EC%B2%9C%EC%95%88%EC%8B%9C-%EB%B0%B1%EC%84%9D%EB%8F%99/", "workingTime": ["-", "08:30~20:30", "08:30~20:30", "08:30~19:00", "08:30~20:30", "08:30~20:30", "08:30~15:00", "-"]}, {"name": "\ubc31\uc11d\uc81c\uc77c\uc57d\uad6d", "lat": "36.820917222499745", "lng": "127.11928341728841", "url": "/info/%EB%B0%B1%EC%84%9D%EC%A0%9C%EC%9D%BC%EC%95%BD%EA%B5%AD-%EC%B6%A9%EC%B2%AD%EB%82%A8%EB%8F%84-%EC%B2%9C%EC%95%88%EC%8B%9C-%EB%B0%B1%EC%84%9D%EB%8F%99/", "workingTime": ["-", "09:00~19:30", "09:00~19:30", "09:00~13:00", "09:00~19:30", "09:00~19:30", "09:00~13:30", "-"]}, {"name": "\uc6b0\ub9ac\ub4e4\uc57d\uad6d", "lat": "36.8242893131", "lng": "127.1234620319", "url": "/info/%EC%9A%B0%EB%A6%AC%EB%93%A4%EC%95%BD%EA%B5%AD-%EC%B6%A9%EC%B2%AD%EB%82%A8%EB%8F%84-%EC%B2%9C%EC%95%88%EC%8B%9C-%EB%B0%B1%EC%84%9D%EB%8F%99/", "workingTime": ["-", "09:00~18:30", "09:00~18:30", "09:00~18:30", "09:00~18:30", "09:00~18:30", "09:00~14:00", "-"]}, {"name": "\ub2e4\uc19c\ud55c\uc57d\uad6d", "lat": "36.82688931911408", "lng": "127.1222914938671", "url": "/info/%EB%8B%A4%EC%86%9C%ED%95%9C%EC%95%BD%EA%B5%AD-%EC%B6%A9%EC%B2%AD%EB%82%A8%EB%8F%84-%EC%B2%9C%EC%95%88%EC%8B%9C-%EB%B0%B1%EC%84%9D%EB%8F%99/", "workingTime": ["-", "09:00~18:30", "09:00~18:30", "09:00~18:30", "09:00~18:30", "09:00~18:30", "09:00~18:30", "-"]}, {"name": "\uc0bc\uc131\uc57d\uad6d", "lat": "36.83108389333487", "lng": "127.12324427081105", "url": "/info/%EC%82%BC%EC%84%B1%EC%95%BD%EA%B5%AD-%EC%B6%A9%EC%B2%AD%EB%82%A8%EB%8F%84-%EC%B2%9C%EC%95%88%EC%8B%9C-%EB%B0%B1%EC%84%9D%EB%8F%99/", "workingTime": ["-", "09:00~20:00", "09:00~20:00", "09:00~20:00", "09:00~20:00", "09:00~20:00", "09:00~14:00", "-"]}, {"name": "\uc870\uc544\uc57d\uad6d", "lat": "36.8385676222", "lng": "127.1223369903", "url": "/info/%EC%A1%B0%EC%95%84%EC%95%BD%EA%B5%AD-%EC%B6%A9%EC%B2%AD%EB%82%A8%EB%8F%84-%EC%B2%9C%EC%95%88%EC%8B%9C-%EB%B0%B1%EC%84%9D%EB%8F%99/", "workingTime": ["1,3,5\uc9f8\uc8fc10:00~22:00", "10:00~22:00", "10:00~22:00", "10:00~22:00", "10:00~22:00", "10:00~22:00", "10:00~22:00", "10:00~22:00"]}, {"name": "\ud61c\uad11\uc57d\uad6d", "lat": "36.82256518503236", "lng": "127.12460254649861", "url": "/info/%ED%98%9C%EA%B4%91%EC%95%BD%EA%B5%AD-%EC%B6%A9%EC%B2%AD%EB%82%A8%EB%8F%84-%EC%B2%9C%EC%95%88%EC%8B%9C-%EB%B0%B1%EC%84%9D%EB%8F%99/", "workingTime": ["-", "09:00~19:30", "09:00~19:30", "09:00~19:30", "09:00~19:30", "09:00~19:30", "09:00~14:00", "-"]}, {"name": "\ub9ac\uce58\uc57d\uad6d", "lat": "36.8254609551", "lng": "127.1161063879", "url": "/info/%EB%A6%AC%EC%B9%98%EC%95%BD%EA%B5%AD-%EC%B6%A9%EC%B2%AD%EB%82%A8%EB%8F%84-%EC%B2%9C%EC%95%88%EC%8B%9C-%EB%B0%B1%EC%84%9D%EB%8F%99/", "workingTime": ["-", "09:00~19:00", "09:00~19:00", "09:00~19:00", "09:00~19:00", "09:00~19:00", "09:00~13:30", "-"]}]