[{"name": "\uac00\uae4c\uc6b4\uc57d\uad6d", "lat": "36.302760718013175", "lng": "127.57084488115446", "url": "/info/%EA%B0%80%EA%B9%8C%EC%9A%B4%EC%95%BD%EA%B5%AD-%EC%B6%A9%EC%B2%AD%EB%B6%81%EB%8F%84-%EC%98%A5%EC%B2%9C%EA%B5%B0-%EC%98%A5%EC%B2%9C%EC%9D%8D/", "workingTime": ["-", "08:00~19:00", "08:00~20:00", "08:00~18:00", "08:00~20:00", "08:00~19:00", "08:00~13:00", "-"]}, {"name": "\uae40\uc57d\uad6d", "lat": "36.30144243045739", "lng": "127.5676925268752", "url": "/info/%EA%B9%80%EC%95%BD%EA%B5%AD-%EC%B6%A9%EC%B2%AD%EB%B6%81%EB%8F%84-%EC%98%A5%EC%B2%9C%EA%B5%B0-%EC%98%A5%EC%B2%9C%EC%9D%8D/", "workingTime": ["-", "08:00~18:30", "08:00~18:30", "08:00~18:30", "08:00~18:30", "08:00~18:30", "08:00~14:30", "-"]}, {"name": "\ub179\uc2ed\uc790\uc57d\uad6d", "lat": "36.30002275731649", "lng": "127.56756647223818", "url": "/info/%EB%85%B9%EC%8B%AD%EC%9E%90%EC%95%BD%EA%B5%AD-%EC%B6%A9%EC%B2%AD%EB%B6%81%EB%8F%84-%EC%98%A5%EC%B2%9C%EA%B5%B0-%EC%98%A5%EC%B2%9C%EC%9D%8D/", "workingTime": ["-", "08:00~18:00", "08:00~18:00", "08:00~18:00", "08:00~18:00", "08:00~18:00", "08:00~12:30", "09:00~12:30"]}, {"name": "\ub3d9\ud654\uc57d\uad6d", "lat": "36.302052777777774", "lng": "127.567972222222224", "url": "/info/%EB%8F%99%ED%99%94%EC%95%BD%EA%B5%AD-%EC%B6%A9%EC%B2%AD%EB%B6%81%EB%8F%84-%EC%98%A5%EC%B2%9C%EA%B5%B0-%EC%98%A5%EC%B2%9C%EC%9D%8D/", "workingTime": ["-", "08:00~21:00", "08:00~21:00", "08:00~21:00", "08:00~21:00", "08:00~21:00", "08:00~19:00", "08:00~19:00"]}, {"name": "\ubb38\ud654\uc57d\uad6d", "lat": "36.2997759275444", "lng": "127.56640684541924", "url": "/info/%EB%AC%B8%ED%99%94%EC%95%BD%EA%B5%AD-%EC%B6%A9%EC%B2%AD%EB%B6%81%EB%8F%84-%EC%98%A5%EC%B2%9C%EA%B5%B0-%EC%98%A5%EC%B2%9C%EC%9D%8D/", "workingTime": ["-", "08:00~18:00", "08:00~18:00", "08:00~18:00", "08:00~18:00", "08:00~18:00", "08:00~13:00", "-"]}, {"name": "\ubcf4\uac74\uc57d\uad6d", "lat": "36.30349206642683", "lng": "127.56950658750344", "url": "/info/%EB%B3%B4%EA%B1%B4%EC%95%BD%EA%B5%AD-%EC%B6%A9%EC%B2%AD%EB%B6%81%EB%8F%84-%EC%98%A5%EC%B2%9C%EA%B5%B0-%EC%98%A5%EC%B2%9C%EC%9D%8D/", "workingTime": ["-", "08:00~18:30", "08:00~18:30", "08:00~18:30", "08:00~18:30", "08:00~18:30", "08:00~13:00", "08:00~15:00"]}, {"name": "\ubcf4\uc740\ub2f9\uc57d\uad6d", "lat": "36.300541867086395", "lng": "127.56831838239746", "url": "/info/%EB%B3%B4%EC%9D%80%EB%8B%B9%EC%95%BD%EA%B5%AD-%EC%B6%A9%EC%B2%AD%EB%B6%81%EB%8F%84-%EC%98%A5%EC%B2%9C%EA%B5%B0-%EC%98%A5%EC%B2%9C%EC%9D%8D/", "workingTime": ["-", "08:30~18:00", "08:30~18:00", "08:30~18:00", "08:30~18:00", "08:30~18:00", "08:30~13:00", "-"]}, {"name": "\uc625\ucc9c\ub9e4\uc77c\uc57d\uad6d", "lat": "36.30138953850316", "lng": "127.56810505074814", "url": "/info/%EC%98%A5%EC%B2%9C%EB%A7%A4%EC%9D%BC%EC%95%BD%EA%B5%AD-%EC%B6%A9%EC%B2%AD%EB%B6%81%EB%8F%84-%EC%98%A5%EC%B2%9C%EA%B5%B0-%EC%98%A5%EC%B2%9C%EC%9D%8D/", "workingTime": ["1,2,3,4,5\uc9f8\uc8fc09:00~20:00", "08:00~20:30", "09:00~20:00", "09:00~20:00", "09:00~20:00", "09:00~20:00", "09:00~20:00", "09:00~20:00"]}, {"name": "\uc625\ucc9c\uc57d\uad6d", "lat": "36.29872280004199", "lng": "127.56652391984622", "url": "/info/%EC%98%A5%EC%B2%9C%EC%95%BD%EA%B5%AD-%EC%B6%A9%EC%B2%AD%EB%B6%81%EB%8F%84-%EC%98%A5%EC%B2%9C%EA%B5%B0-%EC%98%A5%EC%B2%9C%EC%9D%8D/", "workingTime": ["-", "08:00~18:30", "08:00~18:30", "08:00~18:30", "08:00~18:30", "08:00~18:30", "08:00~13:30", "08:00~20:00"]}, {"name": "\uc625\ucc9c\ud30c\ub9e5\uc2a4\uc57d\uad6d", "lat": "36.30207324006416", "lng": "127.56844973333939", "url": "/info/%EC%98%A5%EC%B2%9C%ED%8C%8C%EB%A7%A5%EC%8A%A4%EC%95%BD%EA%B5%AD-%EC%B6%A9%EC%B2%AD%EB%B6%81%EB%8F%84-%EC%98%A5%EC%B2%9C%EA%B5%B0-%EC%98%A5%EC%B2%9C%EC%9D%8D/", "workingTime": ["2,4\uc9f8\uc8fc10:00~13:00", "08:00~20:30", "08:00~20:30", "08:00~20:30", "08:00~20:30", "08:00~20:30", "08:00~19:00", "10:00~13:00"]}, {"name": "\uc6b0\ub9ac\ub4e4\uc57d\uad6d", "lat": "36.30187750329537", "lng": "127.56706205133216", "url": "/info/%EC%9A%B0%EB%A6%AC%EB%93%A4%EC%95%BD%EA%B5%AD-%EC%B6%A9%EC%B2%AD%EB%B6%81%EB%8F%84-%EC%98%A5%EC%B2%9C%EA%B5%B0-%EC%98%A5%EC%B2%9C%EC%9D%8D/", "workingTime": ["-", "08:00~19:00", "08:00~19:00", "08:00~19:00", "08:00~19:00", "08:00~19:00", "08:00~15:00", "08:00~20:00"]}, {"name": "\uc911\uc559\uc57d\uad6d", "lat": "36.3032068369", "lng": "127.5688498432", "url": "/info/%EC%A4%91%EC%95%99%EC%95%BD%EA%B5%AD-%EC%B6%A9%EC%B2%AD%EB%B6%81%EB%8F%84-%EC%98%A5%EC%B2%9C%EA%B5%B0-%EC%98%A5%EC%B2%9C%EC%9D%8D/", "workingTime": ["1,2,3,4,5\uc9f8\uc8fc08:00~19:00", "08:00~20:30", "08:00~20:30", "08:00~20:30", "08:00~20:30", "08:00~20:30", "08:00~19:00", "09:00~12:30"]}, {"name": "\ucc9c\ud61c\uc628\ub204\ub9ac\uc57d\uad6d", "lat": "36.27103659604846", "lng": "127.587859822101", "url": "/info/%EC%B2%9C%ED%98%9C%EC%98%A8%EB%88%84%EB%A6%AC%EC%95%BD%EA%B5%AD-%EC%B6%A9%EC%B2%AD%EB%B6%81%EB%8F%84-%EC%98%A5%EC%B2%9C%EA%B5%B0-%EC%98%A5%EC%B2%9C%EC%9D%8D/", "workingTime": ["-", "07:45~19:15", "07:45~19:15", "07:45~19:15", "07:45~19:15", "07:45~19:15", "07:45~19:15", "08:00~15:00"]}, {"name": "\ud070\uc0ac\ub791\uc57d\uad6d", "lat": "36.301859864737075", "lng": "127.56783807686346", "url": "/info/%ED%81%B0%EC%82%AC%EB%9E%91%EC%95%BD%EA%B5%AD-%EC%B6%A9%EC%B2%AD%EB%B6%81%EB%8F%84-%EC%98%A5%EC%B2%9C%EA%B5%B0-%EC%98%A5%EC%B2%9C%EC%9D%8D/", "workingTime": ["1,2,3,4,5\uc9f8\uc8fc09:00~17:00", "08:00~20:00", "08:00~20:00", "08:00~20:00", "08:00~20:00", "08:00~20:00", "08:00~20:00", "09:00~17:00"]}, {"name": "\ud558\ub098\uc57d\uad6d", "lat": "36.30225344907442", "lng": "127.56693689676243", "url": "/info/%ED%95%98%EB%82%98%EC%95%BD%EA%B5%AD-%EC%B6%A9%EC%B2%AD%EB%B6%81%EB%8F%84-%EC%98%A5%EC%B2%9C%EA%B5%B0-%EC%98%A5%EC%B2%9C%EC%9D%8D/", "workingTime": ["-", "08:00~18:00", "08:00~18:00", "08:00~18:00", "08:00~18:00", "08:00~18:00", "08:00~13:00", "08:00~12:30"]}, {"name": "\ud55c\ub9c8\uc74c\uc57d\uad6d", "lat": "36.299074403319096", "lng": "127.56677907867982", "url": "/info/%ED%95%9C%EB%A7%88%EC%9D%8C%EC%95%BD%EA%B5%AD-%EC%B6%A9%EC%B2%AD%EB%B6%81%EB%8F%84-%EC%98%A5%EC%B2%9C%EA%B5%B0-%EC%98%A5%EC%B2%9C%EC%9D%8D/", "workingTime": ["-", "08:30~18:00", "08:30~18:00", "08:30~18:00", "08:30~18:00", "08:30~18:00", "08:30~13:00", "-"]}, {"name": "\ud76c\ub9dd\uc57d\uad6d", "lat": "36.30161125156766", "lng": "127.56771921736978", "url": "/info/%ED%9D%AC%EB%A7%9D%EC%95%BD%EA%B5%AD-%EC%B6%A9%EC%B2%AD%EB%B6%81%EB%8F%84-%EC%98%A5%EC%B2%9C%EA%B5%B0-%EC%98%A5%EC%B2%9C%EC%9D%8D/", "workingTime": ["1,2,3,4,5\uc9f8\uc8fc10:00~20:00", "08:00~21:00", "08:00~21:00", "08:00~21:00", "08:00~21:00", "08:00~21:00", "08:00~20:00", "10:00~20:00"]}]