[{"name": "\uc138\ub9bc\uc57d\uad6d", "lat": "36.634507175379696", "lng": "127.45793299230826", "url": "/info/%EC%84%B8%EB%A6%BC%EC%95%BD%EA%B5%AD-%EC%B6%A9%EC%B2%AD%EB%B6%81%EB%8F%84-%EC%B2%AD%EC%A3%BC%EC%8B%9C-%EC%82%AC%EC%B0%BD%EB%8F%99/", "workingTime": ["-", "09:00~18:30", "09:00~18:30", "09:00~18:30", "09:00~18:30", "09:00~18:30", "09:00~13:00", "-"]}, {"name": "\uc2a4\ub9c8\uc77c\uc57d\uad6d", "lat": "36.63524797607577", "lng": "127.46132558120484", "url": "/info/%EC%8A%A4%EB%A7%88%EC%9D%BC%EC%95%BD%EA%B5%AD-%EC%B6%A9%EC%B2%AD%EB%B6%81%EB%8F%84-%EC%B2%AD%EC%A3%BC%EC%8B%9C-%EC%82%AC%EC%B0%BD%EB%8F%99/", "workingTime": ["-", "08:30~19:00", "08:30~19:00", "08:30~19:00", "08:30~19:00", "08:30~19:00", "08:30~13:00", "-"]}, {"name": "\uccad\uc548\uc57d\uad6d", "lat": "36.634452281164585", "lng": "127.45714535642901", "url": "/info/%EC%B2%AD%EC%95%88%EC%95%BD%EA%B5%AD-%EC%B6%A9%EC%B2%AD%EB%B6%81%EB%8F%84-%EC%B2%AD%EC%A3%BC%EC%8B%9C-%EC%82%AC%EC%B0%BD%EB%8F%99/", "workingTime": ["-", "09:00~18:30", "09:00~18:30", "09:00~18:30", "09:00~18:30", "09:00~18:30", "09:00~13:30", "-"]}, {"name": "\ub300\ucc3d\uc57d\uad6d", "lat": "36.63533038629624", "lng": "127.46389437691286", "url": "/info/%EB%8C%80%EC%B0%BD%EC%95%BD%EA%B5%AD-%EC%B6%A9%EC%B2%AD%EB%B6%81%EB%8F%84-%EC%B2%AD%EC%A3%BC%EC%8B%9C-%EC%82%AC%EC%B0%BD%EB%8F%99/", "workingTime": ["-", "09:00~18:00", "09:00~18:00", "09:00~18:00", "09:00~18:00", "09:00~18:00", "09:00~13:00", "-"]}, {"name": "\uba54\ub514\uceec\ub2e4\uc815\uc57d\uad6d", "lat": "36.6350695061", "lng": "127.4580730146", "url": "/info/%EB%A9%94%EB%94%94%EC%BB%AC%EB%8B%A4%EC%A0%95%EC%95%BD%EA%B5%AD-%EC%B6%A9%EC%B2%AD%EB%B6%81%EB%8F%84-%EC%B2%AD%EC%A3%BC%EC%8B%9C-%EC%82%AC%EC%B0%BD%EB%8F%99/", "workingTime": ["-", "09:00~19:00", "09:00~19:00", "09:00~19:00", "09:00~19:00", "09:00~19:00", "09:00~16:00", "09:00~13:00"]}, {"name": "\uac15\ub0a8\uc57d\uad6d", "lat": "36.6347531485", "lng": "127.4615909597", "url": "/info/%EA%B0%95%EB%82%A8%EC%95%BD%EA%B5%AD-%EC%B6%A9%EC%B2%AD%EB%B6%81%EB%8F%84-%EC%B2%AD%EC%A3%BC%EC%8B%9C-%EC%82%AC%EC%B0%BD%EB%8F%99/", "workingTime": ["-", "08:30~20:00", "08:30~20:00", "08:30~20:00", "08:30~20:00", "08:30~20:00", "08:30~19:30", "09:00~19:30"]}, {"name": "\uc0c8\ub86c\uc57d\uad6d", "lat": "36.635086563041", "lng": "127.45831911994216", "url": "/info/%EC%83%88%EB%A1%AC%EC%95%BD%EA%B5%AD-%EC%B6%A9%EC%B2%AD%EB%B6%81%EB%8F%84-%EC%B2%AD%EC%A3%BC%EC%8B%9C-%EC%82%AC%EC%B0%BD%EB%8F%99/", "workingTime": ["-", "09:00~19:00", "09:00~19:00", "09:00~19:00", "09:00~19:00", "09:00~19:00", "09:00~16:30", "09:00~13:00"]}, {"name": "\uccad\uc8fc\uc0c1\ub2f9\uc57d\uad6d", "lat": "36.6347665609", "lng": "127.4618504418", "url": "/info/%EC%B2%AD%EC%A3%BC%EC%83%81%EB%8B%B9%EC%95%BD%EA%B5%AD-%EC%B6%A9%EC%B2%AD%EB%B6%81%EB%8F%84-%EC%B2%AD%EC%A3%BC%EC%8B%9C-%EC%82%AC%EC%B0%BD%EB%8F%99/", "workingTime": ["1,2,3,4,5\uc9f8\uc8fc09:00~22:00", "09:00~24:00", "09:00~24:00", "09:00~24:00", "09:00~24:00", "09:00~24:00", "09:00~22:00", "09:00~22:00"]}, {"name": "\ub354\ud589\ubcf5\ud55c\uc57d\uad6d", "lat": "36.634571377", "lng": "127.4591926482", "url": "/info/%EB%8D%94%ED%96%89%EB%B3%B5%ED%95%9C%EC%95%BD%EA%B5%AD-%EC%B6%A9%EC%B2%AD%EB%B6%81%EB%8F%84-%EC%B2%AD%EC%A3%BC%EC%8B%9C-%EC%82%AC%EC%B0%BD%EB%8F%99/", "workingTime": ["-", "09:00~19:00", "09:00~19:00", "09:00~19:00", "09:00~19:00", "09:00~19:00", "09:00~14:00", "-"]}, {"name": "\uac74\uac15\ud558\ub098\ub85c\uc57d\uad6d", "lat": "36.634476954616", "lng": "127.45749705404998", "url": "/info/%EA%B1%B4%EA%B0%95%ED%95%98%EB%82%98%EB%A1%9C%EC%95%BD%EA%B5%AD-%EC%B6%A9%EC%B2%AD%EB%B6%81%EB%8F%84-%EC%B2%AD%EC%A3%BC%EC%8B%9C-%EC%82%AC%EC%B0%BD%EB%8F%99/", "workingTime": ["-", "08:30~18:30", "08:30~18:30", "08:30~18:30", "08:30~18:30", "08:30~18:30", "08:30~13:00", "-"]}, {"name": "\uc0ac\ub791\uc57d\uad6d", "lat": "36.6352217778", "lng": "127.4587805673", "url": "/info/%EC%82%AC%EB%9E%91%EC%95%BD%EA%B5%AD-%EC%B6%A9%EC%B2%AD%EB%B6%81%EB%8F%84-%EC%B2%AD%EC%A3%BC%EC%8B%9C-%EC%82%AC%EC%B0%BD%EB%8F%99/", "workingTime": ["-", "09:00~19:00", "09:00~19:00", "09:00~19:00", "09:00~19:00", "09:00~19:00", "09:00~16:00", "-"]}, {"name": "\uc11c\uccad\uc8fc\uc57d\uad6d", "lat": "36.63465855306642", "lng": "127.45994902707514", "url": "/info/%EC%84%9C%EC%B2%AD%EC%A3%BC%EC%95%BD%EA%B5%AD-%EC%B6%A9%EC%B2%AD%EB%B6%81%EB%8F%84-%EC%B2%AD%EC%A3%BC%EC%8B%9C-%EC%82%AC%EC%B0%BD%EB%8F%99/", "workingTime": ["-", "09:00~21:00", "09:00~21:00", "09:00~21:00", "09:00~21:00", "09:00~21:00", "09:00~13:00", "-"]}, {"name": "\uc628\ub204\ub9ac\ub300\uccad\uc57d\uad6d", "lat": "36.634099999999997", "lng": "127.464183333333338", "url": "/info/%EC%98%A8%EB%88%84%EB%A6%AC%EB%8C%80%EC%B2%AD%EC%95%BD%EA%B5%AD-%EC%B6%A9%EC%B2%AD%EB%B6%81%EB%8F%84-%EC%B2%AD%EC%A3%BC%EC%8B%9C-%EC%82%AC%EC%B0%BD%EB%8F%99/", "workingTime": ["-", "09:30~20:00", "09:30~20:00", "09:30~20:00", "09:30~20:00", "09:30~20:00", "09:30~19:00", "-"]}, {"name": "\uc7ac\ubbf8\uc2a8\uc57d\uad6d", "lat": "36.635154375859585", "lng": "127.46036344161808", "url": "/info/%EC%9E%AC%EB%AF%B8%EC%8A%A8%EC%95%BD%EA%B5%AD-%EC%B6%A9%EC%B2%AD%EB%B6%81%EB%8F%84-%EC%B2%AD%EC%A3%BC%EC%8B%9C-%EC%82%AC%EC%B0%BD%EB%8F%99/", "workingTime": ["-", "08:30~21:00", "08:30~21:00", "08:30~21:00", "08:30~21:00", "08:30~21:00", "08:30~15:00", "-"]}, {"name": "\ud558\ud2b8\uc57d\uad6d", "lat": "36.63481541438986", "lng": "127.46504406432919", "url": "/info/%ED%95%98%ED%8A%B8%EC%95%BD%EA%B5%AD-%EC%B6%A9%EC%B2%AD%EB%B6%81%EB%8F%84-%EC%B2%AD%EC%A3%BC%EC%8B%9C-%EC%82%AC%EC%B0%BD%EB%8F%99/", "workingTime": ["-", "09:00~18:00", "09:00~18:00", "09:00~18:00", "09:00~18:00", "09:00~18:00", "09:00~13:00", "-"]}]